id,osm_id,name,number,street,postal_code,city,country,country_code,status,lat,lon,website,phone,fax,year,stats,tags,description
6706101,2399054638,Musée de Bouxwiller et du pays de hanau,,Rue du Canal,67330,Bouxwiller,France,fr,open,48.8249535,7.4835103,,,,2010,payant:656;gratuit:79;label-date:01/02/2003,label:musee de france,
6732401,,Maison de l'Archéologie des Vosges du Nord,,,,NIEDERBRONN-LES-BAINS,France,fr,open,,,,,,2010,payant:2876;gratuit:3797;label-date:01/02/2003,label:musee de france,
6738801,,Musée du Fer,,,,REICHSHOFFEN,France,fr,open,,,,,,2010,payant:733;gratuit:579;label-date:01/02/2003,label:musee de france,
6748213,486650189,Musée Tomi Ungerer,,Rue Joseph Massol,67073,Strasbourg,France,fr,open,48.58570885,7.755036989998281,,,,2010,payant:15275;gratuit:24133;label-date:18/04/2008,label:musee de france,
6755001,2176631839,Musée de la Bataille du 6 Août 1870,,Cour du Château,67360,Wœrth,France,fr,open,48.9388096,7.7472595,,,,2010,payant:3068;gratuit:475;label-date:01/02/2003,label:musee de france,
6806301,6211249261,Musée de la Porte de Thann,,Rue Haffner,68700,Cernay,France,fr,open,47.8099726,7.1731847,,,,2010,payant:344;gratuit:287;label-date:01/02/2003,label:musee de france,
6806603,47576073,Musée Bartholdi,30,Rue des Marchands,68000,Colmar,France,fr,open,48.0766092,7.357482163734775,,,,2010,payant:7574;gratuit:3673;label-date:01/02/2003,label:musee de france,
6822404,449007880,Musée EDF Electropolis,,Autodrome du Musée de l'Automobile,68100,Mulhouse,France,fr,open,47.7612848,7.327971551196445,,,,2010,payant:24681;gratuit:11186;label-date:01/02/2003,label:musee de france,
6822402,45841480,Musée de l'Impression sur Etoffes,,Rue des Bonnes Gens,68100,Mulhouse,France,fr,open,47.7447923,7.344778561009134,,,,2010,payant:16119;gratuit:13142;label-date:01/02/2003,label:musee de france,
2403701,369318223,Musée du Tabac,,Place du Feu,24100,Bergerac,France,fr,open,44.84971,0.4837602,,,,2010,payant:2143;gratuit:1751;label-date:01/02/2003,label:musee de france,
2432201,,Musée d'Art et d'Archéologie du Périgord (MAAP),,,,PERIGUEUX,France,fr,open,,,,,,2010,payant:7210;gratuit:14385;label-date:01/02/2003,label:musee de france,
3305701,,Musée Municipal de Blasimon,,,,BLASIMON,France,fr,closed,,,,,,2010,payant:0;gratuit:0;label-date:01/02/2003,label:musee de france,
3306310,6912095875,Musée Goupil,,Cours Pasteur,33000,Bordeaux,France,fr,closed,44.8358149,-0.5749304,,,,2010,payant:0;gratuit:0;label-date:01/02/2003,label:musee de france,
3306306,79979299,Musée des Arts Décoratifs,,Rue Dufau,33000,Bordeaux,France,fr,open,44.837340600000005,-0.5806817120198913,,,,2010,payant:2733;gratuit:34499;label-date:01/02/2003,label:musee de france,
4016701,,Atelier-Musée  (Ecomusée de la Grande Landes),,,,LUXEY,France,fr,open,,,,,,2010,payant:926;gratuit:0;label-date:01/02/2003,label:musee de france,
4028601,5681725229,Musée de la Faïence et des arts de la table,,Route d'Hagetmau,40320,Samadet,France,fr,open,43.6412514,-0.5106808,,,,2010,payant:2039;gratuit:2187;label-date:01/02/2003,label:musee de france,
4719501,175744724,Musée du Château Henri IV,3,Rue Sederie,47600,Nérac,France,fr,open,44.1360265,0.3418098475080772,,,,2010,payant:19913;gratuit:6747;label-date:01/02/2003,label:musee de france,
6410203,72680932,Muséum d'Histoire Naturelle,,Chemin d'Ansot,64100,Bayonne,France,fr,open,43.474312999999995,-1.4780509999999973,,,,2010,payant:0;gratuit:7701;label-date:01/02/2003,label:musee de france,
6416001,209763123,Musée Edmond Rostand,,Avenue du Docteur Alexandre Camino,64250,Larressore,France,fr,open,43.36763065,-1.422666450245681,,,,2010,payant:63697;gratuit:5503;label-date:01/02/2003,label:musee de france,
1516801,6838400485,Ecomusée de Margeride-Haute-Auvergne,,,15320,Ruynes-en-Margeride,France,fr,open,44.9961982,3.207524,,,,2010,payant:9904;gratuit:2965;label-date:01/02/2003,label:musee de france,
1518701,982070993,Musée de la Haute Auvergne,,Place d'Armes,15100,Saint-Flour,France,fr,open,45.0330738,3.0948739,,,,2010,payant:2145;gratuit:2519;label-date:01/02/2003,label:musee de france,
4311701,,Musée des Arts et Traditions Populaires de Haute Loire,,,,LAVAUDIEU,France,fr,open,,,,,,2010,payant:10453;gratuit:689;label-date:01/02/2003,label:musee de france,
6324501,6579420423,Musée Lapidaire,,Rue de l'Abbaye,63200,Mozac,France,fr,open,45.8903834,3.0944753,,,,2010,payant:36;gratuit:736;label-date:01/02/2003,label:musee de france,
2115401,,Musée du Pays Châtillonnais - Trésor de Vix,,,,CHATILLON-SUR-SEINE,France,fr,open,,,,,,2010,payant:21283;gratuit:6427;label-date:01/02/2003,label:musee de france,
2123107,5141876795,Musée d'Art Sacré,,Rue Sainte-Anne,21000,Dijon,France,fr,open,47.3177794,5.0379087,,,,2010,payant:0;gratuit:5560;label-date:01/02/2003,label:musee de france,
2123105,255935624,Muséum - Jardin des Sciences,,Avenue Albert 1er,21000,Dijon,France,fr,open,47.3218523,5.0289424,,,,2010,payant:4618;gratuit:85383;label-date:06/01/2002,label:musee de france,
2125401,,Musée des Arts et Traditions des Hautes-Côtes,,,,GEVREY-CHAMBERTIN - Reulle Vergy,France,fr,closed,,,,,,2010,payant:0;gratuit:0;label-date:01/02/2003,label:musee de france,
2142501,702303764,Musée Buffon,,Rue du Parc Buffon,21500,Montbard,France,fr,open,47.6255801,4.3367165,,,,2010,payant:0;gratuit:11809;label-date:01/02/2003,label:musee de france,
2146401,4737197736,Musée Municipal,,Rue Camille Rodier,21700,Nuits-Saint-Georges,France,fr,open,47.1386701,4.9505695,,,,2010,payant:529;gratuit:2664;label-date:01/02/2003,label:musee de france,
2158401,1870447615,Musée Municipal François Pompon,,Place Docteur Roclore,21210,Saulieu,France,fr,open,47.2796264,4.2298054,,,,2010,payant:2668;gratuit:3192;label-date:01/02/2003,label:musee de france,
7110602,2239784876,Musée du Prieuré de Charolles,4,Rue du Prieuré,71120,Charolles,France,fr,open,46.4323423,4.2799145,,,,2010,payant:1293;gratuit:1573;label-date:01/02/2003,label:musee de france,
7127002,700244362,Musée Lamartine,,Rue des Ursulines,71000,Saint-Clément,France,fr,open,46.307027,4.833142197130883,,,,2010,payant:1393;gratuit:3660;label-date:01/02/2003,label:musee de france,
7135101,3617522815,Ecomusée de la Bresse Bourguignonne,,Rue du Château,71270,Pierre-de-Bresse,France,fr,open,46.8828547,5.2614005,,,,2010,payant:25079;gratuit:13216;label-date:01/02/2003,label:musee de france,
2901902,5882540291,Musée National de la Marine,,Rue Franklin Roosevelt,29200,Brest,France,fr,open,48.381272,-4.4923642,,,,2010,payant:30387;gratuit:31472;label-date:06/01/2002,label:musee de france,
2922001,,Musée Bigouden,,,,PONT-L'ABBE,France,fr,open,,,,,,2010,payant:12420;gratuit:1983;label-date:01/02/2003,label:musee de france,
3523803,178814913,Ecomusée du Pays de Rennes,,Route de Châtillon-Sur-Seiche,35230,Noyal-Châtillon-sur-Seiche,France,fr,open,48.07772335,-1.6663543566452403,,,,2010,payant:12747;gratuit:32438;label-date:01/02/2003,label:musee de france,
3523801,7422696,Musée de Bretagne,,Boulevard Magenta,35000|35700|35200,Rennes,France,fr,open,48.105132049999995,-1.6741388704016005,,,,2010,payant:34630;gratuit:12606;label-date:01/02/2003,label:musee de france,
3528802,,Musée d'Histoire de la Ville de Saint-Malo,,,,SAINT-MALO,France,fr,open,,,,,,2010,payant:18992;gratuit:8287;label-date:01/02/2003,label:musee de france,
3536001,92884430,Musée Saint-Nicolas,,Rue du Rachapt,35500,Vitré,France,fr,open,48.1260135,-1.2166992529105425,,,,2010,payant:183;gratuit:1621;label-date:01/02/2003,label:musee de france,
3536002,92884430,Musée du Château de Vitré,,Rue du Rachapt,35500,Vitré,France,fr,open,48.1260135,-1.2166992529105425,,,,2010,payant:14014;gratuit:6978;label-date:01/02/2003,label:musee de france,
5602301,449218730,Ecomusée de Saint-Dégan,,Rue Park Segal,56400,Brech,France,fr,open,47.7090601,-2.9935749,,,,2010,payant:10716;gratuit:2346;label-date:01/02/2003,label:musee de france,
1803305,219021603,Musée d'Histoire Naturelle Gabriel Foucher,,Rue Leonide Bourges,95430,Butry-sur-Oise,France,fr,open,49.09024075,2.200912995103998,,,,2010,payant:11075;gratuit:15029;label-date:01/02/2003,label:musee de france,
1827901,622149606,Musée Municipal,,Rue de la Société Française,18100,Vierzon,France,fr,open,47.2249147,2.0602204,,,,2010,payant:0;gratuit:1330;label-date:01/02/2003,label:musee de france,
2813401,182675003,Musée d'Art et d'Histoire de Dreux,,Place du Musée,28100,Dreux,France,fr,open,48.733925,1.3680411794478526,,,,2010,payant:2913;gratuit:4413;label-date:01/02/2003,label:musee de france,
3604401,,Musées de Châteauroux - Hôtel Bertrand,,,,CHATEAUROUX,France,fr,open,,,,,,2010,payant:0;gratuit:20853;label-date:01/02/2003,label:musee de france,
3700302,62782286,Musée de la poste,2,Rue du Clos Lucé,37400,Amboise,France,fr,closed,47.41032365,0.9921089543099333,,,,2010,payant:0;gratuit:0;label-date:01/02/2003,label:musee de france,
3726105,40514601,Musée du Compagnonnage,2,Place Anatole France,37000,Tours,France,fr,open,47.39641815,0.6869935971502714,,,,2010,payant:29667;gratuit:16002;label-date:01/02/2003,label:musee de france,
3728201,59213253,Musée de Minerve,,Place F. Mitterrand,37290,Yzeures-sur-Creuse,France,fr,open,46.786094399999996,0.8711447999999989,,,,2010,payant:0;gratuit:700;label-date:01/02/2003,label:musee de france,
4115801,636023615,Atelier Musée Louis Leygue,,Rue des Venages,41100,Naveil,France,fr,open,47.7939429,1.0312301,,,,2010,payant:0;gratuit:51;label-date:01/02/2003,label:musee de france,
4125801,1241279063,Musée Archéologique,,Allée de la Mairie,41140,Thésée,France,fr,open,47.3280766,1.3062994,,,,2010,payant:652;gratuit:214;label-date:01/02/2003,label:musee de france,
0840901,1874188907,Musée du Château-Fort,,Avenue de la Dernière Cartouche,08140,Bazeilles,France,fr,open,49.6817859,4.9754729,,,,2010,payant:53474;gratuit:1311;label-date:01/02/2003,label:musee de france,
1003301,,Musée Municipal,,,,BAR-SUR-AUBE,France,fr,closed,,,,,,2010,payant:0;gratuit:0;label-date:01/02/2003,label:musee de france,
1026801,,Musée Paul Dubois-Alfred Boucher,,,,NOGENT-SUR-SEINE,France,fr,open,,,,,,2010,payant:0;gratuit:890;label-date:01/02/2003,label:musee de france,
1038701,73123253,Muséum d'Histoire Naturelle (Musée Pic Saint-Loup),61,Rue de la Cité,10000,Troyes,France,fr,open,48.3007334,4.080420707848399,,,,2010,payant:0;gratuit:0;label-date:01/02/2003,label:musee de france,
1038704,,Musée des Beaux-Arts (Musée Pic Saint-Loup),,,,TROYES,France,fr,open,,,,,,2010,payant:7036;gratuit:4968;label-date:01/02/2003,label:musee de france,
1038706,73124719,Musée d'Art Moderne,,Rue de la Crosse,10000,Troyes,France,fr,open,48.29995,4.082291342005172,,,,2010,payant:11074;gratuit:19069;label-date:01/02/2003,label:musee de france,
5212102,6620521651,Musée de l'Affiche,1,Place Émile Goguenheim,52000,Chaumont,France,fr,closed,48.1105299,5.1354361,,,,2010,payant:0;gratuit:0;label-date:01/02/2003,label:musee de france,
5244801,65662699,Musée Municipal,,Allée Jean-François Lescuyer,52100,Saint-Dizier,France,fr,closed,48.63793305,4.948117698073352,,,,2010,payant:0;gratuit:0;label-date:01/02/2003,label:musee de france,
5123001,183978059,Musée Municipal d'Epernay,,D 45,73670,Entremont-le-Vieux,France,fr,closed,45.451615000000004,5.882174889178614,,,,2010,payant:0;gratuit:0;label-date:01/02/2003,label:musee de france,
5144501,418187,Ecomusée de la Montagne de Reims,,,51480,Pourcy,France,fr,closed,49.1574346,3.9081058,,,,2010,payant:0;gratuit:0;label-date:01/02/2003,label:musee de france,
5150702,,Musée de l'Argonne Viard-Morel,,,,SAINTE-MENEHOULD,France,fr,closed,,,,,,2010,payant:0;gratuit:0;label-date:01/02/2003,label:musee de france,
2A00403,66274796,Musée Palais Fesch,50-52,Rue Cardinal Fesch,20000,Ajaccio,France,fr,open,41.9218958,8.738913555286306,,,,2010,payant:26749;gratuit:12142;label-date:01/02/2003,label:musee de france,
2A14201,,Musée de l'Alta Rocca,,,,LEVIE,France,fr,open,,,,,,2010,payant:6592;gratuit:6437;label-date:01/02/2003,label:musee de france,
2505602,53757083,Musée du Temps,,Rue Victor Hugo,25000,Besançon,France,fr,open,47.2346134,6.029035561950042,,,,2010,payant:5742;gratuit:26872;label-date:01/02/2003,label:musee de france,
2505601,9493688,Musée des Beaux-Arts et d'Archéologie,,Place de la Révolution,25000,Besançon,France,fr,open,47.2402151,6.023512568897798,,,,2010,payant:4694;gratuit:44277;label-date:06/01/2002,label:musee de france,
2546201,34418085,Musée de Pontarlier,2,,25300,Pontarlier,France,fr,open,46.904336799999996,6.354752112674423,,,,2010,payant:1446;gratuit:8171;label-date:01/02/2003,label:musee de france,
7012201,87526037,Musée Départemental Albert-et-Félicie Demard - ATP,,Place de la Mairie,70600,Champlitte,France,fr,open,47.61684495,5.514228248646819,,,,2010,payant:11180;gratuit:7126;label-date:01/02/2003,label:musee de france,
3901302,2637893946,Musée de la Vigne et du Vin,,Passage Saint-Vernier,39600,Arbois,France,fr,open,46.9035466,5.7751443,,,,2010,payant:3969;gratuit:1578;label-date:01/02/2003,label:musee de france,
3909701,847296482,Musée Municipal d'Archéologie,,Frazione Luboz,11018,Saint-Pierre,Italia,it,open,45.7102452,7.2269227,,,,2010,payant:259;gratuit:323;label-date:01/02/2003,label:musee de france,
3950001,151950172,Musée des Salines,,Place des Salines,39110,Salins-les-Bains,France,fr,open,46.9376405,5.8761571935790275,,,,2010,payant:68104;gratuit:8146;label-date:01/02/2003,label:musee de france,
9004101,2647243377,Forge-Musée,,Rue de Rougemont,90170,Étueffont,France,fr,open,47.7224462,6.920875,,,,2010,payant:1191;gratuit:906;label-date:01/02/2003,label:musee de france,
9711201,6042462812,Ecomusée de Marie-Galante,,Route de Grand-Bourg à Capesterre,97140,Grand-Bourg,France,fr,closed,15.8784483,-61.2995603,,,,2010,payant:0;gratuit:0;label-date:01/02/2003,label:musee de france,
9109701,48359053,Musée Dunoyer de Segonzac,,Rue de la Glacière,91800,Brunoy,France,fr,open,48.7003494,2.5007316063279736,,,,2010,payant:0;gratuit:0;label-date:01/02/2003,label:musee de france,
9201203,2701140971,Musée Départemental Albert-Kahn,10,Rue du Port,92100,Boulogne-Billancourt,France,fr,open,48.8414886,2.2270833,,,,2010,payant:78417;gratuit:35149;label-date:01/02/2003,label:musee de france,
9201204,,Musée Belmondo et de la Sculpture Figurative du XXè siècle,,,,BOULOGNE-BILLANCOURT,France,fr,open,,,,,,2010,payant:6263;gratuit:2668;label-date:13/03/2007,label:musee de france,
9202301,29036,Fondation Arp,,,92140,Clamart,France,fr,open,48.800368,2.2630292,,,,2010,payant:1620;gratuit:333;label-date:16/12/2003,label:musee de france,
9207101,1620203330,Musée de l'Île-de-France,,Allée de la Duchesse,92330,Sceaux,France,fr,open,48.7742577,2.300099,,,,2010,payant:0;gratuit:48252;label-date:01/02/2003,label:musee de france,
7510507,7444,Galerie de Botanique (Muséum National National d'Histoire Naturelle),,,,Paris,France,fr,closed,48.8566969,2.3514616,,,,2010,payant:0;gratuit:0;label-date:06/01/2002,label:musee de france,
7511618,4828705432,Musée National de la Marine,,Villa Marie Vassilieff,75015,Paris,France,fr,open,48.8434128,2.320792,,,,2010,payant:102202;gratuit:67802;label-date:06/01/2002,label:musee de france,
7510602,395785603,Musée National Eugène Delacroix,,Rue Jacob,75006,Paris,France,fr,open,48.85464155,2.335393670592886,,,,2010,payant:46188;gratuit:21384;label-date:06/01/2002,label:musee de france,
7510901,251318666,Musée National Gustave Moreau,,Rue de La Rochefoucauld,75009,Paris,France,fr,open,48.8779237,2.3345515,,,,2010,payant:20865;gratuit:17800;label-date:06/01/2002,label:musee de france,
7510103,,Etablissement public du musée d'Orsay et de l'Orangerie - Musée de l'Orangerie,,,,PARIS,France,fr,open,,,,,,2010,payant:466926;gratuit:224032;label-date:06/01/2002,label:musee de france,
7510706,895871273,Musée National de la Légion d'Honneur et des Ordres de Chevalerie,,Rue de la Légion d'Honneur,75007,Paris,France,fr,open,48.8602845,2.3247488,,,,2010,payant:0;gratuit:42000;label-date:06/01/2002,label:musee de france,
7510905,84511123,Musée de la Vie Romantique,16,Rue Chaptal,75009,Paris,France,fr,open,48.88120505,2.333539383011497,,,,2010,payant:63105;gratuit:77563;label-date:08/07/2004,label:musee de france,
7510902,1336873192,Musée de la Franc-Maçonnerie,16,Rue Cadet,75009,Paris,France,fr,open,48.8749151,2.3431481,,,,2010,payant:12451;gratuit:3307;label-date:01/02/2003,label:musee de france,
7510306,,"Musée Cognacq-Jay, Musée du XVIIIe siècle de la ville de Paris",,,,PARIS,France,fr,open,,,,,,2010,payant:5239;gratuit:38847;label-date:08/07/2004,label:musee de france,
7511001,,Musée de la Publicité (Union Centrale des Arts Décoratifs),,,,PARIS,France,fr,open,,,,,,2010,payant:0;gratuit:0;label-date:06/01/2002,label:musee de france,
7511620,368173940,Musée National du Sport,,Green Street,94133,San Francisco,United States,us,open,37.7994878,-122.4102893,,,,2010,payant:5890;gratuit:5058;label-date:16/12/2003,label:musee de france,
7510304,5918699678,Musée National des Techniques,,Rue Joliot-Curie,91190,Le Moulon,France,fr,open,48.7094092,2.1666145,,,,2010,payant:83588;gratuit:126460;label-date:06/01/2002,label:musee de france,
7710802,,"Musée des Transports Urbains, Interurbains et Ruraux",,,,CHELLES,France,fr,closed,,,,,,2010,payant:0;gratuit:0;label-date:01/02/2003,label:musee de france,
7728802,112363959,Musée d'Art et d'Histoire de Melun,1-3,Rue Émile Leclerc,77000,Melun,France,fr,open,48.54554555,2.6529119346368715,,,,2010,payant:6600;gratuit:0;label-date:01/02/2003,label:musee de france,
7744501,4895409053,Ecomusée,,Rue de la Libération,77176,Savigny-le-Temple,France,fr,open,48.5745236,2.5833427,,,,2010,payant:0;gratuit:9055;label-date:01/02/2003,label:musee de france,
9307001,12625911,Musée Municipal,,Route des Laveurs,JE3 7FQ,St. Ouen,Jersey,je,closed,49.2291856,-2.2343313,,,,2010,payant:0;gratuit:0;label-date:01/02/2003,label:musee de france,
9501801,80773777,Musée du Vieil Argenteuil,,Rue de Rubelles,95390,Saint-Prix,France,fr,open,49.01175795,2.264040737016648,,,,2010,payant:801;gratuit:1125;label-date:01/02/2003,label:musee de france,
9550001,43971811,Musée Tavet Delacour,,Rue Lemercier,95300,Pontoise,France,fr,open,49.051103499999996,2.0996586365287904,,,,2010,payant:1561;gratuit:4713;label-date:01/02/2003,label:musee de france,
9535101,4542685707,Musée Intercommunal d'Histoire et d'Archéologie de Louvres,56,Rue de Paris,95380,Louvres,France,fr,open,49.041052,2.5072634,,,,2010,payant:1329;gratuit:2615;label-date:01/02/2003,label:musee de france,
7835001,111722627,Musée Promenade Marly/Louveciennes,1,Route de la Grille Royale,78160,Marly-le-Roi,France,fr,open,48.85892685,2.1055024916555407,,,,2010,payant:5951;gratuit:2844;label-date:01/02/2003,label:musee de france,
7849802,38327851,Musée d'Art et d'Histoire,82,Rue de Villiers,78300,Poissy,France,fr,closed,48.924420600000005,2.028297560090527,,,,2010,payant:0;gratuit:0;label-date:01/02/2003,label:musee de france,
7849801,,Musée du Jouet Pierre Pinel,,,,POISSY,France,fr,open,,,,,,2010,payant:12239;gratuit:4524;label-date:01/02/2003,label:musee de france,
7855101,154883691,Musée Départemental Maurice Denis,2bis,Rue Maurice Denis,78100,Saint-Germain-en-Laye,France,fr,open,48.8925939,2.0868889919163913,,,,2010,payant:10799;gratuit:16614;label-date:01/02/2003,label:musee de france,
9741301,,Muséum Agricole et Industriel Stella Matutina,,,,PITON-SAINT-LEU,France,fr,open,,,,,,2010,payant:40790;gratuit:11371;label-date:01/02/2003,label:musee de france,
9741101,146919869,Musée Départemental de la Réunion - Musée Léon Dierx,,Rue Sainte Marie,97400,Saint-Denis,France,fr,open,-20.883840050000003,55.450058317623416,,,,2010,payant:3287;gratuit:13323;label-date:01/02/2003,label:musee de france,
1107601,321732839,Musée Archéologique du Lauragais,,Rampe du Présidial,11400,Castelnaudary,France,fr,open,43.3155934,1.9588475,,,,2010,payant:0;gratuit:1771;label-date:01/02/2003,label:musee de france,
1126201,92058703,Musée d'Art et d'Histoire - Ensemble monumental de Narbonne,,Rue des Jacobins,11100,Narbonne,France,fr,open,43.1809595,3.004147255208337,,,,2010,payant:58027;gratuit:262394;label-date:2002-06-13 00:00:00,label:musee de france,
3035001,2363137316,Musée Cévenol,1,Rue des Calquières,30120,Le Vigan,France,fr,open,43.9889631,3.6072627,,,,2010,payant:2711;gratuit:1781;label-date:01/02/2003,label:musee de france,
3018905,41832267,Musée des Beaux-Arts,,Rue de la Cité Foulc,30033,Nîmes,France,fr,open,43.83194295,4.360586484823399,,,,2010,payant:3240;gratuit:16409;label-date:01/02/2003,label:musee de france,
3020201,,Musée Paul Raymond,,,,PONT-SAINT-ESPRIT,France,fr,open,,,,,,2010,payant:0;gratuit:1182;label-date:01/02/2003,label:musee de france,
3033401,2910313011,Musée Municipal Georges Borias,,Promendade Racine,30700,Uzès,France,fr,open,44.0124548,4.422769,,,,2010,payant:1212;gratuit:1409;label-date:01/02/2003,label:musee de france,
3403203,70070,Muséum d'Histoire Naturelle,,,34500,Béziers,France,fr,closed,43.3426562,3.2131307,,,,2010,payant:0;gratuit:0;label-date:01/02/2003,label:musee de france,
3410801,1964228636,Musée Municipal,27,Quai du Maréchal de Lattre de Tassigny,34200,Sète,France,fr,open,43.4060674,3.6961935,,,,2010,payant:0;gratuit:5113;label-date:01/02/2003,label:musee de france,
3411901,425241849,Musée de la Cloche et de la Sonnaille,,Avenue des Treize Vents,34600,Hérépian,France,fr,closed,43.59457755,3.112557793850808,,,,2010,payant:0;gratuit:0;label-date:01/02/2003,label:musee de france,
3412901,,Site Archéologique Lattara - Musée Henri Prades de Montpellier Agglomération,,,,LATTES,France,fr,open,,,,,,2010,payant:8312;gratuit:13428;label-date:01/02/2003,label:musee de france,
3400302,1131132,Musée de l'Ephèbe,,Place du Père Marcel Astruc,34300,Agde,France,fr,open,43.2868906,3.5137320418987343,,,,2010,payant:9457;gratuit:4962;label-date:01/02/2003,label:musee de france,
3417209,598184808,Musée du Vieux Montpellier,,Place Pétrarque,34062,Montpellier,France,fr,open,43.6106627,3.8785261,,,,2010,payant:506;gratuit:2261;label-date:01/02/2003,label:musee de france,
3430101,2244412926,Musée Paul Valéry,,Rue François Desnoyer,34200,Sète,France,fr,open,43.3953827,3.6906637,,,,2010,payant:47250;gratuit:6361;label-date:01/02/2003,label:musee de france,
4809501,,Musée Ignon Fabre,,,,MENDE,France,fr,closed,,,,,,2010,payant:0;gratuit:0;label-date:01/02/2003,label:musee de france,
6604902,2004488993,Musée départemental d'Art Moderne,,Boulevard du Maréchal Joffre,66400,Céret,France,fr,open,42.4859058,2.7484863,,,,2010,payant:45296;gratuit:30724;label-date:01/02/2003,label:musee de france,
6605301,,Musée d'Art Moderne - Fonds Peskè,,,,COLLIOURE,France,fr,open,,,,,,2010,payant:7555;gratuit:2033;label-date:01/02/2003,label:musee de france,
6614801,,Musée d'Archéologie Sous-Marine,,,,PORT-VENDRES,France,fr,closed,,,,,,2010,payant:0;gratuit:0;label-date:01/02/2003,label:musee de france,
5415401,113033,Les Sources d'Hercule,,,54120,Deneuvre,France,fr,open,48.4443122,6.7356749,,,,2010,payant:3400;gratuit:567;label-date:01/02/2003,label:musee de france,
5439502,64003170,Muséum- Aquarium de Nancy,,Rue Sainte-Catherine,54100,Nancy,France,fr,open,48.6947248,6.187939874919698,,,,2010,payant:24184;gratuit:48747;label-date:01/02/2003,label:musee de france,
5535101,,Musée Jules Bastien-Lepage - Musée de la Fortification,,,,MONTMEDY,France,fr,open,,,,,,2010,payant:11369;gratuit:989;label-date:01/02/2003,label:musee de france,
5725601,309445273,Musée Départemental de la Guerre de 70,11,Rue de Metz,57130,Gravelotte,France,fr,closed,49.114021050000005,6.029759781346406,,,,2010,payant:0;gratuit:0;label-date:01/02/2003,label:musee de france,
5744801,253993536,Musée Départemental du Sel,,D 38A,57630,Marsal,France,fr,open,48.788486,6.6057743,,,,2010,payant:4275;gratuit:6654;label-date:01/02/2003,label:musee de france,
5763001,2351192125,Musée du Pays de Sarrebourg,,Rue de la Paix,57400,Sarrebourg,France,fr,open,48.7352213,7.05534,,,,2010,payant:12402;gratuit:11399;label-date:01/02/2003,label:musee de france,
5763102,,Moulin de la Blies - Musée des Techniques Faïencières,,,,SARREGUEMINES,France,fr,open,,,,,,2010,payant:22568;gratuit:0;label-date:01/02/2003,label:musee de france,
5771201,227335819,Musée Départemental Georges de la Tour,,Place Jeanne D'Arc,57630,Vic-sur-Seille,France,fr,open,48.781924000000004,6.531002917135707,,,,2010,payant:8930;gratuit:6153;label-date:01/02/2003,label:musee de france,
8835101,,Musée Louis Français,,,,PLOMBIERES-LES-BAINS,France,fr,open,,,,,,2010,payant:0;gratuit:195;label-date:01/02/2003,label:musee de france,
9720901,4807601528,Musée Départemental d'Archéologie Précolombienne et de Préhistoire de la Martinique,10,Boulevard Général de Gaulle,97200,Fort-de-France,France,fr,open,14.6063988,-61.0657667,,,,2010,payant:549;gratuit:10;label-date:01/02/2003,label:musee de france,
1220301,2242124020,Musée Municipal d'archéologie,2,Avenue François Galtier,12250,Roquefort-sur-Soulzon,France,fr,closed,43.9745977,2.9927119,,,,2010,payant:0;gratuit:0;label-date:01/02/2003,label:musee de france,
3211901,110292132,Musée Archéologique,,Rue Marpoy,32800,Eauze,France,fr,open,43.8609266,0.10142317069741685,,,,2010,payant:3840;gratuit:1749;label-date:01/02/2003,label:musee de france,
3225601,2923353853,Musée des Beaux-Arts et des Arts Décoratifs,,Rue de l'Évêché,32300,Mirande,France,fr,open,43.5153164,0.40345,,,,2010,payant:600;gratuit:505;label-date:01/02/2003,label:musee de france,
3104201,,Musée du Pays de Luchon,,,,BAGNERES-DE-LUCHON,France,fr,open,,,,,,2010,payant:2455;gratuit:1911;label-date:01/02/2003,label:musee de france,
3155507,22718219,Musée des Transports et des Communications,,Rue Antonin Mercié,31000,Toulouse,France,fr,open,43.6009417,1.4463433320120154,,,,2010,payant:0;gratuit:684;label-date:01/02/2003,label:musee de france,
3155502,261558997,Musée Saint-Raymond,1,Place Saint-Sernin,31000,Toulouse,France,fr,open,43.60783095,1.4411195508590957,,,,2010,payant:21587;gratuit:54716;label-date:01/02/2003,label:musee de france,
8109902,60929966,Muséum d'histoire naturelle Philadelphe Thomas,,Rue Philadelphe Thomas,81600,Gaillac,France,fr,open,43.8993239,1.8943379,,,,2010,payant:730;gratuit:2842;label-date:01/02/2003,label:musee de france,
8109903,1794967900,Musée de l'Abbaye Saint-Michel,,Petite Rue Saint-Michel,81600,Gaillac,France,fr,open,43.8969758,1.8960647,,,,2010,payant:2056;gratuit:1286;label-date:01/02/2003,label:musee de france,
8200801,,Musée du Vieil Auvillar,,,,AUVILLAR,France,fr,open,,,,,,2010,payant:2276;gratuit:808;label-date:01/02/2003,label:musee de france,
8207501,89104903,Musée Théodore Calbet,15,Rue Jean de Comère,82170,Grisolles,France,fr,open,43.827752000000004,1.2947097401960788,,,,2010,payant:0;gratuit:2092;label-date:01/02/2003,label:musee de france,
8212101,127805191,Musée d'Histoire Naturelle Victor Brun,,Rue Marie Lafon,82000,Montauban,France,fr,open,44.01688865,1.3514607739557976,,,,2010,payant:1130;gratuit:6261;label-date:01/02/2003,label:musee de france,
5904301,81168271,Musée Benoît de Puydt,,Rue des Viviers,59270,Bailleul,France,fr,open,50.7407272,2.7345033127504697,,,,2010,payant:1080;gratuit:4898;label-date:01/02/2003,label:musee de france,
5913501,5918815893,Musée Départemental de Flandre,,Grand Place,59670,Cassel,France,fr,open,50.7996394,2.4862076,,,,2010,payant:14838;gratuit:6644;label-date:01/02/2003,label:musee de france,
5927301,178161634,Musée du Dessin et de l'Estampe Originale,,Allée des Marronniers,59820,Gravelines,France,fr,open,50.986065999999994,2.123488242316782,,,,2010,payant:7556;gratuit:5081;label-date:01/02/2003,label:musee de france,
5934501,,"Musée de la Mine, Centre Historique Minier",,,,LEWARDE,France,fr,open,,,,,,2010,payant:135152;gratuit:13030;label-date:01/02/2003,label:musee de france,
5935003,41065833,Musée d'Histoire Naturelle et de Géologie,19,Rue de Bruxelles,59000,Lille,France,fr,open,50.6266587,3.06701952992126,,,,2010,payant:57299;gratuit:0;label-date:01/02/2003,label:musee de france,
5937501,,Musée d'Histoire Locale de Marchiennes,,,,MARCHIENNES,France,fr,open,,,,,,2010,payant:285;gratuit:599;label-date:01/02/2003,label:musee de france,
5955501,72886174,Musée du Verre,1,Rue du Général de Gaulle,59216,Sars-Poteries,France,fr,open,50.1641293,4.0237244496073945,,,,2010,payant:4905;gratuit:3963;label-date:01/02/2003,label:musee de france,
5900901,153320966,Musée d'Art Moderne de Lille Métropole,1,Allée du Musée,59650,Villeneuve-d'Ascq,France,fr,open,50.6375976,3.150668386787098,,,,2010,payant:48843;gratuit:39919;label-date:01/02/2003,label:musee de france,
6258801,,Musée d'Art et d'Histoire Roger Rodière,,,,MONTREUIL-SUR-MER,France,fr,open,,,,,,2010,payant:3161;gratuit:4443;label-date:01/02/2003,label:musee de france,
1411801,315032925,Musée des Beaux-Arts,,Chemin des Fossés du Château,14000,Caen,France,fr,open,49.1862879,-0.3615817,,,,2010,payant:73050;gratuit:78527;label-date:06/01/2002,label:musee de france,
1437002,2405267465,Musée de la Meunerie - Moulin de Marcy,,Rue de Marcy,14330,Littry,France,fr,open,49.2277192,-0.9045211,,,,2010,payant:4455;gratuit:3146;label-date:01/02/2003,label:musee de france,
1447801,5867247985,Musée Municipal,107,Rue Grande,14290,Orbec,France,fr,open,49.0222179,0.4065429,,,,2010,payant:261;gratuit:1019;label-date:01/02/2003,label:musee de france,
5012902,621413281,Musée Thomas Henry,,Esplanade de la Laïcité,50100,Cherbourg-en-Cotentin,France,fr,open,49.6373411,-1.6229459,,,,2010,payant:0;gratuit:28130;label-date:01/02/2003,label:musee de france,
5017301,,Musée Municipal,,,,EQUEURDREVILLLE-HAINNEVILLE,France,fr,open,,,,,,2010,payant:0;gratuit:2970;label-date:01/02/2003,label:musee de france,
6116901,11561463,Musée du Château de Flers,268,Rue Jules Guesde,59650,Villeneuve-d'Ascq,France,fr,open,50.638618050000005,3.1301791408474804,,,,2010,payant:0;gratuit:8763;label-date:11/11/2002,label:musee de france,
6137901,4317391883,Musée Départemental des Arts et Traditions Populaires du Perche,,D 277,61130,Saint-Cyr-la-Rosière,France,fr,open,48.3249849,0.6549988,,,,2010,payant:13035;gratuit:10059;label-date:01/02/2003,label:musee de france,
7625902,,Musée des Arts & de l'Enfance,,,,FECAMP,France,fr,closed,,,,,,2010,payant:0;gratuit:0;label-date:01/02/2003,label:musee de france,
7635101,69981531,Musée d'Art Moderne André Malraux - MuMa,2,Boulevard Clemenceau,76600,Le Havre,France,fr,open,49.48501735,0.10265666643901614,,,,2010,payant:53137;gratuit:24948;label-date:01/02/2003,label:musee de france,
7635103,76087045,Musée de l'Hôtel Dubocage de Bléville,,Rue de l'Abbaye,76600,Le Havre,France,fr,open,49.503292200000004,0.1652970079749255,,,,2010,payant:0;gratuit:5522;label-date:01/02/2003,label:musee de france,
7654006,64181345,Musée Le Secq des Tournelles,2,Rue Jacques Villon,76000,Rouen,France,fr,open,49.4444344,1.0952946837337665,,,,2010,payant:5996;gratuit:9860;label-date:01/02/2003,label:musee de france,
7662401,1826563,Association de l'Horlogerie Aliermontaise,,,76510,Saint-Nicolas-d'Aliermont,France,fr,open,49.878403,1.2140639,,,,2010,payant:3707;gratuit:1872;label-date:01/02/2003,label:musee de france,
7675801,122011226,Musée Municipal des Ivoires,8,Place du Maréchal Joffre,76190,Yvetot,France,fr,open,49.6173905,0.7551113568840564,,,,2010,payant:699;gratuit:427;label-date:01/02/2003,label:musee de france,
4401001,,Musée des Marais Salant,,,,BATZ-SUR-MER,France,fr,open,,,,,,2010,payant:10556;gratuit:1096;label-date:20/12/2005,label:musee de france,
4410904,6808838,Musée du Château des Ducs de Bretagne,4,Place Marc Elder,44000,Nantes,France,fr,open,47.21609735,-1.5499958913608,,,,2010,payant:93303;gratuit:95376;label-date:01/02/2003,label:musee de france,
4900702,126922667,Musée Pincé,32,Rue Lenepveu,49100,Angers,France,fr,closed,47.4720515,-0.5520486041666655,,,,2010,payant:0;gratuit:0;label-date:01/02/2003,label:musee de france,
5313002,67786025,Musée des Sciences - CCSTI,,Place de Hercé,53000,Laval,France,fr,open,48.0657933,-0.7704053486072425,,,,2010,payant:5916;gratuit:54118;label-date:01/02/2003,label:musee de france,
8516302,5624961822,Musée du Château,,Place d'Armes,85330,Noirmoutier-en-l'Île,France,fr,open,47.0004648,-2.2421269,,,,2010,payant:38594;gratuit:6608;label-date:01/02/2003,label:musee de france,
0209301,3724972649,Musée Franco-Américain du Château de Blérancourt,,Place du Général Leclerc,02300,Blérancourt,France,fr,closed,49.5176668,3.1530757,,,,2010,payant:0;gratuit:0;label-date:06/01/2002,label:musee de france,
0269101,447567433,Musée Entomologique,,Rue Antoine Lécuyer,02100,Saint-Quentin,France,fr,open,49.8499358,3.2849588,,,,2010,payant:4248;gratuit:6003;label-date:01/02/2003,label:musee de france,
6005701,556458814,Musée Départemental de l'Oise,,Rue Saint-Pierre,60000,Beauvais,France,fr,open,49.4329907,2.0796036241134193,,,,2010,payant:0;gratuit:31153;label-date:01/02/2003,label:musee de france,
6017601,,Musée de l'Archerie et de l'Art Sacré,,,,CREPY-EN-VALOIS,France,fr,open,,,,,,2010,payant:2937;gratuit:2953;label-date:01/02/2003,label:musee de france,
6047103,476735511,Musée Jean Calvin,,Rue du Porcelet,60400,Noyon,France,fr,open,49.5817505,2.9984424,,,,2010,payant:2832;gratuit:893;label-date:01/02/2003,label:musee de france,
6061203,5357724995,Musée de la Vénerie,,Place Saint-Maurice,60300,Senlis,France,fr,open,49.2072693,2.5833865,,,,2010,payant:7061;gratuit:6695;label-date:01/02/2003,label:musee de france,
8000101,638296084,Musée Boucher-de-Perthes,,Rue Gontier Patin,80100,Abbeville,France,fr,open,50.1071737,1.8333893,,,,2010,payant:2732;gratuit:7700;label-date:01/02/2003,label:musee de france,
8025301,53222058,Musée Lombart,,Rue du Musée,80600,Doullens,France,fr,open,50.1546836,2.3437442,,,,2010,payant:369;gratuit:5337;label-date:01/02/2003,label:musee de france,
1601504,,Cité International de la Bande Dessinée et de l'Image - Musée de la Bande Dessinée,,,,ANGOULEME,France,fr,open,,,,,,2010,payant:12341;gratuit:38803;label-date:01/02/2003,label:musee de france,
1610202,1021853,Musée des Arts du Cognac (Annexe musée municipal),Place,Place de la Salle Verte,16100,Cognac,France,fr,open,45.695510549999995,-0.3321661455206766,,,,2010,payant:6716;gratuit:5316;label-date:01/02/2003,label:musee de france,
1715301,81375628,Musée de la Mytiliculture,,Rue de l'Église,17137,Esnandes,France,fr,open,46.2492163,-1.1099362669636277,,,,2010,payant:3316;gratuit:371;label-date:01/02/2003,label:musee de france,
1716801,92529363,Musée Régional de Fouras,,Place Vauban,17450,Fouras,France,fr,open,45.986003999999994,-1.0975170518659043,,,,2010,payant:4993;gratuit:1468;label-date:01/02/2003,label:musee de france,
1700401,64991060,Musée Napoléonien et Africain,,Rue des Remparts,17123,Île-d'Aix,France,fr,open,46.01301115,-1.1746563582783416,,,,2010,payant:12778;gratuit:10606;label-date:06/01/2002,label:musee de france,
1741501,2400379556,Musée de l'Echevinage,,Place de l'Échevinage,17100,Saintes,France,fr,open,45.7459257,-0.6333715,,,,2010,payant:868;gratuit:2385;label-date:01/02/2003,label:musee de france,
1736901,4200451910,Musée Ernest Cognacq,,Avenue Victor Bouthillier,17410,Saint-Martin-de-Ré,France,fr,open,46.2054197,-1.3652403,,,,2010,payant:5884;gratuit:3842;label-date:01/02/2003,label:musee de france,
7904901,48789536,Musée de Bressuire,,Rue Aristide Briand,79300,Bressuire,France,fr,open,46.84205515,-0.4928976167773377,,,,2010,payant:0;gratuit:4722;label-date:01/02/2003,label:musee de france,
8613701,6957982158,Musée Charbonneau-Lassay,,Rue du Martray,86200,Loudun,France,fr,open,47.0100455,0.0757517,,,,2010,payant:0;gratuit:538;label-date:01/02/2003,label:musee de france,
8614001,4717431552,Musée de Préhistoire Raymond Touchard,,Route de Montmorillon,86320,Lussac-les-Châteaux,France,fr,open,46.4036633,0.7257293,,,,2010,payant:679;gratuit:1367;label-date:20/12/2005,label:musee de france,
8616502,7280088591,Musée Municipal de la Maison-Dieu,9,Avenue Pasteur,86500,Montmorillon,France,fr,closed,46.4288452,0.8725142,,,,2010,payant:0;gratuit:0;label-date:01/02/2003,label:musee de france,
8619401,1392914253,Musée Rupert de Chièvres,,Rue Charles Gide,86000,Poitiers,France,fr,closed,46.5807401,0.338418,,,,2010,payant:0;gratuit:0;label-date:06/01/2002,label:musee de france,
8619404,40140547,Musée du baptistère Saint-Jean,,Rue Paschal le Coq,86000,Poitiers,France,fr,open,46.57912245,0.34775441471496493,,,,2010,payant:11489;gratuit:1233;label-date:01/02/2003,label:musee de france,
0413501,,Musée de la Faïence,,,,MOUSTIERS-SAINTE-MARIE,France,fr,open,,,,,,2010,payant:7620;gratuit:4273;label-date:01/02/2003,label:musee de france,
0600402,68051130,Musée d'Histoire et d'Archéologie,,Place Mariejol,06600,Antibes,France,fr,open,43.58070895,7.128259617884984,,,,2010,payant:2683;gratuit:3149;label-date:01/02/2003,label:musee de france,
0602902,2824215844,Musée de la Mer,,Allée des Eucalyptus,06407,Cannes,France,fr,open,43.523904,7.0453202,,,,2010,payant:44377;gratuit:37904;label-date:01/02/2003,label:musee de france,
0606903,67332908,Musée International de la Parfumerie,,Boulevard du Jeu de Ballon,06130,Grasse,France,fr,open,43.65805315,6.92185503385852,,,,2010,payant:52710;gratuit:27281;label-date:01/02/2003,label:musee de france,
0608305,137784549,Musée des Beaux-Arts,,Avenue de la Madone,06500,Menton,France,fr,open,43.766633999999996,7.487974850304882,,,,2010,payant:0;gratuit:12806;label-date:01/02/2003,label:musee de france,
0608303,137783866,Musée de Préhistoire Régionale,,Rue Lieutenant Bosano,06500,Menton,France,fr,open,43.777006,7.503394160358056,,,,2010,payant:0;gratuit:7967;label-date:01/02/2003,label:musee de france,
0616301,769232481,Musée Départemental des Merveilles,,Avenue du 16 Septembre 1947,06430,Tende,France,fr,open,44.0902585,7.5923772,,,,2010,payant:0;gratuit:30194;label-date:01/02/2003,label:musee de france,
0615502,88040667,Musée Picasso la guerre et la paix à Vallauris,,Place de la Libération,06220,Vallauris,France,fr,open,43.580016,7.0532145,,,,2010,payant:14597;gratuit:8565;label-date:06/01/2002,label:musee de france,
1300107,86887992,Muséum d'Histoire Naturelle,166,Avenue Jean Monnet,13090,Aix-en-Provence,France,fr,open,43.5333952,5.4236948895737775,,,,2010,payant:10998;gratuit:34279;label-date:06/01/2002,label:musee de france,
1300105,88614075,Musée- Atelier de Paul Cézanne,,Rue des Bremondis,13626,Aix-en-Provence,France,fr,open,43.530754849999994,5.447239307551794,,,,2010,payant:52620;gratuit:15034;label-date:01/02/2003,label:musee de france,
1301103,446697908,Musée d'Histoire et d'Archéologie des Baux-de-Provence,,Place Louis Jou,13520,Les Baux-de-Provence,France,fr,open,43.74474145,4.794991401666666,,,,2010,payant:213233;gratuit:28225;label-date:01/02/2003,label:musee de france,
1305506,76469,Cabinet des Monnaies et Médailles de Marseille,,,13000,Marseille,France,fr,open,43.2961743,5.3699525,,,,2010,payant:0;gratuit:1665;label-date:01/02/2003,label:musee de france,
1305502,,Musée du Vieux Marseille,,,,MARSEILLE,France,fr,closed,,,,,,2010,payant:0;gratuit:0;label-date:01/02/2003,label:musee de france,
1305509,2365711963,Musée de la Mode,,Avenue Clot Bey,13008,Marseille,France,fr,closed,43.2572605,5.3820342,,,,2010,payant:0;gratuit:0;label-date:01/02/2003,label:musee de france,
1305503,154561855,Musée Borély,,Avenue Clot Bey,13008,Marseille,France,fr,closed,43.2573485,5.381981791666665,,,,2010,payant:0;gratuit:0;label-date:01/02/2003,label:musee de france,
1310301,,Musée de l'Empéri de Salon et de la Crau,,,,SALON-DE-PROVENCE,France,fr,open,,,,,,2010,payant:4649;gratuit:9180;label-date:01/02/2003,label:musee de france,
0500301,,Musée du Vieux Queyras,,,,AIGUILLES,France,fr,closed,,,,,,2010,payant:0;gratuit:0;label-date:01/02/2003,label:musee de france,
8301901,,Musée des Arts et d’Histoire,,,,BORMES-LES-MIMOSAS,France,fr,open,,,,,,2010,payant:0;gratuit:6662;label-date:01/02/2003,label:musee de france,
8305001,179782164,Musée Municipal,2,Place Blanqui,83990,Saint-Tropez,France,fr,open,43.2696385,6.635539872302159,,,,2010,payant:0;gratuit:12903;label-date:01/02/2003,label:musee de france,
8311901,179780946,Musée de l'Annonciade,,Place Georges Grammont,83990,Saint-Tropez,France,fr,open,43.271077,6.637054030608436,,,,2010,payant:58517;gratuit:8939;label-date:01/02/2003,label:musee de france,
8400701,83784740,Muséum d'Histoire Naturelle Esprit Requien,27,Rue de la République,84000,Avignon,France,fr,open,43.9458915,4.806026218689352,,,,2010,payant:0;gratuit:18442;label-date:06/01/2002,label:musee de france,
8404201,,Musée Marc Deydier,,,,CUCURON,France,fr,open,,,,,,2010,payant:0;gratuit:7323;label-date:01/02/2003,label:musee de france,
8408701,219528069,Musée Municipal,,Rue Madeleine Roch,84100,Orange,France,fr,open,44.136139400000005,4.807732098364788,,,,2010,payant:59147;gratuit:0;label-date:01/02/2003,label:musee de france,
8413701,88549191,Musée Archéologique Théo Desplans,,Rue Burrus,84110,Vaison-la-Romaine,France,fr,open,44.2428537,5.074630722674918,,,,2010,payant:61849;gratuit:7465;label-date:01/02/2003,label:musee de france,
0121801,210386723,Musée du Bugey-Valmorey,,Impasse de la Forge,01260,Belley,France,fr,open,45.9296855,5.7266927293314165,,,,2010,payant:2017;gratuit:2068;label-date:01/02/2003,label:musee de france,
0128301,1536396604,Musée du Peigne et de la Plasturgie,,Rue Capitaine Montreal,01100,Veyziat,France,fr,open,46.2607789,5.6465246,,,,2010,payant:1749;gratuit:2821;label-date:01/02/2003,label:musee de france,
0138301,,Musée Louis Jourdan,,,,SAINT-PAUL-DE-VARAX,France,fr,closed,,,,,,2010,payant:0;gratuit:0;label-date:01/02/2003,label:musee de france,
2614601,133910375,Château de Grignan,,Rue Montant au Château,26230,Grignan,France,fr,open,44.418758600000004,4.908919569000301,,,,2010,payant:90012;gratuit:58936;label-date:01/02/2003,label:musee de france,
7428001,4460540284,Musée des Vallées de Thônes,1,Rue Blanche,74230,Thônes,France,fr,open,45.8816772,6.3240667,,,,2010,payant:834;gratuit:938;label-date:01/02/2003,label:musee de france,
3826901,1654912102,Musée Matheysin,,Rue Colonel Escallon,38350,La Mure,France,fr,open,44.9046933,5.7845917,,,,2010,payant:1017;gratuit:1598;label-date:01/02/2003,label:musee de france,
4205203,2959298116,Musée Hospitalier,,Rue Jean Morel,42190,Charlieu,France,fr,open,46.159575,4.1712806,,,,2010,payant:2777;gratuit:1386;label-date:01/02/2003,label:musee de france,
4205901,6050847032,Atelier - Musée du Chapeau,31,Rue Martouret,42140,Chazelles-sur-Lyon,France,fr,open,45.6386575,4.395141,,,,2010,payant:10486;gratuit:3638;label-date:01/02/2003,label:musee de france,
4209101,,Musée d'Histoire du  20ème Siècle - Résistance et Déportation,,,,ESTIVAREILLES,France,fr,open,,,,,,2010,payant:2301;gratuit:840;label-date:01/02/2003,label:musee de france,
4209401,346317680,Musée d'Archéologie,,Rue Victor de Laprade,42110,Feurs,France,fr,open,45.7442509,4.2195524,,,,2010,payant:905;gratuit:5105;label-date:01/02/2003,label:musee de france,
4210601,,Musée Historial,,,,GREZOLLES,France,fr,closed,,,,,,2010,payant:0;gratuit:0;label-date:01/02/2003,label:musee de france,
4217301,,Musée du Vieux Pommiers,,,,POMMIERS-EN-FOREZ,France,fr,closed,,,,,,2010,payant:0;gratuit:0;label-date:01/02/2003,label:musee de france,
4221804,49047701,Musée de la Mine / Site Couriot,3,Boulevard Maréchal Franchet d'Espèrey,69400,Saint-Étienne,France,fr,open,45.4382508,4.376131713032282,,,,2010,payant:30957;gratuit:26962;label-date:01/02/2003,label:musee de france,
4231801,,Musée Rural,,,,USSON-EN-FOREZ,France,fr,open,,,,,,2010,payant:5260;gratuit:939;label-date:01/02/2003,label:musee de france,
6912301,188157107,Musée Historique des Tissus,,Rue de la Charité,69002,Lyon,France,fr,open,45.7533945,4.831325634804587,,,,2010,payant:51937;gratuit:29766;label-date:01/02/2003,label:musee de france,
6938501,700244364,Musées Gadagne,,Rue de la Fronde,69005,Lyon,France,fr,open,45.7640445,4.827288742103092,,,,2010,payant:46722;gratuit:50278;label-date:01/02/2003,label:musee de france,
6938602,51263801,Muséum d'Histoire Naturelle,,Avenue de Lyon,73000,Chambéry,France,fr,open,45.564102399999996,5.916291852044658,,,,2010,payant:0;gratuit:93070;label-date:01/02/2003,label:musee de france,
6938101,62277312,Musée d'Art Contemporain de Lyon,,Allée Achille Lignon,69006,Lyon,France,fr,open,45.7842186,4.852469746082954,,,,2010,payant:87114;gratuit:39721;label-date:01/02/2003,label:musee de france,
7300601,,Musée archéologique et minéralogique Pierre Borrione,,,,AIME-EN-TARENTAISE,France,fr,open,,,,,,2010,payant:684;gratuit:438;label-date:01/02/2003,label:musee de france,
7301101,152123714,Musée Municipal d'Albertville-Conflans,,Place de Conflans,73200,Albertville,France,fr,open,45.670647,6.397100738095239,,,,2010,payant:3099;gratuit:2999;label-date:01/02/2003,label:musee de france,
7305401,5858569185,Musée du Costume,,Rue des Vergers,73700,Bourg-Saint-Maurice,France,fr,closed,45.6178322,6.7704898,,,,2010,payant:0;gratuit:0;label-date:01/02/2003,label:musee de france,
9750202,1840464642,Musée Municipal,,Rue Dominique Brorota,97500,Miquelon-Langlade,France,fr,open,47.100756,-56.3792429,,,,2010,payant:1621;gratuit:1306;label-date:01/02/2003,label:musee de france,
