id,osm_id,name,number,street,postal_code,city,country,country_code,status,lat,lon,website,phone,fax,year,stats,tags,description
6706101,2399054638,Musée de Bouxwiller et du pays de hanau,,Rue du Canal,67330,Bouxwiller,France,fr,open,48.8249535,7.4835103,,,,2010,payant:656;gratuit:79;label-date:01/02/2003,label:musee de france,
6732401,,Maison de l'Archéologie des Vosges du Nord,,,,NIEDERBRONN-LES-BAINS,France,fr,open,,,,,,2010,payant:2876;gratuit:3797;label-date:01/02/2003,label:musee de france,
6738801,,Musée du Fer,,,,REICHSHOFFEN,France,fr,open,,,,,,2010,payant:733;gratuit:579;label-date:01/02/2003,label:musee de france,
6748213,486650189,Musée Tomi Ungerer,,Rue Joseph Massol,67073,Strasbourg,France,fr,open,48.58570885,7.755036989998281,,,,2010,payant:15275;gratuit:24133;label-date:18/04/2008,label:musee de france,
6755001,2176631839,Musée de la Bataille du 6 Août 1870,,Cour du Château,67360,Wœrth,France,fr,open,48.9388096,7.7472595,,,,2010,payant:3068;gratuit:475;label-date:01/02/2003,label:musee de france,
6806301,6211249261,Musée de la Porte de Thann,,Rue Haffner,68700,Cernay,France,fr,open,47.8099726,7.1731847,,,,2010,payant:344;gratuit:287;label-date:01/02/2003,label:musee de france,
6806603,47576073,Musée Bartholdi,30,Rue des Marchands,68000,Colmar,France,fr,open,48.0766092,7.357482163734775,,,,2010,payant:7574;gratuit:3673;label-date:01/02/2003,label:musee de france,
6822404,449007880,Musée EDF Electropolis,,Autodrome du Musée de l'Automobile,68100,Mulhouse,France,fr,open,47.7612848,7.327971551196445,,,,2010,payant:24681;gratuit:11186;label-date:01/02/2003,label:musee de france,
6822402,45841480,Musée de l'Impression sur Etoffes,,Rue des Bonnes Gens,68100,Mulhouse,France,fr,open,47.7447923,7.344778561009134,,,,2010,payant:16119;gratuit:13142;label-date:01/02/2003,label:musee de france,
2403701,369318223,Musée du Tabac,,Place du Feu,24100,Bergerac,France,fr,open,44.84971,0.4837602,,,,2010,payant:2143;gratuit:1751;label-date:01/02/2003,label:musee de france,
2432201,,Musée d'Art et d'Archéologie du Périgord (MAAP),,,,PERIGUEUX,France,fr,open,,,,,,2010,payant:7210;gratuit:14385;label-date:01/02/2003,label:musee de france,
3305701,,Musée Municipal de Blasimon,,,,BLASIMON,France,fr,closed,,,,,,2010,payant:0;gratuit:0;label-date:01/02/2003,label:musee de france,
3306310,6912095875,Musée Goupil,,Cours Pasteur,33000,Bordeaux,France,fr,closed,44.8358149,-0.5749304,,,,2010,payant:0;gratuit:0;label-date:01/02/2003,label:musee de france,
3306306,79979299,Musée des Arts Décoratifs,,Rue Dufau,33000,Bordeaux,France,fr,open,44.837340600000005,-0.5806817120198913,,,,2010,payant:2733;gratuit:34499;label-date:01/02/2003,label:musee de france,
4016701,,Atelier-Musée  (Ecomusée de la Grande Landes),,,,LUXEY,France,fr,open,,,,,,2010,payant:926;gratuit:0;label-date:01/02/2003,label:musee de france,
4028601,5681725229,Musée de la Faïence et des arts de la table,,Route d'Hagetmau,40320,Samadet,France,fr,open,43.6412514,-0.5106808,,,,2010,payant:2039;gratuit:2187;label-date:01/02/2003,label:musee de france,
4719501,175744724,Musée du Château Henri IV,3,Rue Sederie,47600,Nérac,France,fr,open,44.1360265,0.3418098475080772,,,,2010,payant:19913;gratuit:6747;label-date:01/02/2003,label:musee de france,
6410203,72680932,Muséum d'Histoire Naturelle,,Chemin d'Ansot,64100,Bayonne,France,fr,open,43.474312999999995,-1.4780509999999973,,,,2010,payant:0;gratuit:7701;label-date:01/02/2003,label:musee de france,
6416001,209763123,Musée Edmond Rostand,,Avenue du Docteur Alexandre Camino,64250,Larressore,France,fr,open,43.36763065,-1.422666450245681,,,,2010,payant:63697;gratuit:5503;label-date:01/02/2003,label:musee de france,
1516801,6838400485,Ecomusée de Margeride-Haute-Auvergne,,,15320,Ruynes-en-Margeride,France,fr,open,44.9961982,3.207524,,,,2010,payant:9904;gratuit:2965;label-date:01/02/2003,label:musee de france,
1518701,982070993,Musée de la Haute Auvergne,,Place d'Armes,15100,Saint-Flour,France,fr,open,45.0330738,3.0948739,,,,2010,payant:2145;gratuit:2519;label-date:01/02/2003,label:musee de france,
4311701,,Musée des Arts et Traditions Populaires de Haute Loire,,,,LAVAUDIEU,France,fr,open,,,,,,2010,payant:10453;gratuit:689;label-date:01/02/2003,label:musee de france,
6324501,6579420423,Musée Lapidaire,,Rue de l'Abbaye,63200,Mozac,France,fr,open,45.8903834,3.0944753,,,,2010,payant:36;gratuit:736;label-date:01/02/2003,label:musee de france,
2115401,,Musée du Pays Châtillonnais - Trésor de Vix,,,,CHATILLON-SUR-SEINE,France,fr,open,,,,,,2010,payant:21283;gratuit:6427;label-date:01/02/2003,label:musee de france,
2123107,5141876795,Musée d'Art Sacré,,Rue Sainte-Anne,21000,Dijon,France,fr,open,47.3177794,5.0379087,,,,2010,payant:0;gratuit:5560;label-date:01/02/2003,label:musee de france,
2123105,255935624,Muséum - Jardin des Sciences,,Avenue Albert 1er,21000,Dijon,France,fr,open,47.3218523,5.0289424,,,,2010,payant:4618;gratuit:85383;label-date:06/01/2002,label:musee de france,
2125401,,Musée des Arts et Traditions des Hautes-Côtes,,,,GEVREY-CHAMBERTIN - Reulle Vergy,France,fr,closed,,,,,,2010,payant:0;gratuit:0;label-date:01/02/2003,label:musee de france,
2142501,702303764,Musée Buffon,,Rue du Parc Buffon,21500,Montbard,France,fr,open,47.6255801,4.3367165,,,,2010,payant:0;gratuit:11809;label-date:01/02/2003,label:musee de france,
2146401,4737197736,Musée Municipal,,Rue Camille Rodier,21700,Nuits-Saint-Georges,France,fr,open,47.1386701,4.9505695,,,,2010,payant:529;gratuit:2664;label-date:01/02/2003,label:musee de france,
2158401,1870447615,Musée Municipal François Pompon,,Place Docteur Roclore,21210,Saulieu,France,fr,open,47.2796264,4.2298054,,,,2010,payant:2668;gratuit:3192;label-date:01/02/2003,label:musee de france,
7110602,2239784876,Musée du Prieuré de Charolles,4,Rue du Prieuré,71120,Charolles,France,fr,open,46.4323423,4.2799145,,,,2010,payant:1293;gratuit:1573;label-date:01/02/2003,label:musee de france,
7127002,700244362,Musée Lamartine,,Rue des Ursulines,71000,Saint-Clément,France,fr,open,46.307027,4.833142197130883,,,,2010,payant:1393;gratuit:3660;label-date:01/02/2003,label:musee de france,
7135101,3617522815,Ecomusée de la Bresse Bourguignonne,,Rue du Château,71270,Pierre-de-Bresse,France,fr,open,46.8828547,5.2614005,,,,2010,payant:25079;gratuit:13216;label-date:01/02/2003,label:musee de france,
2901902,5882540291,Musée National de la Marine,,Rue Franklin Roosevelt,29200,Brest,France,fr,open,48.381272,-4.4923642,,,,2010,payant:30387;gratuit:31472;label-date:06/01/2002,label:musee de france,
2922001,,Musée Bigouden,,,,PONT-L'ABBE,France,fr,open,,,,,,2010,payant:12420;gratuit:1983;label-date:01/02/2003,label:musee de france,
3523803,178814913,Ecomusée du Pays de Rennes,,Route de Châtillon-Sur-Seiche,35230,Noyal-Châtillon-sur-Seiche,France,fr,open,48.07772335,-1.6663543566452403,,,,2010,payant:12747;gratuit:32438;label-date:01/02/2003,label:musee de france,
3523801,7422696,Musée de Bretagne,,Boulevard Magenta,35000|35700|35200,Rennes,France,fr,open,48.105132049999995,-1.6741388704016005,,,,2010,payant:34630;gratuit:12606;label-date:01/02/2003,label:musee de france,
3528802,,Musée d'Histoire de la Ville de Saint-Malo,,,,SAINT-MALO,France,fr,open,,,,,,2010,payant:18992;gratuit:8287;label-date:01/02/2003,label:musee de france,
3536001,92884430,Musée Saint-Nicolas,,Rue du Rachapt,35500,Vitré,France,fr,open,48.1260135,-1.2166992529105425,,,,2010,payant:183;gratuit:1621;label-date:01/02/2003,label:musee de france,
3536002,92884430,Musée du Château de Vitré,,Rue du Rachapt,35500,Vitré,France,fr,open,48.1260135,-1.2166992529105425,,,,2010,payant:14014;gratuit:6978;label-date:01/02/2003,label:musee de france,
5602301,449218730,Ecomusée de Saint-Dégan,,Rue Park Segal,56400,Brech,France,fr,open,47.7090601,-2.9935749,,,,2010,payant:10716;gratuit:2346;label-date:01/02/2003,label:musee de france,
1803305,219021603,Musée d'Histoire Naturelle Gabriel Foucher,,Rue Leonide Bourges,95430,Butry-sur-Oise,France,fr,open,49.09024075,2.200912995103998,,,,2010,payant:11075;gratuit:15029;label-date:01/02/2003,label:musee de france,
1827901,622149606,Musée Municipal,,Rue de la Société Française,18100,Vierzon,France,fr,open,47.2249147,2.0602204,,,,2010,payant:0;gratuit:1330;label-date:01/02/2003,label:musee de france,
2813401,182675003,Musée d'Art et d'Histoire de Dreux,,Place du Musée,28100,Dreux,France,fr,open,48.733925,1.3680411794478526,,,,2010,payant:2913;gratuit:4413;label-date:01/02/2003,label:musee de france,
3604401,,Musées de Châteauroux - Hôtel Bertrand,,,,CHATEAUROUX,France,fr,open,,,,,,2010,payant:0;gratuit:20853;label-date:01/02/2003,label:musee de france,
3700302,62782286,Musée de la poste,2,Rue du Clos Lucé,37400,Amboise,France,fr,closed,47.41032365,0.9921089543099333,,,,2010,payant:0;gratuit:0;label-date:01/02/2003,label:musee de france,
3726105,40514601,Musée du Compagnonnage,2,Place Anatole France,37000,Tours,France,fr,open,47.39641815,0.6869935971502714,,,,2010,payant:29667;gratuit:16002;label-date:01/02/2003,label:musee de france,
3728201,59213253,Musée de Minerve,,Place F. Mitterrand,37290,Yzeures-sur-Creuse,France,fr,open,46.786094399999996,0.8711447999999989,,,,2010,payant:0;gratuit:700;label-date:01/02/2003,label:musee de france,
4115801,636023615,Atelier Musée Louis Leygue,,Rue des Venages,41100,Naveil,France,fr,open,47.7939429,1.0312301,,,,2010,payant:0;gratuit:51;label-date:01/02/2003,label:musee de france,
4125801,1241279063,Musée Archéologique,,Allée de la Mairie,41140,Thésée,France,fr,open,47.3280766,1.3062994,,,,2010,payant:652;gratuit:214;label-date:01/02/2003,label:musee de france,
0840901,1874188907,Musée du Château-Fort,,Avenue de la Dernière Cartouche,08140,Bazeilles,France,fr,open,49.6817859,4.9754729,,,,2010,payant:53474;gratuit:1311;label-date:01/02/2003,label:musee de france,
1003301,,Musée Municipal,,,,BAR-SUR-AUBE,France,fr,closed,,,,,,2010,payant:0;gratuit:0;label-date:01/02/2003,label:musee de france,
1026801,,Musée Paul Dubois-Alfred Boucher,,,,NOGENT-SUR-SEINE,France,fr,open,,,,,,2010,payant:0;gratuit:890;label-date:01/02/2003,label:musee de france,
1038701,73123253,Muséum d'Histoire Naturelle (Musée Pic Saint-Loup),61,Rue de la Cité,10000,Troyes,France,fr,open,48.3007334,4.080420707848399,,,,2010,payant:0;gratuit:0;label-date:01/02/2003,label:musee de france,
1038704,,Musée des Beaux-Arts (Musée Pic Saint-Loup),,,,TROYES,France,fr,open,,,,,,2010,payant:7036;gratuit:4968;label-date:01/02/2003,label:musee de france,
1038706,73124719,Musée d'Art Moderne,,Rue de la Crosse,10000,Troyes,France,fr,open,48.29995,4.082291342005172,,,,2010,payant:11074;gratuit:19069;label-date:01/02/2003,label:musee de france,
5212102,6620521651,Musée de l'Affiche,1,Place Émile Goguenheim,52000,Chaumont,France,fr,closed,48.1105299,5.1354361,,,,2010,payant:0;gratuit:0;label-date:01/02/2003,label:musee de france,
5244801,65662699,Musée Municipal,,Allée Jean-François Lescuyer,52100,Saint-Dizier,France,fr,closed,48.63793305,4.948117698073352,,,,2010,payant:0;gratuit:0;label-date:01/02/2003,label:musee de france,
5123001,183978059,Musée Municipal d'Epernay,,D 45,73670,Entremont-le-Vieux,France,fr,closed,45.451615000000004,5.882174889178614,,,,2010,payant:0;gratuit:0;label-date:01/02/2003,label:musee de france,
5144501,418187,Ecomusée de la Montagne de Reims,,,51480,Pourcy,France,fr,closed,49.1574346,3.9081058,,,,2010,payant:0;gratuit:0;label-date:01/02/2003,label:musee de france,
5150702,,Musée de l'Argonne Viard-Morel,,,,SAINTE-MENEHOULD,France,fr,closed,,,,,,2010,payant:0;gratuit:0;label-date:01/02/2003,label:musee de france,
2A00403,66274796,Musée Palais Fesch,50-52,Rue Cardinal Fesch,20000,Ajaccio,France,fr,open,41.9218958,8.738913555286306,,,,2010,payant:26749;gratuit:12142;label-date:01/02/2003,label:musee de france,
2A14201,,Musée de l'Alta Rocca,,,,LEVIE,France,fr,open,,,,,,2010,payant:6592;gratuit:6437;label-date:01/02/2003,label:musee de france,
2505602,53757083,Musée du Temps,,Rue Victor Hugo,25000,Besançon,France,fr,open,47.2346134,6.029035561950042,,,,2010,payant:5742;gratuit:26872;label-date:01/02/2003,label:musee de france,
2505601,9493688,Musée des Beaux-Arts et d'Archéologie,,Place de la Révolution,25000,Besançon,France,fr,open,47.2402151,6.023512568897798,,,,2010,payant:4694;gratuit:44277;label-date:06/01/2002,label:musee de france,
2546201,34418085,Musée de Pontarlier,2,,25300,Pontarlier,France,fr,open,46.904336799999996,6.354752112674423,,,,2010,payant:1446;gratuit:8171;label-date:01/02/2003,label:musee de france,
7012201,87526037,Musée Départemental Albert-et-Félicie Demard - ATP,,Place de la Mairie,70600,Champlitte,France,fr,open,47.61684495,5.514228248646819,,,,2010,payant:11180;gratuit:7126;label-date:01/02/2003,label:musee de france,
3901302,2637893946,Musée de la Vigne et du Vin,,Passage Saint-Vernier,39600,Arbois,France,fr,open,46.9035466,5.7751443,,,,2010,payant:3969;gratuit:1578;label-date:01/02/2003,label:musee de france,
3909701,847296482,Musée Municipal d'Archéologie,,Frazione Luboz,11018,Saint-Pierre,Italia,it,open,45.7102452,7.2269227,,,,2010,payant:259;gratuit:323;label-date:01/02/2003,label:musee de france,
3950001,151950172,Musée des Salines,,Place des Salines,39110,Salins-les-Bains,France,fr,open,46.9376405,5.8761571935790275,,,,2010,payant:68104;gratuit:8146;label-date:01/02/2003,label:musee de france,
9004101,2647243377,Forge-Musée,,Rue de Rougemont,90170,Étueffont,France,fr,open,47.7224462,6.920875,,,,2010,payant:1191;gratuit:906;label-date:01/02/2003,label:musee de france,
9711201,6042462812,Ecomusée de Marie-Galante,,Route de Grand-Bourg à Capesterre,97140,Grand-Bourg,France,fr,closed,15.8784483,-61.2995603,,,,2010,payant:0;gratuit:0;label-date:01/02/2003,label:musee de france,
9109701,48359053,Musée Dunoyer de Segonzac,,Rue de la Glacière,91800,Brunoy,France,fr,open,48.7003494,2.5007316063279736,,,,2010,payant:0;gratuit:0;label-date:01/02/2003,label:musee de france,
9201203,2701140971,Musée Départemental Albert-Kahn,10,Rue du Port,92100,Boulogne-Billancourt,France,fr,open,48.8414886,2.2270833,,,,2010,payant:78417;gratuit:35149;label-date:01/02/2003,label:musee de france,
9201204,,Musée Belmondo et de la Sculpture Figurative du XXè siècle,,,,BOULOGNE-BILLANCOURT,France,fr,open,,,,,,2010,payant:6263;gratuit:2668;label-date:13/03/2007,label:musee de france,
9202301,29036,Fondation Arp,,,92140,Clamart,France,fr,open,48.800368,2.2630292,,,,2010,payant:1620;gratuit:333;label-date:16/12/2003,label:musee de france,
9207101,1620203330,Musée de l'Île-de-France,,Allée de la Duchesse,92330,Sceaux,France,fr,open,48.7742577,2.300099,,,,2010,payant:0;gratuit:48252;label-date:01/02/2003,label:musee de france,
7510507,7444,Galerie de Botanique (Muséum National National d'Histoire Naturelle),,,,Paris,France,fr,closed,48.8566969,2.3514616,,,,2010,payant:0;gratuit:0;label-date:06/01/2002,label:musee de france,
7511618,4828705432,Musée National de la Marine,,Villa Marie Vassilieff,75015,Paris,France,fr,open,48.8434128,2.320792,,,,2010,payant:102202;gratuit:67802;label-date:06/01/2002,label:musee de france,
7510602,395785603,Musée National Eugène Delacroix,,Rue Jacob,75006,Paris,France,fr,open,48.85464155,2.335393670592886,,,,2010,payant:46188;gratuit:21384;label-date:06/01/2002,label:musee de france,
7510901,251318666,Musée National Gustave Moreau,,Rue de La Rochefoucauld,75009,Paris,France,fr,open,48.8779237,2.3345515,,,,2010,payant:20865;gratuit:17800;label-date:06/01/2002,label:musee de france,
7510103,,Etablissement public du musée d'Orsay et de l'Orangerie - Musée de l'Orangerie,,,,PARIS,France,fr,open,,,,,,2010,payant:466926;gratuit:224032;label-date:06/01/2002,label:musee de france,
7510706,895871273,Musée National de la Légion d'Honneur et des Ordres de Chevalerie,,Rue de la Légion d'Honneur,75007,Paris,France,fr,open,48.8602845,2.3247488,,,,2010,payant:0;gratuit:42000;label-date:06/01/2002,label:musee de france,
7510905,84511123,Musée de la Vie Romantique,16,Rue Chaptal,75009,Paris,France,fr,open,48.88120505,2.333539383011497,,,,2010,payant:63105;gratuit:77563;label-date:08/07/2004,label:musee de france,
7510902,1336873192,Musée de la Franc-Maçonnerie,16,Rue Cadet,75009,Paris,France,fr,open,48.8749151,2.3431481,,,,2010,payant:12451;gratuit:3307;label-date:01/02/2003,label:musee de france,
7510306,,"Musée Cognacq-Jay, Musée du XVIIIe siècle de la ville de Paris",,,,PARIS,France,fr,open,,,,,,2010,payant:5239;gratuit:38847;label-date:08/07/2004,label:musee de france,
7511001,,Musée de la Publicité (Union Centrale des Arts Décoratifs),,,,PARIS,France,fr,open,,,,,,2010,payant:0;gratuit:0;label-date:06/01/2002,label:musee de france,
7511620,368173940,Musée National du Sport,,Green Street,94133,San Francisco,United States,us,open,37.7994878,-122.4102893,,,,2010,payant:5890;gratuit:5058;label-date:16/12/2003,label:musee de france,
7510304,5918699678,Musée National des Techniques,,Rue Joliot-Curie,91190,Le Moulon,France,fr,open,48.7094092,2.1666145,,,,2010,payant:83588;gratuit:126460;label-date:06/01/2002,label:musee de france,
7710802,,"Musée des Transports Urbains, Interurbains et Ruraux",,,,CHELLES,France,fr,closed,,,,,,2010,payant:0;gratuit:0;label-date:01/02/2003,label:musee de france,
7728802,112363959,Musée d'Art et d'Histoire de Melun,1-3,Rue Émile Leclerc,77000,Melun,France,fr,open,48.54554555,2.6529119346368715,,,,2010,payant:6600;gratuit:0;label-date:01/02/2003,label:musee de france,
7744501,4895409053,Ecomusée,,Rue de la Libération,77176,Savigny-le-Temple,France,fr,open,48.5745236,2.5833427,,,,2010,payant:0;gratuit:9055;label-date:01/02/2003,label:musee de france,
9307001,12625911,Musée Municipal,,Route des Laveurs,JE3 7FQ,St. Ouen,Jersey,je,closed,49.2291856,-2.2343313,,,,2010,payant:0;gratuit:0;label-date:01/02/2003,label:musee de france,
9501801,80773777,Musée du Vieil Argenteuil,,Rue de Rubelles,95390,Saint-Prix,France,fr,open,49.01175795,2.264040737016648,,,,2010,payant:801;gratuit:1125;label-date:01/02/2003,label:musee de france,
9550001,43971811,Musée Tavet Delacour,,Rue Lemercier,95300,Pontoise,France,fr,open,49.051103499999996,2.0996586365287904,,,,2010,payant:1561;gratuit:4713;label-date:01/02/2003,label:musee de france,
9535101,4542685707,Musée Intercommunal d'Histoire et d'Archéologie de Louvres,56,Rue de Paris,95380,Louvres,France,fr,open,49.041052,2.5072634,,,,2010,payant:1329;gratuit:2615;label-date:01/02/2003,label:musee de france,
7835001,111722627,Musée Promenade Marly/Louveciennes,1,Route de la Grille Royale,78160,Marly-le-Roi,France,fr,open,48.85892685,2.1055024916555407,,,,2010,payant:5951;gratuit:2844;label-date:01/02/2003,label:musee de france,
7849802,38327851,Musée d'Art et d'Histoire,82,Rue de Villiers,78300,Poissy,France,fr,closed,48.924420600000005,2.028297560090527,,,,2010,payant:0;gratuit:0;label-date:01/02/2003,label:musee de france,
7849801,,Musée du Jouet Pierre Pinel,,,,POISSY,France,fr,open,,,,,,2010,payant:12239;gratuit:4524;label-date:01/02/2003,label:musee de france,
7855101,154883691,Musée Départemental Maurice Denis,2bis,Rue Maurice Denis,78100,Saint-Germain-en-Laye,France,fr,open,48.8925939,2.0868889919163913,,,,2010,payant:10799;gratuit:16614;label-date:01/02/2003,label:musee de france,
9741301,,Muséum Agricole et Industriel Stella Matutina,,,,PITON-SAINT-LEU,France,fr,open,,,,,,2010,payant:40790;gratuit:11371;label-date:01/02/2003,label:musee de france,
9741101,146919869,Musée Départemental de la Réunion - Musée Léon Dierx,,Rue Sainte Marie,97400,Saint-Denis,France,fr,open,-20.883840050000003,55.450058317623416,,,,2010,payant:3287;gratuit:13323;label-date:01/02/2003,label:musee de france,
1107601,321732839,Musée Archéologique du Lauragais,,Rampe du Présidial,11400,Castelnaudary,France,fr,open,43.3155934,1.9588475,,,,2010,payant:0;gratuit:1771;label-date:01/02/2003,label:musee de france,
1126201,92058703,Musée d'Art et d'Histoire - Ensemble monumental de Narbonne,,Rue des Jacobins,11100,Narbonne,France,fr,open,43.1809595,3.004147255208337,,,,2010,payant:58027;gratuit:262394;label-date:2002-06-13 00:00:00,label:musee de france,
3035001,2363137316,Musée Cévenol,1,Rue des Calquières,30120,Le Vigan,France,fr,open,43.9889631,3.6072627,,,,2010,payant:2711;gratuit:1781;label-date:01/02/2003,label:musee de france,
3018905,41832267,Musée des Beaux-Arts,,Rue de la Cité Foulc,30033,Nîmes,France,fr,open,43.83194295,4.360586484823399,,,,2010,payant:3240;gratuit:16409;label-date:01/02/2003,label:musee de france,
3020201,,Musée Paul Raymond,,,,PONT-SAINT-ESPRIT,France,fr,open,,,,,,2010,payant:0;gratuit:1182;label-date:01/02/2003,label:musee de france,
3033401,2910313011,Musée Municipal Georges Borias,,Promendade Racine,30700,Uzès,France,fr,open,44.0124548,4.422769,,,,2010,payant:1212;gratuit:1409;label-date:01/02/2003,label:musee de france,
3403203,70070,Muséum d'Histoire Naturelle,,,34500,Béziers,France,fr,closed,43.3426562,3.2131307,,,,2010,payant:0;gratuit:0;label-date:01/02/2003,label:musee de france,
3410801,1964228636,Musée Municipal,27,Quai du Maréchal de Lattre de Tassigny,34200,Sète,France,fr,open,43.4060674,3.6961935,,,,2010,payant:0;gratuit:5113;label-date:01/02/2003,label:musee de france,
3411901,425241849,Musée de la Cloche et de la Sonnaille,,Avenue des Treize Vents,34600,Hérépian,France,fr,closed,43.59457755,3.112557793850808,,,,2010,payant:0;gratuit:0;label-date:01/02/2003,label:musee de france,
3412901,,Site Archéologique Lattara - Musée Henri Prades de Montpellier Agglomération,,,,LATTES,France,fr,open,,,,,,2010,payant:8312;gratuit:13428;label-date:01/02/2003,label:musee de france,
3400302,1131132,Musée de l'Ephèbe,,Place du Père Marcel Astruc,34300,Agde,France,fr,open,43.2868906,3.5137320418987343,,,,2010,payant:9457;gratuit:4962;label-date:01/02/2003,label:musee de france,
3417209,598184808,Musée du Vieux Montpellier,,Place Pétrarque,34062,Montpellier,France,fr,open,43.6106627,3.8785261,,,,2010,payant:506;gratuit:2261;label-date:01/02/2003,label:musee de france,
3430101,2244412926,Musée Paul Valéry,,Rue François Desnoyer,34200,Sète,France,fr,open,43.3953827,3.6906637,,,,2010,payant:47250;gratuit:6361;label-date:01/02/2003,label:musee de france,
4809501,,Musée Ignon Fabre,,,,MENDE,France,fr,closed,,,,,,2010,payant:0;gratuit:0;label-date:01/02/2003,label:musee de france,
6604902,2004488993,Musée départemental d'Art Moderne,,Boulevard du Maréchal Joffre,66400,Céret,France,fr,open,42.4859058,2.7484863,,,,2010,payant:45296;gratuit:30724;label-date:01/02/2003,label:musee de france,
6605301,,Musée d'Art Moderne - Fonds Peskè,,,,COLLIOURE,France,fr,open,,,,,,2010,payant:7555;gratuit:2033;label-date:01/02/2003,label:musee de france,
6614801,,Musée d'Archéologie Sous-Marine,,,,PORT-VENDRES,France,fr,closed,,,,,,2010,payant:0;gratuit:0;label-date:01/02/2003,label:musee de france,
5415401,113033,Les Sources d'Hercule,,,54120,Deneuvre,France,fr,open,48.4443122,6.7356749,,,,2010,payant:3400;gratuit:567;label-date:01/02/2003,label:musee de france,
5439502,64003170,Muséum- Aquarium de Nancy,,Rue Sainte-Catherine,54100,Nancy,France,fr,open,48.6947248,6.187939874919698,,,,2010,payant:24184;gratuit:48747;label-date:01/02/2003,label:musee de france,
5535101,,Musée Jules Bastien-Lepage - Musée de la Fortification,,,,MONTMEDY,France,fr,open,,,,,,2010,payant:11369;gratuit:989;label-date:01/02/2003,label:musee de france,
5725601,309445273,Musée Départemental de la Guerre de 70,11,Rue de Metz,57130,Gravelotte,France,fr,closed,49.114021050000005,6.029759781346406,,,,2010,payant:0;gratuit:0;label-date:01/02/2003,label:musee de france,
5744801,253993536,Musée Départemental du Sel,,D 38A,57630,Marsal,France,fr,open,48.788486,6.6057743,,,,2010,payant:4275;gratuit:6654;label-date:01/02/2003,label:musee de france,
5763001,2351192125,Musée du Pays de Sarrebourg,,Rue de la Paix,57400,Sarrebourg,France,fr,open,48.7352213,7.05534,,,,2010,payant:12402;gratuit:11399;label-date:01/02/2003,label:musee de france,
5763102,,Moulin de la Blies - Musée des Techniques Faïencières,,,,SARREGUEMINES,France,fr,open,,,,,,2010,payant:22568;gratuit:0;label-date:01/02/2003,label:musee de france,
5771201,227335819,Musée Départemental Georges de la Tour,,Place Jeanne D'Arc,57630,Vic-sur-Seille,France,fr,open,48.781924000000004,6.531002917135707,,,,2010,payant:8930;gratuit:6153;label-date:01/02/2003,label:musee de france,
8835101,,Musée Louis Français,,,,PLOMBIERES-LES-BAINS,France,fr,open,,,,,,2010,payant:0;gratuit:195;label-date:01/02/2003,label:musee de france,
9720901,4807601528,Musée Départemental d'Archéologie Précolombienne et de Préhistoire de la Martinique,10,Boulevard Général de Gaulle,97200,Fort-de-France,France,fr,open,14.6063988,-61.0657667,,,,2010,payant:549;gratuit:10;label-date:01/02/2003,label:musee de france,
1220301,2242124020,Musée Municipal d'archéologie,2,Avenue François Galtier,12250,Roquefort-sur-Soulzon,France,fr,closed,43.9745977,2.9927119,,,,2010,payant:0;gratuit:0;label-date:01/02/2003,label:musee de france,
3211901,110292132,Musée Archéologique,,Rue Marpoy,32800,Eauze,France,fr,open,43.8609266,0.10142317069741685,,,,2010,payant:3840;gratuit:1749;label-date:01/02/2003,label:musee de france,
3225601,2923353853,Musée des Beaux-Arts et des Arts Décoratifs,,Rue de l'Évêché,32300,Mirande,France,fr,open,43.5153164,0.40345,,,,2010,payant:600;gratuit:505;label-date:01/02/2003,label:musee de france,
3104201,,Musée du Pays de Luchon,,,,BAGNERES-DE-LUCHON,France,fr,open,,,,,,2010,payant:2455;gratuit:1911;label-date:01/02/2003,label:musee de france,
3155507,22718219,Musée des Transports et des Communications,,Rue Antonin Mercié,31000,Toulouse,France,fr,open,43.6009417,1.4463433320120154,,,,2010,payant:0;gratuit:684;label-date:01/02/2003,label:musee de france,
3155502,261558997,Musée Saint-Raymond,1,Place Saint-Sernin,31000,Toulouse,France,fr,open,43.60783095,1.4411195508590957,,,,2010,payant:21587;gratuit:54716;label-date:01/02/2003,label:musee de france,
8109902,60929966,Muséum d'histoire naturelle Philadelphe Thomas,,Rue Philadelphe Thomas,81600,Gaillac,France,fr,open,43.8993239,1.8943379,,,,2010,payant:730;gratuit:2842;label-date:01/02/2003,label:musee de france,
8109903,1794967900,Musée de l'Abbaye Saint-Michel,,Petite Rue Saint-Michel,81600,Gaillac,France,fr,open,43.8969758,1.8960647,,,,2010,payant:2056;gratuit:1286;label-date:01/02/2003,label:musee de france,
8200801,,Musée du Vieil Auvillar,,,,AUVILLAR,France,fr,open,,,,,,2010,payant:2276;gratuit:808;label-date:01/02/2003,label:musee de france,
8207501,89104903,Musée Théodore Calbet,15,Rue Jean de Comère,82170,Grisolles,France,fr,open,43.827752000000004,1.2947097401960788,,,,2010,payant:0;gratuit:2092;label-date:01/02/2003,label:musee de france,
8212101,127805191,Musée d'Histoire Naturelle Victor Brun,,Rue Marie Lafon,82000,Montauban,France,fr,open,44.01688865,1.3514607739557976,,,,2010,payant:1130;gratuit:6261;label-date:01/02/2003,label:musee de france,
5904301,81168271,Musée Benoît de Puydt,,Rue des Viviers,59270,Bailleul,France,fr,open,50.7407272,2.7345033127504697,,,,2010,payant:1080;gratuit:4898;label-date:01/02/2003,label:musee de france,
5913501,5918815893,Musée Départemental de Flandre,,Grand Place,59670,Cassel,France,fr,open,50.7996394,2.4862076,,,,2010,payant:14838;gratuit:6644;label-date:01/02/2003,label:musee de france,
5927301,178161634,Musée du Dessin et de l'Estampe Originale,,Allée des Marronniers,59820,Gravelines,France,fr,open,50.986065999999994,2.123488242316782,,,,2010,payant:7556;gratuit:5081;label-date:01/02/2003,label:musee de france,
5934501,,"Musée de la Mine, Centre Historique Minier",,,,LEWARDE,France,fr,open,,,,,,2010,payant:135152;gratuit:13030;label-date:01/02/2003,label:musee de france,
5935003,41065833,Musée d'Histoire Naturelle et de Géologie,19,Rue de Bruxelles,59000,Lille,France,fr,open,50.6266587,3.06701952992126,,,,2010,payant:57299;gratuit:0;label-date:01/02/2003,label:musee de france,
5937501,,Musée d'Histoire Locale de Marchiennes,,,,MARCHIENNES,France,fr,open,,,,,,2010,payant:285;gratuit:599;label-date:01/02/2003,label:musee de france,
5955501,72886174,Musée du Verre,1,Rue du Général de Gaulle,59216,Sars-Poteries,France,fr,open,50.1641293,4.0237244496073945,,,,2010,payant:4905;gratuit:3963;label-date:01/02/2003,label:musee de france,
5900901,153320966,Musée d'Art Moderne de Lille Métropole,1,Allée du Musée,59650,Villeneuve-d'Ascq,France,fr,open,50.6375976,3.150668386787098,,,,2010,payant:48843;gratuit:39919;label-date:01/02/2003,label:musee de france,
6258801,,Musée d'Art et d'Histoire Roger Rodière,,,,MONTREUIL-SUR-MER,France,fr,open,,,,,,2010,payant:3161;gratuit:4443;label-date:01/02/2003,label:musee de france,
1411801,315032925,Musée des Beaux-Arts,,Chemin des Fossés du Château,14000,Caen,France,fr,open,49.1862879,-0.3615817,,,,2010,payant:73050;gratuit:78527;label-date:06/01/2002,label:musee de france,
1437002,2405267465,Musée de la Meunerie - Moulin de Marcy,,Rue de Marcy,14330,Littry,France,fr,open,49.2277192,-0.9045211,,,,2010,payant:4455;gratuit:3146;label-date:01/02/2003,label:musee de france,
1447801,5867247985,Musée Municipal,107,Rue Grande,14290,Orbec,France,fr,open,49.0222179,0.4065429,,,,2010,payant:261;gratuit:1019;label-date:01/02/2003,label:musee de france,
5012902,621413281,Musée Thomas Henry,,Esplanade de la Laïcité,50100,Cherbourg-en-Cotentin,France,fr,open,49.6373411,-1.6229459,,,,2010,payant:0;gratuit:28130;label-date:01/02/2003,label:musee de france,
5017301,,Musée Municipal,,,,EQUEURDREVILLLE-HAINNEVILLE,France,fr,open,,,,,,2010,payant:0;gratuit:2970;label-date:01/02/2003,label:musee de france,
6116901,11561463,Musée du Château de Flers,268,Rue Jules Guesde,59650,Villeneuve-d'Ascq,France,fr,open,50.638618050000005,3.1301791408474804,,,,2010,payant:0;gratuit:8763;label-date:11/11/2002,label:musee de france,
6137901,4317391883,Musée Départemental des Arts et Traditions Populaires du Perche,,D 277,61130,Saint-Cyr-la-Rosière,France,fr,open,48.3249849,0.6549988,,,,2010,payant:13035;gratuit:10059;label-date:01/02/2003,label:musee de france,
7625902,,Musée des Arts & de l'Enfance,,,,FECAMP,France,fr,closed,,,,,,2010,payant:0;gratuit:0;label-date:01/02/2003,label:musee de france,
7635101,69981531,Musée d'Art Moderne André Malraux - MuMa,2,Boulevard Clemenceau,76600,Le Havre,France,fr,open,49.48501735,0.10265666643901614,,,,2010,payant:53137;gratuit:24948;label-date:01/02/2003,label:musee de france,
7635103,76087045,Musée de l'Hôtel Dubocage de Bléville,,Rue de l'Abbaye,76600,Le Havre,France,fr,open,49.503292200000004,0.1652970079749255,,,,2010,payant:0;gratuit:5522;label-date:01/02/2003,label:musee de france,
7654006,64181345,Musée Le Secq des Tournelles,2,Rue Jacques Villon,76000,Rouen,France,fr,open,49.4444344,1.0952946837337665,,,,2010,payant:5996;gratuit:9860;label-date:01/02/2003,label:musee de france,
7662401,1826563,Association de l'Horlogerie Aliermontaise,,,76510,Saint-Nicolas-d'Aliermont,France,fr,open,49.878403,1.2140639,,,,2010,payant:3707;gratuit:1872;label-date:01/02/2003,label:musee de france,
7675801,122011226,Musée Municipal des Ivoires,8,Place du Maréchal Joffre,76190,Yvetot,France,fr,open,49.6173905,0.7551113568840564,,,,2010,payant:699;gratuit:427;label-date:01/02/2003,label:musee de france,
4401001,,Musée des Marais Salant,,,,BATZ-SUR-MER,France,fr,open,,,,,,2010,payant:10556;gratuit:1096;label-date:20/12/2005,label:musee de france,
4410904,6808838,Musée du Château des Ducs de Bretagne,4,Place Marc Elder,44000,Nantes,France,fr,open,47.21609735,-1.5499958913608,,,,2010,payant:93303;gratuit:95376;label-date:01/02/2003,label:musee de france,
4900702,126922667,Musée Pincé,32,Rue Lenepveu,49100,Angers,France,fr,closed,47.4720515,-0.5520486041666655,,,,2010,payant:0;gratuit:0;label-date:01/02/2003,label:musee de france,
5313002,67786025,Musée des Sciences - CCSTI,,Place de Hercé,53000,Laval,France,fr,open,48.0657933,-0.7704053486072425,,,,2010,payant:5916;gratuit:54118;label-date:01/02/2003,label:musee de france,
8516302,5624961822,Musée du Château,,Place d'Armes,85330,Noirmoutier-en-l'Île,France,fr,open,47.0004648,-2.2421269,,,,2010,payant:38594;gratuit:6608;label-date:01/02/2003,label:musee de france,
0209301,3724972649,Musée Franco-Américain du Château de Blérancourt,,Place du Général Leclerc,02300,Blérancourt,France,fr,closed,49.5176668,3.1530757,,,,2010,payant:0;gratuit:0;label-date:06/01/2002,label:musee de france,
0269101,447567433,Musée Entomologique,,Rue Antoine Lécuyer,02100,Saint-Quentin,France,fr,open,49.8499358,3.2849588,,,,2010,payant:4248;gratuit:6003;label-date:01/02/2003,label:musee de france,
6005701,556458814,Musée Départemental de l'Oise,,Rue Saint-Pierre,60000,Beauvais,France,fr,open,49.4329907,2.0796036241134193,,,,2010,payant:0;gratuit:31153;label-date:01/02/2003,label:musee de france,
6017601,,Musée de l'Archerie et de l'Art Sacré,,,,CREPY-EN-VALOIS,France,fr,open,,,,,,2010,payant:2937;gratuit:2953;label-date:01/02/2003,label:musee de france,
6047103,476735511,Musée Jean Calvin,,Rue du Porcelet,60400,Noyon,France,fr,open,49.5817505,2.9984424,,,,2010,payant:2832;gratuit:893;label-date:01/02/2003,label:musee de france,
6061203,5357724995,Musée de la Vénerie,,Place Saint-Maurice,60300,Senlis,France,fr,open,49.2072693,2.5833865,,,,2010,payant:7061;gratuit:6695;label-date:01/02/2003,label:musee de france,
8000101,638296084,Musée Boucher-de-Perthes,,Rue Gontier Patin,80100,Abbeville,France,fr,open,50.1071737,1.8333893,,,,2010,payant:2732;gratuit:7700;label-date:01/02/2003,label:musee de france,
8025301,53222058,Musée Lombart,,Rue du Musée,80600,Doullens,France,fr,open,50.1546836,2.3437442,,,,2010,payant:369;gratuit:5337;label-date:01/02/2003,label:musee de france,
1601504,,Cité International de la Bande Dessinée et de l'Image - Musée de la Bande Dessinée,,,,ANGOULEME,France,fr,open,,,,,,2010,payant:12341;gratuit:38803;label-date:01/02/2003,label:musee de france,
1610202,1021853,Musée des Arts du Cognac (Annexe musée municipal),Place,Place de la Salle Verte,16100,Cognac,France,fr,open,45.695510549999995,-0.3321661455206766,,,,2010,payant:6716;gratuit:5316;label-date:01/02/2003,label:musee de france,
1715301,81375628,Musée de la Mytiliculture,,Rue de l'Église,17137,Esnandes,France,fr,open,46.2492163,-1.1099362669636277,,,,2010,payant:3316;gratuit:371;label-date:01/02/2003,label:musee de france,
1716801,92529363,Musée Régional de Fouras,,Place Vauban,17450,Fouras,France,fr,open,45.986003999999994,-1.0975170518659043,,,,2010,payant:4993;gratuit:1468;label-date:01/02/2003,label:musee de france,
1700401,64991060,Musée Napoléonien et Africain,,Rue des Remparts,17123,Île-d'Aix,France,fr,open,46.01301115,-1.1746563582783416,,,,2010,payant:12778;gratuit:10606;label-date:06/01/2002,label:musee de france,
1741501,2400379556,Musée de l'Echevinage,,Place de l'Échevinage,17100,Saintes,France,fr,open,45.7459257,-0.6333715,,,,2010,payant:868;gratuit:2385;label-date:01/02/2003,label:musee de france,
1736901,4200451910,Musée Ernest Cognacq,,Avenue Victor Bouthillier,17410,Saint-Martin-de-Ré,France,fr,open,46.2054197,-1.3652403,,,,2010,payant:5884;gratuit:3842;label-date:01/02/2003,label:musee de france,
7904901,48789536,Musée de Bressuire,,Rue Aristide Briand,79300,Bressuire,France,fr,open,46.84205515,-0.4928976167773377,,,,2010,payant:0;gratuit:4722;label-date:01/02/2003,label:musee de france,
8613701,6957982158,Musée Charbonneau-Lassay,,Rue du Martray,86200,Loudun,France,fr,open,47.0100455,0.0757517,,,,2010,payant:0;gratuit:538;label-date:01/02/2003,label:musee de france,
8614001,4717431552,Musée de Préhistoire Raymond Touchard,,Route de Montmorillon,86320,Lussac-les-Châteaux,France,fr,open,46.4036633,0.7257293,,,,2010,payant:679;gratuit:1367;label-date:20/12/2005,label:musee de france,
8616502,7280088591,Musée Municipal de la Maison-Dieu,9,Avenue Pasteur,86500,Montmorillon,France,fr,closed,46.4288452,0.8725142,,,,2010,payant:0;gratuit:0;label-date:01/02/2003,label:musee de france,
8619401,1392914253,Musée Rupert de Chièvres,,Rue Charles Gide,86000,Poitiers,France,fr,closed,46.5807401,0.338418,,,,2010,payant:0;gratuit:0;label-date:06/01/2002,label:musee de france,
8619404,40140547,Musée du baptistère Saint-Jean,,Rue Paschal le Coq,86000,Poitiers,France,fr,open,46.57912245,0.34775441471496493,,,,2010,payant:11489;gratuit:1233;label-date:01/02/2003,label:musee de france,
0413501,,Musée de la Faïence,,,,MOUSTIERS-SAINTE-MARIE,France,fr,open,,,,,,2010,payant:7620;gratuit:4273;label-date:01/02/2003,label:musee de france,
0600402,68051130,Musée d'Histoire et d'Archéologie,,Place Mariejol,06600,Antibes,France,fr,open,43.58070895,7.128259617884984,,,,2010,payant:2683;gratuit:3149;label-date:01/02/2003,label:musee de france,
0602902,2824215844,Musée de la Mer,,Allée des Eucalyptus,06407,Cannes,France,fr,open,43.523904,7.0453202,,,,2010,payant:44377;gratuit:37904;label-date:01/02/2003,label:musee de france,
0606903,67332908,Musée International de la Parfumerie,,Boulevard du Jeu de Ballon,06130,Grasse,France,fr,open,43.65805315,6.92185503385852,,,,2010,payant:52710;gratuit:27281;label-date:01/02/2003,label:musee de france,
0608305,137784549,Musée des Beaux-Arts,,Avenue de la Madone,06500,Menton,France,fr,open,43.766633999999996,7.487974850304882,,,,2010,payant:0;gratuit:12806;label-date:01/02/2003,label:musee de france,
0608303,137783866,Musée de Préhistoire Régionale,,Rue Lieutenant Bosano,06500,Menton,France,fr,open,43.777006,7.503394160358056,,,,2010,payant:0;gratuit:7967;label-date:01/02/2003,label:musee de france,
0616301,769232481,Musée Départemental des Merveilles,,Avenue du 16 Septembre 1947,06430,Tende,France,fr,open,44.0902585,7.5923772,,,,2010,payant:0;gratuit:30194;label-date:01/02/2003,label:musee de france,
0615502,88040667,Musée Picasso la guerre et la paix à Vallauris,,Place de la Libération,06220,Vallauris,France,fr,open,43.580016,7.0532145,,,,2010,payant:14597;gratuit:8565;label-date:06/01/2002,label:musee de france,
1300107,86887992,Muséum d'Histoire Naturelle,166,Avenue Jean Monnet,13090,Aix-en-Provence,France,fr,open,43.5333952,5.4236948895737775,,,,2010,payant:10998;gratuit:34279;label-date:06/01/2002,label:musee de france,
1300105,88614075,Musée- Atelier de Paul Cézanne,,Rue des Bremondis,13626,Aix-en-Provence,France,fr,open,43.530754849999994,5.447239307551794,,,,2010,payant:52620;gratuit:15034;label-date:01/02/2003,label:musee de france,
1301103,446697908,Musée d'Histoire et d'Archéologie des Baux-de-Provence,,Place Louis Jou,13520,Les Baux-de-Provence,France,fr,open,43.74474145,4.794991401666666,,,,2010,payant:213233;gratuit:28225;label-date:01/02/2003,label:musee de france,
1305506,76469,Cabinet des Monnaies et Médailles de Marseille,,,13000,Marseille,France,fr,open,43.2961743,5.3699525,,,,2010,payant:0;gratuit:1665;label-date:01/02/2003,label:musee de france,
1305502,,Musée du Vieux Marseille,,,,MARSEILLE,France,fr,closed,,,,,,2010,payant:0;gratuit:0;label-date:01/02/2003,label:musee de france,
1305509,2365711963,Musée de la Mode,,Avenue Clot Bey,13008,Marseille,France,fr,closed,43.2572605,5.3820342,,,,2010,payant:0;gratuit:0;label-date:01/02/2003,label:musee de france,
1305503,154561855,Musée Borély,,Avenue Clot Bey,13008,Marseille,France,fr,closed,43.2573485,5.381981791666665,,,,2010,payant:0;gratuit:0;label-date:01/02/2003,label:musee de france,
1310301,,Musée de l'Empéri de Salon et de la Crau,,,,SALON-DE-PROVENCE,France,fr,open,,,,,,2010,payant:4649;gratuit:9180;label-date:01/02/2003,label:musee de france,
0500301,,Musée du Vieux Queyras,,,,AIGUILLES,France,fr,closed,,,,,,2010,payant:0;gratuit:0;label-date:01/02/2003,label:musee de france,
8301901,,Musée des Arts et d’Histoire,,,,BORMES-LES-MIMOSAS,France,fr,open,,,,,,2010,payant:0;gratuit:6662;label-date:01/02/2003,label:musee de france,
8305001,179782164,Musée Municipal,2,Place Blanqui,83990,Saint-Tropez,France,fr,open,43.2696385,6.635539872302159,,,,2010,payant:0;gratuit:12903;label-date:01/02/2003,label:musee de france,
8311901,179780946,Musée de l'Annonciade,,Place Georges Grammont,83990,Saint-Tropez,France,fr,open,43.271077,6.637054030608436,,,,2010,payant:58517;gratuit:8939;label-date:01/02/2003,label:musee de france,
8400701,83784740,Muséum d'Histoire Naturelle Esprit Requien,27,Rue de la République,84000,Avignon,France,fr,open,43.9458915,4.806026218689352,,,,2010,payant:0;gratuit:18442;label-date:06/01/2002,label:musee de france,
8404201,,Musée Marc Deydier,,,,CUCURON,France,fr,open,,,,,,2010,payant:0;gratuit:7323;label-date:01/02/2003,label:musee de france,
8408701,219528069,Musée Municipal,,Rue Madeleine Roch,84100,Orange,France,fr,open,44.136139400000005,4.807732098364788,,,,2010,payant:59147;gratuit:0;label-date:01/02/2003,label:musee de france,
8413701,88549191,Musée Archéologique Théo Desplans,,Rue Burrus,84110,Vaison-la-Romaine,France,fr,open,44.2428537,5.074630722674918,,,,2010,payant:61849;gratuit:7465;label-date:01/02/2003,label:musee de france,
0121801,210386723,Musée du Bugey-Valmorey,,Impasse de la Forge,01260,Belley,France,fr,open,45.9296855,5.7266927293314165,,,,2010,payant:2017;gratuit:2068;label-date:01/02/2003,label:musee de france,
0128301,1536396604,Musée du Peigne et de la Plasturgie,,Rue Capitaine Montreal,01100,Veyziat,France,fr,open,46.2607789,5.6465246,,,,2010,payant:1749;gratuit:2821;label-date:01/02/2003,label:musee de france,
0138301,,Musée Louis Jourdan,,,,SAINT-PAUL-DE-VARAX,France,fr,closed,,,,,,2010,payant:0;gratuit:0;label-date:01/02/2003,label:musee de france,
2614601,133910375,Château de Grignan,,Rue Montant au Château,26230,Grignan,France,fr,open,44.418758600000004,4.908919569000301,,,,2010,payant:90012;gratuit:58936;label-date:01/02/2003,label:musee de france,
7428001,4460540284,Musée des Vallées de Thônes,1,Rue Blanche,74230,Thônes,France,fr,open,45.8816772,6.3240667,,,,2010,payant:834;gratuit:938;label-date:01/02/2003,label:musee de france,
3826901,1654912102,Musée Matheysin,,Rue Colonel Escallon,38350,La Mure,France,fr,open,44.9046933,5.7845917,,,,2010,payant:1017;gratuit:1598;label-date:01/02/2003,label:musee de france,
4205203,2959298116,Musée Hospitalier,,Rue Jean Morel,42190,Charlieu,France,fr,open,46.159575,4.1712806,,,,2010,payant:2777;gratuit:1386;label-date:01/02/2003,label:musee de france,
4205901,6050847032,Atelier - Musée du Chapeau,31,Rue Martouret,42140,Chazelles-sur-Lyon,France,fr,open,45.6386575,4.395141,,,,2010,payant:10486;gratuit:3638;label-date:01/02/2003,label:musee de france,
4209101,,Musée d'Histoire du  20ème Siècle - Résistance et Déportation,,,,ESTIVAREILLES,France,fr,open,,,,,,2010,payant:2301;gratuit:840;label-date:01/02/2003,label:musee de france,
4209401,346317680,Musée d'Archéologie,,Rue Victor de Laprade,42110,Feurs,France,fr,open,45.7442509,4.2195524,,,,2010,payant:905;gratuit:5105;label-date:01/02/2003,label:musee de france,
4210601,,Musée Historial,,,,GREZOLLES,France,fr,closed,,,,,,2010,payant:0;gratuit:0;label-date:01/02/2003,label:musee de france,
4217301,,Musée du Vieux Pommiers,,,,POMMIERS-EN-FOREZ,France,fr,closed,,,,,,2010,payant:0;gratuit:0;label-date:01/02/2003,label:musee de france,
4221804,49047701,Musée de la Mine / Site Couriot,3,Boulevard Maréchal Franchet d'Espèrey,69400,Saint-Étienne,France,fr,open,45.4382508,4.376131713032282,,,,2010,payant:30957;gratuit:26962;label-date:01/02/2003,label:musee de france,
4231801,,Musée Rural,,,,USSON-EN-FOREZ,France,fr,open,,,,,,2010,payant:5260;gratuit:939;label-date:01/02/2003,label:musee de france,
6912301,188157107,Musée Historique des Tissus,,Rue de la Charité,69002,Lyon,France,fr,open,45.7533945,4.831325634804587,,,,2010,payant:51937;gratuit:29766;label-date:01/02/2003,label:musee de france,
6938501,700244364,Musées Gadagne,,Rue de la Fronde,69005,Lyon,France,fr,open,45.7640445,4.827288742103092,,,,2010,payant:46722;gratuit:50278;label-date:01/02/2003,label:musee de france,
6938602,51263801,Muséum d'Histoire Naturelle,,Avenue de Lyon,73000,Chambéry,France,fr,open,45.564102399999996,5.916291852044658,,,,2010,payant:0;gratuit:93070;label-date:01/02/2003,label:musee de france,
6938101,62277312,Musée d'Art Contemporain de Lyon,,Allée Achille Lignon,69006,Lyon,France,fr,open,45.7842186,4.852469746082954,,,,2010,payant:87114;gratuit:39721;label-date:01/02/2003,label:musee de france,
7300601,,Musée archéologique et minéralogique Pierre Borrione,,,,AIME-EN-TARENTAISE,France,fr,open,,,,,,2010,payant:684;gratuit:438;label-date:01/02/2003,label:musee de france,
7301101,152123714,Musée Municipal d'Albertville-Conflans,,Place de Conflans,73200,Albertville,France,fr,open,45.670647,6.397100738095239,,,,2010,payant:3099;gratuit:2999;label-date:01/02/2003,label:musee de france,
7305401,5858569185,Musée du Costume,,Rue des Vergers,73700,Bourg-Saint-Maurice,France,fr,closed,45.6178322,6.7704898,,,,2010,payant:0;gratuit:0;label-date:01/02/2003,label:musee de france,
9750202,1840464642,Musée Municipal,,Rue Dominique Brorota,97500,Miquelon-Langlade,France,fr,open,47.100756,-56.3792429,,,,2010,payant:1621;gratuit:1306;label-date:01/02/2003,label:musee de france,
6718001,48609011,Musée Historique,,Rue du Sel,67500,Haguenau,France,fr,open,48.81306145,7.791507522753506,,,,2010,payant:1742;gratuit:4123;label-date:01/02/2003,label:musee de france,
6730001,58887086,Musée de la Chartreuse,,Rue des Étudiants,67120,Molsheim,France,fr,open,48.5428428,7.490422123361975,,,,2010,payant:3026;gratuit:492;label-date:01/02/2003,label:musee de france,
6753801,1773559189,Musée Lalique,,Rue du Hochberg,67290,Wingen-sur-Moder,France,fr,closed,48.9265922,7.3620686,,,,2010,payant:0;gratuit:0;label-date:15/03/2007,label:musee de france,
6754401,167263621,Musée Westercamp,,Rue du Musée,67160,Wissembourg,France,fr,closed,49.0389525,7.944872205882353,,,,2010,payant:0;gratuit:0;label-date:01/02/2003,label:musee de france,
6806601,1265125753,Musée d'Unterlinden,,Place Unterlinden,68000,Colmar,France,fr,open,48.0798635,7.3555565,,,,2010,payant:154400;gratuit:28600;label-date:01/02/2003,label:musee de france,
6814901,,Musée Historique et Militaire de Huningue,,,,HUNINGE,France,fr,open,,,,,,2010,payant:177;gratuit:242;label-date:01/02/2003,label:musee de france,
6816401,55263399,Musée du Vignoble et des Vins d'Alsace,1b,Grand'Rue,68240,Colmar-Ribeauvillé,France,fr,open,48.13509195,7.2883942443186704,,,,2010,payant:4307;gratuit:100;label-date:01/02/2003,label:musee de france,
6822409,449007880,Musée Minéralogique de la Société Industrielle de Mulhouse,,Autodrome du Musée de l'Automobile,68100,Mulhouse,France,fr,closed,47.7612848,7.327971551196445,,,,2010,payant:0;gratuit:0;label-date:01/02/2003,label:musee de france,
6827801,1936849476,Musée du Papier Peint,28,Rue Zuber,68170,Rixheim,France,fr,open,47.7444268,7.3972851,,,,2010,payant:6471;gratuit:4008;label-date:01/02/2003,label:musee de france,
2429101,,Musée Eugène Le Roy et des Vieux Métiers,,,,MONTIGNAC,France,fr,closed,,,,,,2010,payant:0;gratuit:0;label-date:01/02/2003,label:musee de france,
3305801,,Musée d'Art et d'Histoire du Pays Blayais,,,,BLAYE,France,fr,closed,,,,,,2010,payant:0;gratuit:0;label-date:01/02/2003,label:musee de france,
3306304,80024893,Musée d'Aquitaine,,Musée d'Aquitaine,33000,Bordeaux,France,fr,open,44.8356189,-0.5746906101232725,,,,2010,payant:12108;gratuit:117920;label-date:06/01/2002,label:musee de france,
3306303,79979299,Musée des Beaux-Arts,,Rue Dufau,33000,Bordeaux,France,fr,open,44.837340600000005,-0.5806817120198913,,,,2010,payant:14615;gratuit:69863;label-date:06/01/2002,label:musee de france,
3339401,4870482921,Musée d'Histoire et d'Archéologique,,Place du 11 Novembre 1918,33330,Saint-Émilion,France,fr,closed,44.8959729,-0.1551283,,,,2010,payant:0;gratuit:0;label-date:01/02/2003,label:musee de france,
4008801,5223344896,Musée de Borda,11 bis,Rue des Carmes,40100,Dax,France,fr,open,43.7105638,-1.0538641,,,,2010,payant:2760;gratuit:5909;label-date:01/02/2003,label:musee de france,
4019201,580649793,Musée Despiau-Wlérick,6,Place Marguerite de Navarre,40000,Mont-de-Marsan,France,fr,open,43.8925268,-0.4993529,,,,2010,payant:0;gratuit:39915;label-date:01/02/2003,label:musee de france,
4028701,26246232,Musée Municipal du Lac,,Allée du Musée,40460,Sanguinet,France,fr,open,44.4825995,-1.0754788,,,,2010,payant:1739;gratuit:55;label-date:01/02/2003,label:musee de france,
6406201,4335473543,Musée Municipal,,Rue du Tennis,64260,Arudy,France,fr,open,43.1016426,-0.4297682,,,,2010,payant:1264;gratuit:360;label-date:01/02/2003,label:musee de france,
6410201,631661850,Musée Basque et de l'Histoire de Bayonne,37,Quai des Corsaires,64100,Bayonne,France,fr,open,43.4910854,-1.473799,,,,2010,payant:19902;gratuit:12615;label-date:01/02/2003,label:musee de france,
6444503,6815484814,Musée National du Château,,Rue Mathieu Lalanne,64000,Pau,France,fr,open,43.2977315,-0.3645267,,,,2010,payant:70452;gratuit:86458;label-date:06/01/2002,label:musee de france,
0304801,,Musée Charles-Louis Philippe,,,,CERILLY,France,fr,open,,,,,,2010,payant:235;gratuit:85;label-date:01/02/2003,label:musee de france,
0311801,387245355,Musée Municipal de Gannat,,Esplanade Pierre-Roch-Jurien-de-la-Gravière,03800,Gannat,France,fr,open,46.10151045,3.1965522151680728,,,,2010,payant:812;gratuit:930;label-date:01/02/2003,label:musee de france,
1501401,2085157238,Musée des Sciences,,Rue des Fourmillères,15120,Lacapelle-del-Fraisse,France,fr,open,44.7599649,2.4617902,,,,2010,payant:3688;gratuit:7556;label-date:01/02/2003,label:musee de france,
1518702,243472225,Musée d'art et d'histoire Alfred Douët,,Place d'Armes,15100,Saint-Flour,France,fr,open,45.0340635,3.095191787174098,,,,2010,payant:1263;gratuit:1342;label-date:01/02/2003,label:musee de france,
6301001,4008056943,Musée de la Dentelle,,Ancienne Route Nationale,63220,Arlanc,France,fr,open,45.4143324,3.7244768,,,,2010,payant:1145;gratuit:31;label-date:01/02/2003,label:musee de france,
6311301,67015490,Musée d'Archéologie Bargoin,,Place Louis Deteix,63100,Clermont-Ferrand,France,fr,open,45.79392705,3.1162223146769588,,,,2010,payant:3649;gratuit:16718;label-date:01/02/2003,label:musee de france,
6319501,700609620,Musée Départemental de la Céramique Gallo-Romaine,,Rue du Musée,63190,Lezoux,France,fr,open,45.82572555,3.3847440065878374,,,,2010,payant:9051;gratuit:4949;label-date:01/02/2003,label:musee de france,
6321101,798314887,Musée des Pénitents Blancs,,Place de l'Église,63940,Marsac-en-Livradois,France,fr,open,45.4787455,3.7287661,,,,2010,payant:304;gratuit:13;label-date:01/02/2003,label:musee de france,
6322301,7638286185,Musée Paléontologique,,D 508,63560,Neuf-Église,France,fr,open,46.1202255,2.8584098,,,,2010,payant:588;gratuit:86;label-date:01/02/2003,label:musee de france,
2103801,7419064530,Musée Bonaparte,,Place du Château,21130,Auxonne,France,fr,open,47.1915827,5.3833549,,,,2010,payant:0;gratuit:2605;label-date:01/02/2003,label:musee de france,
2105401,365168495,Musée du Vin de Bourgogne,,Rue Paradis,21200,Beaune,France,fr,open,47.0235691,4.837196,,,,2010,payant:20526;gratuit:3316;label-date:01/02/2003,label:musee de france,
2123101,2482864557,Musée François Rude,,Rue Vaillant,21000,Dijon,France,fr,open,47.321005,5.0442148,,,,2010,payant:0;gratuit:33247;label-date:01/02/2003,label:musee de france,
2123103,2751550494,Musée Magnin,,Rue des Bons Enfants,21000,Dijon,France,fr,open,47.3209486,5.0422275,,,,2010,payant:6962;gratuit:10036;label-date:06/01/2002,label:musee de france,
5819402,,Musée de la Faïence et des Beaux-Arts,,,,NEVERS,France,fr,closed,,,,,,2010,payant:0;gratuit:0;label-date:01/02/2003,label:musee de france,
5819403,339392015,Musée Archéologique du Nivernais (Porte du Croux),,Rue des Ouches,58000,Nevers,France,fr,closed,46.9882494,3.1580768,,,,2010,payant:0;gratuit:0;label-date:01/02/2003,label:musee de france,
5821501,,Musée Ernest Guédon,,,,POUILLY-SUR-LOIRE,France,fr,closed,,,,,,2010,payant:0;gratuit:0;label-date:01/02/2003,label:musee de france,
5822701,,Musée du Grès de Puisaye,,,,SAINT-AMAND-EN-PUISAYE,France,fr,open,,,,,,2010,payant:2985;gratuit:304;label-date:01/02/2003,label:musee de france,
5830401,1356183136,Musée Auguste Grasset,,Rue de la Caserne,58210,Varzy,France,fr,open,47.3586963,3.3887096,,,,2010,payant:1646;gratuit:1056;label-date:01/02/2003,label:musee de france,
7101402,2380355755,Musée Rolin,,Place Saint-Louis,71400,Autun,France,fr,open,46.9456553,4.2993665,,,,2010,payant:12453;gratuit:7550;label-date:01/02/2003,label:musee de france,
7107601,,Musée Denon,,,,CHALON-SUR-SAONE,France,fr,open,,,,,,2010,payant:0;gratuit:15151;label-date:01/02/2003,label:musee de france,
7127001,700244362,Musée des Ursulines,,Rue des Ursulines,71000,Saint-Clément,France,fr,open,46.307027,4.833142197130883,,,,2010,payant:2118;gratuit:17701;label-date:01/02/2003,label:musee de france,
7127501,2690539792,Musée de la Tour du Moulin,9,Rue de la Tour du Moulin,71110,Marcigny,France,fr,open,46.274612,4.0431847,,,,2010,payant:1600;gratuit:606;label-date:01/02/2003,label:musee de france,
7137301,7419064525,Musée du Terroir,,Rue des Quartiers,71470,Romenay,France,fr,open,46.503251,5.067591,,,,2010,payant:1971;gratuit:709;label-date:01/02/2003,label:musee de france,
7154302,7419064526,Musée Bourguignon -  Perrin de Puycousin,,Rue de l'Hôpital,71700,Tournus,France,fr,closed,46.562054,4.9109128,,,,2010,payant:0;gratuit:0;label-date:01/02/2003,label:musee de france,
8927901,,Musée des Arts Naïfs et Populaires de Noyers sur Serein,,,,NOYERS-SUR-SEREIN,France,fr,open,,,,,,2010,payant:2168;gratuit:1332;label-date:01/02/2003,label:musee de france,
8941801,70591575,Musée Municipal de Tonnerre,,Rue du Prieuré,89700,Tonnerre,France,fr,closed,47.856170750000004,3.9753439945533167,,,,2010,payant:0;gratuit:0;label-date:01/02/2003,label:musee de france,
8944601,2628533133,Musée Zervos - Maison Romain Rolland,,,89450,Vézelay,France,fr,open,47.4638215,3.743302,,,,2010,payant:6566;gratuit:2143;label-date:01/02/2003,label:musee de france,
2227801,78123314,Musée d'Art et d'Histoire,,Cour Francis Renaud,22000,Saint-Brieuc,France,fr,open,48.51234775,-2.7619036982498804,,,,2010,payant:0;gratuit:39422;label-date:01/02/2003,label:musee de france,
2903801,,Ecomusée des Monts d'Arrée - Moulins de Kerouat,,,,COMMANA,France,fr,open,,,,,,2010,payant:9395;gratuit:2199;label-date:01/02/2003,label:musee de france,
2915501,,Ecomusée d'Ouessant - Vivre sur une Ile,,,,OUESSANT,France,fr,open,,,,,,2010,payant:5838;gratuit:4313;label-date:01/02/2003,label:musee de france,
2921701,84081121,Musée de Pont-Aven,,Rue Louis Lomenech,29930,Pont-Aven,France,fr,open,47.8550965,-3.746406090032833,,,,2010,payant:31415;gratuit:11858;label-date:01/02/2003,label:musee de france,
2923202,94312010,Musée Départemental Breton,1,Rue du Roi Gradlon,29000,Quimper,France,fr,open,47.9953725,-4.1025369543379,,,,2010,payant:28231;gratuit:11944;label-date:01/02/2003,label:musee de france,
5622801,,Musée de la Résistance Bretonne,,,,SAINT-MARCEL - MALESTROIT,France,fr,open,,,,,,2010,payant:21173;gratuit:3620;label-date:01/02/2003,label:musee de france,
1814101,,Musée du Château Charles VII,,,,MEHUN-SUR-YEVRE,France,fr,open,,,,,,2010,payant:8390;gratuit:0;label-date:01/02/2003,label:musee de france,
1819701,2126258013,Musée Saint-Vic,,Cours Manuel,18200,Saint-Amand-Montrond,France,fr,open,46.7214136,2.507645,,,,2010,payant:898;gratuit:2010;label-date:01/02/2003,label:musee de france,
3608801,238746663,Musée de l'Hospice Saint-Roch,,Rue de l'Hospice Saint-Roch,36100,Issoudun,France,fr,open,46.944976,1.9942319952380998,,,,2010,payant:143;gratuit:19017;label-date:02/05/2002,label:musee de france,
3609201,149263965,Musée de Géologie Régionale,3,Place des Sciences,1348,Ottignies-Louvain-la-Neuve,België / Belgique / Belgien,be,closed,50.6682538,4.620109526811595,,,,2010,payant:0;gratuit:0;label-date:01/02/2003,label:musee de france,
3711501,65229447,"""""""Maison Musée"""" René Descartes""",29,Rue Descartes,37160,Descartes,France,fr,open,46.972620899999995,0.6999355493597434,,,,2010,payant:1526;gratuit:1014;label-date:01/02/2003,label:musee de france,
3713202,65229447,Musée du Terroir,29,Rue Descartes,37160,Descartes,France,fr,closed,46.972620899999995,0.6999355493597434,,,,2010,payant:0;gratuit:0;label-date:01/02/2003,label:musee de france,
3724101,,Musée du Savignéen,,,,SAVIGNE-SUR-LATHAN,France,fr,open,,,,,,2010,payant:1320;gratuit:174;label-date:01/02/2003,label:musee de france,
4101805,273622,Muséum d'Histoire Naturelle,,,41000,Blois,France,fr,open,47.5876861,1.3337639,,,,2010,payant:4890;gratuit:8893;label-date:01/02/2003,label:musee de france,
4101801,7170311044,Château Musées de Blois,,Petits Degrés du Château,41000,Blois,France,fr,open,47.5857788,1.3313739,,,,2010,payant:230823;gratuit:31478;label-date:01/02/2003,label:musee de france,
4113601,86513731,Musée de la Corbillière,,Rue du Général Leclerc,14360,Trouville-sur-Mer,France,fr,open,49.3713839,0.08430517462516637,,,,2010,payant:0;gratuit:1226;label-date:01/02/2003,label:musee de france,
4119401,106812759,Musée de Sologne,,Avenue François Mitterrand,41200,Romorantin-Lanthenay,France,fr,open,47.3558188,1.750180813971796,,,,2010,payant:7561;gratuit:9250;label-date:01/02/2003,label:musee de france,
4508501,240306634,Musée d'Art et d'Archéologie,2,Rue du Faubourg du Puyrault,45230,Châtillon-Coligny,France,fr,open,47.820727500000004,2.845076619565216,,,,2010,payant:306;gratuit:144;label-date:01/02/2003,label:musee de france,
0831101,1879820958,Musée du Feutre,,Rue Du Colombier,08210,Mouzon,France,fr,open,49.6060032,5.0749863,,,,2010,payant:4013;gratuit:637;label-date:01/02/2003,label:musee de france,
5206001,,Musée Municipal,,,,BOURBONNE-LES-BAINS,France,fr,open,,,,,,2010,payant:0;gratuit:2129;label-date:01/02/2003,label:musee de france,
5235301,5915925232,Musée de la Coutellerie,,Place Charles de Gaulle,52800,Nogent,France,fr,open,48.0275986,5.3411994,,,,2010,payant:3282;gratuit:2080;label-date:18/04/2002,label:musee de france,
5110803,2260860300,Musée Garinet,13,Rue Pasteur,51000,Châlons-en-Champagne,France,fr,open,48.9558943,4.3664214,,,,2010,payant:177;gratuit:442;label-date:01/02/2003,label:musee de france,
2505607,7345774337,Muséum de Besançon,,Chemin de Ronde de la Citadelle,25000,Besançon,France,fr,open,47.2285217,6.034794,,,,2010,payant:189664;gratuit:43489;label-date:01/02/2003,label:musee de france,
2505604,7345774098,Musée Comtois,,Chemin de Ronde de la Citadelle,25000,Besançon,France,fr,open,47.2298091,6.034391,,,,2010,payant:0;gratuit:0;label-date:01/02/2003,label:musee de france,
9712001,65841412,Musée Municipal Saint-John Perse,,Rue Nozières,97110,Pointe-à-Pitre,France,fr,open,16.2364273,-61.53584126806761,,,,2010,payant:1939;gratuit:400;label-date:12/12/2002,label:musee de france,
9730201,1024331366,Musée Territorial Alexandre Franconie,1,Avenue du Général de Gaulle,97300,Cayenne,France,fr,open,4.9382912,-52.3344262,,,,2010,payant:3096;gratuit:5107;label-date:01/02/2003,label:musee de france,
9111401,48359053,Musée Municipal Robert Dubois-Corneau,,Rue de la Glacière,91800,Brunoy,France,fr,open,48.7003494,2.5007316063279736,,,,2010,payant:0;gratuit:2528;label-date:01/02/2003,label:musee de france,
9120001,2650356282,Musée du Château,,Rue du Marché aux Grains,91410,Dourdan,France,fr,open,48.5298686,2.0111955,,,,2010,payant:9814;gratuit:7149;label-date:01/02/2003,label:musee de france,
9202501,79575406,Musée Municipal d'Art et d'Histoire,,Place du Général Leclerc,92700,Colombes,France,fr,open,48.9234139,2.2520804122623574,,,,2010,payant:0;gratuit:6628;label-date:01/02/2003,label:musee de france,
9202601,82241201,Musée Roybet Fould,178,Boulevard Saint-Denis,92400,Courbevoie,France,fr,open,48.90043675,2.2718533501517357,,,,2010,payant:0;gratuit:9685;label-date:01/02/2003,label:musee de france,
9202602,82241201,Musée des Travaux Publics,178,Boulevard Saint-Denis,92400,Courbevoie,France,fr,closed,48.90043675,2.2718533501517357,,,,2010,payant:0;gratuit:0;label-date:06/01/2002,label:musee de france,
9206303,,Musée d'Histoire Locale - Mémoire de la Ville (et musée Franco-Suisse),,,,RUEIL-MALMAISON,France,fr,open,,,,,,2010,payant:0;gratuit:2347;label-date:01/02/2003,label:musee de france,
9206301,2703428029,Musée National des Châteaux de Malmaison et de Bois-Préau,,Avenue du Château de la Malmaison,92500,Rueil-Malmaison,France,fr,open,48.8737321,2.1687097,,,,2010,payant:35650;gratuit:31840;label-date:06/01/2002,label:musee de france,
7510508,7444,Galerie d'Anatomie Comparée et de Paléontologie (Muséum d'Histoire Naturelle),,,,Paris,France,fr,open,48.8566969,2.3514616,,,,2010,payant:111097;gratuit:172732;label-date:06/01/2002,label:musee de france,
7510501,56640163,Musée du Moyen Age-Thermes et Hôtel de Cluny,6,Place Paul Painlevé,75005,Paris,France,fr,open,48.85064945,2.3435643010185183,,,,2010,payant:155911;gratuit:150234;label-date:06/01/2002,label:musee de france,
7510517,237003117,Musée de l'Assistance Publique - Hôpitaux de Paris,,Quai de la Tournelle,75005,Paris,France,fr,open,48.850724,2.3518758,,,,2010,payant:10661;gratuit:7373;label-date:02/10/2002,label:musee de france,
7511603,,Etablissement Public du Musée des Arts Asiatiques Guimet,,,,PARIS,France,fr,open,,,,,,2010,payant:111999;gratuit:112179;label-date:06/01/2002,label:musee de france,
7511606,5918699678,Musée des Monuments Français,,Rue Joliot-Curie,91190,Le Moulon,France,fr,open,48.7094092,2.1666145,,,,2010,payant:173629;gratuit:150736;label-date:09/07/2004,label:musee de france,
7511615,79219308,Musée d'Art Moderne de la ville de Paris,,Rue Gaston de Saint-Paul,75116,Paris,France,fr,open,48.8643133,2.2978602225671843,,,,2010,payant:365147;gratuit:314464;label-date:08/07/2004,label:musee de france,
7510106,7515426,Musée du Louvre,,Rue Croix des Petits Champs,75001,Paris,France,fr,open,48.8611473,2.33802768704666,,,,2010,payant:5162394;gratuit:3184027;label-date:06/01/2002,label:musee de france,
7510801,,Musée Nissim de Camondo (UCAD),,,,PARIS,France,fr,open,,,,,,2010,payant:41524;gratuit:14579;label-date:06/01/2002,label:musee de france,
7511607,83422695,Musée Bouchard,,Rue Louis Boilly,75016,Paris,France,fr,closed,48.85941225,2.2672551197388042,,,,2010,payant:0;gratuit:0;label-date:01/02/2003,label:musee de france,
7510609,5918699678,Musée des Monnaies et des Médailles,,Rue Joliot-Curie,91190,Le Moulon,France,fr,open,48.7094092,2.1666145,,,,2010,payant:7018;gratuit:33745;label-date:06/01/2002,label:musee de france,
7702201,113288014,Musée Départemental de l'Ecole de Barbizon - Auberge Ganne,92,Grande Rue,77630,Barbizon,France,fr,open,48.4461862,2.602608897820088,,,,2010,payant:10879;gratuit:7660;label-date:01/02/2003,label:musee de france,
7731601,126120236,Musée Municipal,4,Place de Samois,,Moret-Loing-et-Orvanne,France,fr,open,48.373796,2.8149875,,,,2010,payant:0;gratuit:3433;label-date:01/02/2003,label:musee de france,
7740501,,Musée des Pays de Seine-et-Marne,,,,SAINT-CYR-SUR-MORIN,France,fr,open,,,,,,2010,payant:1768;gratuit:10425;label-date:01/02/2003,label:musee de france,
7753301,249312019,Musée départemental Stéphane Mallarmé,,Quai Stéphane Mallarmé,77870,Vulaines-sur-Seine,France,fr,open,48.43122295,2.747069924160446,,,,2010,payant:3535;gratuit:1801;label-date:01/02/2003,label:musee de france,
9304801,4247776290,Musée de l'Histoire Vivante,31,Boulevard Théophile Sueur,93100,Bobigny,France,fr,open,48.8660128,2.4718198,,,,2010,payant:925;gratuit:2088;label-date:01/02/2003,label:musee de france,
9401501,7127961384,Musée Adrien Mentienne,,Rue Jules Benoît,94360,Bry-sur-Marne,France,fr,open,48.8359758,2.5206622,,,,2010,payant:0;gratuit:1550;label-date:01/02/2003,label:musee de france,
9405201,1788374144,Musée de Nogent-Sur-Marne,36,Boulevard Gallieni,94130,Nogent-sur-Marne,France,fr,open,48.840397,2.4849183,,,,2010,payant:0;gratuit:6300;label-date:01/02/2003,label:musee de france,
9520501,355298205,Musée de la Renaissance - Château d'Ecouen,,Rue Paul Lorillon,95440,Écouen,France,fr,open,49.01583335,2.3756373812644034,,,,2010,payant:16658;gratuit:42393;label-date:06/01/2002,label:musee de france,
9529501,464777467,Musée Archéologique du Val d'Oise,,Place du Château,95450,Guiry-en-Vexin,France,fr,open,49.1089657,1.8496944,,,,2010,payant:0;gratuit:9164;label-date:01/02/2003,label:musee de france,
9550002,41467265,Musée Camille Pissarro,17,Rue du Château,95300,Pontoise,France,fr,open,49.0482376,2.0999530104316726,,,,2010,payant:0;gratuit:3799;label-date:01/02/2003,label:musee de france,
7836101,1733134564,Musée de l'Hôtel-Dieu,1,Rue Thiers,78200,Mantes-la-Jolie,France,fr,open,48.9901391,1.7194536,,,,2010,payant:5766;gratuit:2181;label-date:01/02/2003,label:musee de france,
7838401,182753888,Musée Zola-Dreyfus,,Rue Pasteur,78670,Médan,France,fr,open,48.9556992,1.9955895638705745,,,,2010,payant:6105;gratuit:338;label-date:23/10/2009,label:musee de france,
7857501,951328,Collections de la Fondation de Coubertin,,,78470,Saint-Rémy-lès-Chevreuse,France,fr,open,48.7054888,2.071109,,,,2010,payant:4018;gratuit:2758;label-date:01/02/2003,label:musee de france,
9743501,298835000,Musée Historique de Villèle,,Rue Mahatma Gandhi,97435,Villèle,France,fr,open,-21.056419499999997,55.263592665368016,,,,2010,payant:14792;gratuit:18228;label-date:01/02/2003,label:musee de france,
1119401,186119163,Musée Municipal,,Route des Châteaux,11600,Lastours,France,fr,closed,43.3345386,2.378578108690959,,,,2010,payant:0;gratuit:0;label-date:01/02/2003,label:musee de france,
1120601,799714487,Musée Petiet,,Avenue Fabre d'Églantine,11300,Limoux,France,fr,open,43.0534043,2.2144622,,,,2010,payant:831;gratuit:2568;label-date:01/02/2003,label:musee de france,
1126202,92058703,Musée Archéologique - Ensemble monumental de Narbonne,,Rue des Jacobins,11100,Narbonne,France,fr,open,43.1809595,3.004147255208337,,,,2010,payant:0;gratuit:0;label-date:2002-06-13 00:00:00,label:musee de france,
1136901,758324962,Musée Archéologique,,Chemin de Halage,11590,Sallèles-d'Aude,France,fr,open,43.273517,2.9369963132911447,,,,2010,payant:6850;gratuit:0;label-date:01/02/2003,label:musee de france,
1137901,,Musée des Corbières,,,,SIGEAN,France,fr,open,,,,,,2010,payant:590;gratuit:191;label-date:01/02/2003,label:musee de france,
3000701,5160411791,Musée-Bibliothèque Pierre-André Benoît,,Montée des Lauriers,30100,Alès,France,fr,open,44.1305571,4.0691724,,,,2010,payant:0;gratuit:10783;label-date:01/02/2003,label:musee de france,
3000702,130822767,Musée du Colombier,,Rue Jean Mayodon,30100,Alès,France,fr,open,44.1284065,4.080311817458588,,,,2010,payant:0;gratuit:12935;label-date:01/02/2003,label:musee de france,
3002801,3778245095,Musée Albert André,,Place Auguste Mallet,30200,Bagnols-sur-Cèze,France,fr,open,44.1619056,4.6203171,,,,2010,payant:343;gratuit:4204;label-date:01/02/2003,label:musee de france,
3035101,908930249,Musée Pierre de Luxembourg,,Rue de la République,30400,Villeneuve-lès-Avignon,France,fr,open,43.9637314,4.7968264,,,,2010,payant:3103;gratuit:3550;label-date:01/02/2003,label:musee de france,
3400301,4134270080,Musée Agathois,5,Rue de la Fraternité,34300,Agde,France,fr,open,43.3118294,3.4686196,,,,2010,payant:2951;gratuit:1882;label-date:01/02/2003,label:musee de france,
3403201,,Musée des Beaux-Arts de Béziers,,,,BEZIERS,France,fr,open,,,,,,2010,payant:4335;gratuit:11223;label-date:01/02/2003,label:musee de france,
3415301,78355378,Musée de la Préhistoire des Matelles,,Rue des Consuls,34270,Les Matelles,France,fr,open,43.73108725,3.809882717302635,,,,2010,payant:1564;gratuit:1917;label-date:01/02/2003,label:musee de france,
3415801,2622894330,Musée Archéologique,,Place du Monument,34210,Minerve,France,fr,open,43.3543868,2.7460475,,,,2010,payant:6272;gratuit:0;label-date:01/02/2003,label:musee de france,
3417210,1226892,Musée de l'Hôtel d'Espeyran (Annexe musée Fabre),,Cour de la Mosaïque,34062,Montpellier,France,fr,open,43.6117542,3.8801274326001858,,,,2010,payant:0;gratuit:0;label-date:01/02/2003,label:musee de france,
6613604,81558950,Muséum d'Histoire Naturelle,,Place Joseph Deloncle,66000,Perpignan,France,fr,open,42.69731995,2.8996247968495945,,,,2010,payant:0;gratuit:0;label-date:01/02/2003,label:musee de france,
1927201,,Musée du Cloître de Tulle André Mazeyrie,,,,TULLE,France,fr,open,,,,,,2010,payant:0;gratuit:313;label-date:01/02/2003,label:musee de france,
5746303,2548561598,Centre Pompidou de Metz (collections nationales decentralisées),,Rue de Metz,68100,Mulhouse,France,fr,open,47.7492151,7.3421852,,,,2010,payant:332548;gratuit:283282,label:musee de france,
5767201,,La Tour aux Puces - Musée du Pays Thionvillois,,,,THIONVILLE,France,fr,open,,,,,,2010,payant:6278;gratuit:3564;label-date:01/02/2003,label:musee de france,
9723101,,Musée de La Canne,,,,LES TROIS ILETS,France,fr,open,,,,,,2010,payant:8193;gratuit:2313;label-date:01/02/2003,label:musee de france,
9722501,,Musée Volcanologique Franck Arnold Perret,,,,SAINT-PIERRE,France,fr,open,,,,,,2010,payant:22555;gratuit:563;label-date:01/02/2003,label:musee de france,
0912201,3241536133,Musée Départemental de l'Ariège,,Rue du Rocher,09000,Foix,France,fr,open,42.9657002,1.6047597,,,,2010,payant:80492;gratuit:6677;label-date:01/02/2003,label:musee de france,
0916001,7228420483,Musée du Textile et du Peigne en Corne,65,Rue Jean Canal,09300,Lavelanet,France,fr,open,42.9296646,1.8454676,,,,2010,payant:1050;gratuit:170;label-date:01/02/2003,label:musee de france,
0926801,2833497965,Musée du Palais des Evêques,,Chemin du Parc,09190,Saint-Lizier,France,fr,closed,43.0027248,1.1370459,,,,2010,payant:0;gratuit:0;label-date:01/02/2003,label:musee de france,
1208901,4163135490,Musée Régional de Géologie Pierre Vetter,,Rue Emma Calvé,12300,Saint-Michel,France,fr,open,44.5542939,2.2583993,,,,2010,payant:2517;gratuit:3029;label-date:01/02/2003,label:musee de france,
1209601,152864630,"Musée des Mœurs et Coutumes, Musée du Rouergue",,Place Pierre Frontin,12500,Espalion,France,fr,open,44.5211405,2.7606325085458474,,,,2010,payant:1582;gratuit:0;label-date:01/02/2003,label:musee de france,
1209602,152865476,Musée Joseph Vaylet,,Rue Droite,12500,Espalion,France,fr,open,44.521226,2.7623283513681596,,,,2010,payant:4936;gratuit:0;label-date:01/02/2003,label:musee de france,
1220204,228699419,Musée Soulages,,Carrefour de l'Agriculture,12000,Rodez,France,fr,closed,44.35221355,2.5677506427040724,,,,2010,payant:0;gratuit:0;label-date:20/12/2005,label:musee de france,
3201301,65470495,Musée des jacobins,,Rue Daumesnil,32000,Auch,France,fr,open,43.64730755,0.5875967260305804,,,,2010,payant:3084;gratuit:8255;label-date:01/02/2003,label:musee de france,
3210701,395394221,Musée de l'Armagnac,,Rue Jules Ferry,32100,Condom,France,fr,open,43.9587501,0.3720146,,,,2010,payant:3434;gratuit:377;label-date:01/02/2003,label:musee de france,
3102801,420078229,Musée de Préhistoire,,Chemin des Roquettes,31420,Aurignac,France,fr,closed,43.21557205,0.8786885962141049,,,,2010,payant:0;gratuit:0;label-date:01/02/2003,label:musee de france,
6505902,70833199,Musée Salies,,Place des Thermes,65200,Bagnères-de-Bigorre,France,fr,open,43.06271375,0.14619557596196836,,,,2010,payant:3434;gratuit:508;label-date:01/02/2003,label:musee de france,
6530601,,Musée-château Gaston Phébus,,,,MAUVEZIN,France,fr,open,,,,,,2010,payant:33636;gratuit:0;label-date:01/02/2003,label:musee de france,
4604201,62114469,Musée Henri Martin,,Rue Émile Zola,46000,Cahors,France,fr,open,44.4484051,1.4381918459159788,,,,2010,payant:2231;gratuit:7815;label-date:01/02/2003,label:musee de france,
4610202,68383015,Musée Champollion - Les Ecriture du Monde,,Impasse Champollion,46100,Figeac,France,fr,open,44.60972575,2.0344712177978126,,,,2010,payant:39718;gratuit:9185;label-date:01/02/2003,label:musee de france,
4624001,,Musée d'Art Sacré,,,,ROCAMADOUR,France,fr,closed,,,,,,2010,payant:0;gratuit:0;label-date:01/02/2003,label:musee de france,
4630901,1074571594,Musée de l'Automate,,Place de l'Abbaye,46200,Souillac,France,fr,open,44.8936695,1.4768774,,,,2010,payant:18684;gratuit:3856;label-date:01/02/2003,label:musee de france,
8106901,5168791210,Musée Charles Portal - Histoire et Patrimoine,,Rue Saint-Michel,81170,Cordes-sur-Ciel,France,fr,open,44.0637595,1.9490171,,,,2010,payant:309;gratuit:232;label-date:01/02/2003,label:musee de france,
8122001,,Musée du Pays Rabastinois,,,,RABASTENS,France,fr,open,,,,,,2010,payant:851;gratuit:4382;label-date:01/02/2003,label:musee de france,
8211202,59127408,Musée des arts et traditions populaires,1,Rue de l'Abbaye,82200,Moissac,France,fr,open,44.10574095,1.0849678812128933,,,,2010,payant:13039;gratuit:0;label-date:01/02/2003,label:musee de france,
8212102,127805191,Musée Ingres,,Rue Marie Lafon,82000,Montauban,France,fr,open,44.01688865,1.3514607739557976,,,,2010,payant:17019;gratuit:25333;label-date:06/01/2002,label:musee de france,
5903601,107548567,Musée d'Histoire et d'Archéologie,,Allée Chanoine Biévelet,59570,Bavay,France,fr,closed,50.298608,3.79103261466165,,,,2010,payant:0;gratuit:0;label-date:01/02/2003,label:musee de france,
5952601,2060779461,Musée Municipal,,Grand'Place,59230,Saint-Amand-les-Eaux,France,fr,open,50.4489646,3.4287208,,,,2010,payant:0;gratuit:6707;label-date:01/02/2003,label:musee de france,
5959901,2268074792,Musée d'Art et d'Industrie,,Avenue de la Marne,59200,Tourcoing,France,fr,open,50.7119447,3.1550369,,,,2010,payant:8058;gratuit:16117;label-date:01/02/2003,label:musee de france,
6210801,,Musée Communautaire Opale-Sud,,,,BERCK-SUR-MER,France,fr,open,,,,,,2010,payant:2663;gratuit:5694;label-date:05/04/2002,label:musee de france,
6211901,8264025342,Musée Régional d'Ethnologie,457,Cours Promenade Kennedy,62700,Bruay-la-Buissière,France,fr,open,50.4787367,2.5372076,,,,2010,payant:0;gratuit:2776;label-date:01/02/2003,label:musee de france,
6216004,18822516,Muséum d'Histoire Naturelle,,Boulogne Sur Mer,C1187AAN,Buenos Aires,Argentina,ar,closed,-34.603178,-58.4063017,,,,2010,payant:0;gratuit:0;label-date:01/02/2003,label:musee de france,
6219301,,Musée des Beaux-Arts et de la Dentelle,,,,CALAIS,France,fr,open,,,,,,2010,payant:4882;gratuit:6542;label-date:01/02/2003,label:musee de france,
6241301,110215831,Musée d'Histoire et d'Archéologie,,Rue du Musée,62440,Harnes,France,fr,open,50.447528,2.9107465,,,,2010,payant:0;gratuit:1106;label-date:01/02/2003,label:musee de france,
6276701,204398267,Musée Municipal Bruno Danvin,,Rue Oscar Ricque,62130,Saint-Pol-sur-Ternoise,France,fr,open,50.381508,2.337263799999996,,,,2010,payant:0;gratuit:3659;label-date:01/02/2003,label:musee de france,
1402101,128118203,Musée du Débarquement,,Cale Maréchal Montgomery,14117,Arromanches-les-Bains,France,fr,open,49.340228800000006,-0.6204979707551881,,,,2010,payant:318297;gratuit:11260;label-date:01/02/2003,label:musee de france,
1411803,6041330527,Musée d'Initiation à la Nature,,Rue du Carel,14000,Caen,France,fr,open,49.1801396,-0.3735491,,,,2010,payant:0;gratuit:3043;label-date:01/02/2003,label:musee de france,
1437001,8193839563,Musée de la Mine,,Rue de la Fosse Frandemiche,14330,Le Molay-Littry,France,fr,open,49.2426092,-0.8788501,,,,2010,payant:5537;gratuit:56;label-date:01/02/2003,label:musee de france,
1471501,86513731,Musée de Trouville - Villa Montebello,,Rue du Général Leclerc,14360,Trouville-sur-Mer,France,fr,open,49.3713839,0.08430517462516637,,,,2010,payant:3219;gratuit:9138;label-date:01/02/2003,label:musee de france,
5050203,,"Musée du Bocage Normand, ferme du bois Jugan",,,,SAINT-LO,France,fr,open,,,,,,2010,payant:2670;gratuit:2717;label-date:01/02/2003,label:musee de france,
5052501,,Musée du Granit,,,,SAINT-MICHEL-DE-MONTJOIE,France,fr,open,,,,,,2010,payant:1250;gratuit:496;label-date:01/02/2003,label:musee de france,
5060101,,Musée du Château,,,,TORIGNI-SUR-VIRE,France,fr,open,,,,,,2010,payant:100;gratuit:700;label-date:01/02/2003,label:musee de france,
2722901,,Musée de l'Ancien Evêché,,,,EVREUX,France,fr,open,,,,,,2010,payant:0;gratuit:18051;label-date:01/02/2003,label:musee de france,
2718301,581537349,Musée Artisanal et Industriel d'Instruments à Vent,,D 833,27750,La Couture-Boussey,France,fr,open,48.897542200000004,1.4077339068504382,,,,2010,payant:3927;gratuit:1497;label-date:01/02/2003,label:musee de france,
7605701,,Musée Municipal,,,,BARENTIN,France,fr,closed,,,,,,2010,payant:0;gratuit:0;label-date:01/02/2003,label:musee de france,
7621701,387891590,Château-Musée de Dieppe,,Rue de Sygogne,76200,Dieppe,France,fr,open,49.924208899999996,1.0707435133141803,,,,2010,payant:57825;gratuit:3318;label-date:25/05/2002,label:musee de france,
7635105,10067814,La Maison de l'Armateur,3,Quai de l'Île,76600,Le Havre,France,fr,open,49.4869259,0.11277154992473493,,,,2010,payant:6629;gratuit:6686;label-date:01/02/2003,label:musee de france,
7635102,,Abbaye de Graville - Musée du Prieuré de Graville,,,,LE HAVRE,France,fr,open,,,,,,2010,payant:2536;gratuit:4177;label-date:01/02/2003,label:musee de france,
7641201,,Musée des Traditions et Arts Normands,,,,MARTAINVILLE-EPREVILLE,France,fr,open,,,,,,2010,payant:8773;gratuit:9324;label-date:01/02/2003,label:musee de france,
7647401,121934820,Musée Industriel de la Corderie Vallois,185,Route de Dieppe,76960,Notre-Dame-de-Bondeville,France,fr,open,49.4951715,1.0479190217391308,,,,2010,payant:2186;gratuit:6310;label-date:01/02/2003,label:musee de france,
7654002,64717877,MUNAE - Musée National de l'Education,6,Rue de Bihorel,76000,Rouen,France,fr,open,49.44841715,1.102956596817131,,,,2010,payant:1842;gratuit:10091;label-date:06/01/2002,label:musee de france,
7654003,64181527,Musée Flaubert et d'Histoire de la Médecine,,Esplanade Marcel Duchamp,76000,Rouen,France,fr,open,49.44473675,1.0945818804156213,,,,2010,payant:4327;gratuit:5250;label-date:01/02/2003,label:musee de france,
7654005,64181527,Musée des Beaux-Arts,,Esplanade Marcel Duchamp,76000,Rouen,France,fr,open,49.44473675,1.0945818804156213,,,,2010,payant:167913;gratuit:130121;label-date:06/01/2002,label:musee de france,
4900708,8142950,Muséum des Sciences Naturelles,43,Rue Jules Guitton,49000,Angers,France,fr,open,47.473709,-0.5462840642857151,,,,2010,payant:3124;gratuit:13944;label-date:01/02/2003,label:musee de france,
4900703,624532610,Musée Jean Lurcat et de la Tapisserie Contemporaine,,Rue Gay-Lussac,49035,Angers,France,fr,open,47.4780639,-0.5575814,,,,2010,payant:13805;gratuit:37714;label-date:01/02/2003,label:musee de france,
4909901,1782756206,Musée d'Art et d'Histoire,,Avenue de l’Abreuvoir,49300,Cholet,France,fr,open,47.0583944,-0.8807128,,,,2010,payant:1572;gratuit:14419;label-date:06/04/2002,label:musee de france,
4909904,1301987143,Musée du Textile,,Avenue Marcel Cauchy,49300,Cholet,France,fr,open,47.0681455,-0.8982604,,,,2010,payant:6252;gratuit:6464;label-date:06/04/2002,label:musee de france,
5300301,277287315,Musée des Tisserands Mayennais,,Place Billard de Veaux,53300,Ambrières-les-Vallées,France,fr,open,48.403429,-0.6308390478723407,,,,2010,payant:650;gratuit:150;label-date:01/02/2003,label:musee de france,
5309601,,Musée Municipal,,,,ERNEE,France,fr,open,,,,,,2010,payant:0;gratuit:0;label-date:01/02/2003,label:musee de france,
5312201,8292313,Musée Archéologique Départemental de Jublains,,Rue de la Libération,53160,Jublains,France,fr,open,48.2545411,-0.4975843742117564,,,,2010,payant:7563;gratuit:19101;label-date:18/07/2002,label:musee de france,
5314701,1934021701,Musée du Château de Mayenne,,Quai Carnot,53100,Mayenne,France,fr,open,48.3028395,-0.6179027,,,,2010,payant:11664;gratuit:8504;label-date:01/02/2003,label:musee de france,
8508701,620726971,Centre Minier de Faymoreau,,Rue de la Cour,85240,Faymoreau,France,fr,open,46.55511285,-0.6311954483215672,,,,2010,payant:17601;gratuit:8994;label-date:01/02/2003,label:musee de france,
8501201,,Ecomusée du Marais Breton Vendéen,,,,LA BARRE-DE-MONTS,France,fr,open,,,,,,2010,payant:21994;gratuit:9202;label-date:01/02/2003,label:musee de france,
8515401,,Musée Clemenceau et de Lattre-de-Tassigny,,,,MOUILLERON-EN-PAREDS,France,fr,open,,,,,,2010,payant:1571;gratuit:4605;label-date:06/01/2002,label:musee de france,
8522601,,Musée La Bourrine du Bois-Juquaud,,,,SAINT-HILAIRE-DE-RIEZ,France,fr,open,,,,,,2010,payant:11794;gratuit:7672;label-date:28/07/2004,label:musee de france,
8528401,,Musée Milcendeau Jean-Yole,,,,SOULLANS,France,fr,open,,,,,,2010,payant:1632;gratuit:2377;label-date:12/12/2002,label:musee de france,
0216801,5425520722,Musée Jean de la Fontaine,,Rue Jean De La Fontaine,02400,Château-Thierry,France,fr,open,49.0467222,3.4001157,,,,2010,payant:15963;gratuit:0;label-date:01/02/2003,label:musee de france,
0238101,4239502337,Musée - Centre de Documentation Alfred Desmasures,,Impasse du Château,02500,Hirson,France,fr,open,49.9260179,4.0792224,,,,2010,payant:0;gratuit:1500;label-date:01/02/2003,label:musee de france,
0269102,,Musée des Beaux-Arts Antoine Lecuyer,,,,SAINT-QUENTIN,France,fr,open,,,,,,2010,payant:4209;gratuit:7248;label-date:01/02/2003,label:musee de france,
0273801,173604154,Musée de la Résistance et de la Déportation,,Rue Gouillard Marcel,02700,Tergnier,France,fr,open,49.6585145,3.3158500983088235,,,,2010,payant:19013;gratuit:0;label-date:01/02/2003,label:musee de france,
6002901,7846097625,Musée de la Céramique Architecturale,,Avenue du Maréchal Foch,60390,Auneuil,France,fr,closed,49.3719838,1.9903065,,,,2010,payant:0;gratuit:0;label-date:01/02/2003,label:musee de france,
6015901,1789074264,Musée du Château de Compiègne,,Place du Général de Gaulle,60200,Compiègne,France,fr,open,49.4188454,2.830196,,,,2010,payant:36512;gratuit:51498;label-date:06/01/2002,label:musee de france,
8071601,,Musée Départemental de l'Abbaye de Saint-Riquier,,,,ABBEVILLE,France,fr,open,,,,,,2010,payant:0;gratuit:31331;label-date:01/02/2003,label:musee de france,
1730006,119814128,Muséum d'Histoire Naturelle,,Rue Albert 1er,17000,La Rochelle,France,fr,open,46.164811,-1.1511445969910366,,,,2010,payant:9254;gratuit:32422;label-date:06/01/2002,label:musee de france,
1729904,90808269,Musée National de la Marine,,Rue Amiral Meyer,17300,Rochefort,France,fr,open,45.9423,-0.9649527857142841,,,,2010,payant:22732;gratuit:18461;label-date:06/01/2002,label:musee de france,
1741504,136636772,Musée Dupuy-Mestreau,,Rue Monconseil,17100,Saintes,France,fr,open,45.74313975,-0.6340019161865896,,,,2010,payant:1196;gratuit:2479;label-date:01/02/2003,label:musee de france,
1734701,89447700,Musée Municipal des Cordeliers,9,Rue Régnaud,17400,Saint-Jean-d'Angély,France,fr,open,45.94263465,-0.5242085085910493,,,,2010,payant:101;gratuit:5188;label-date:01/02/2003,label:musee de france,
7919104,795257552,Musée Bernard d’Agesci,26,Avenue de Limoges,79000,Niort,France,fr,open,46.3210536,-0.454416,,,,2010,payant:3048;gratuit:9055;label-date:01/02/2003,label:musee de france,
7920201,7281748506,Musée d'Art et d'Histoire Georges Turpin,1,Rue de la Vau Saint-Jacques,79200,Parthenay,France,fr,open,46.6519796,-0.2493419,,,,2010,payant:0;gratuit:9392;label-date:01/02/2003,label:musee de france,
7932901,64211578,Musée Henri Barré,,Rue du Bac,79100,Thouars,France,fr,open,46.97362875,-0.21811853555865957,,,,2010,payant:365;gratuit:1212;label-date:01/02/2003,label:musee de france,
8606602,2541482016,Musée Municipal de l'Hôtel de Sully,,Rue du Vieux Palais,86100,Châtellerault,France,fr,closed,46.8158293,0.5419934,,,,2010,payant:0;gratuit:0;label-date:01/02/2003,label:musee de france,
0600401,68051130,Musée Picasso,,Place Mariejol,06600,Antibes,France,fr,open,43.58070895,7.128259617884984,,,,2010,payant:83158;gratuit:49810;label-date:01/02/2003,label:musee de france,
0603001,67152119,Musée Bonnard,,Rue des Prés,06110,Le Cannet,France,fr,closed,43.576493400000004,7.019928487377124,,,,2010,payant:0;gratuit:0;label-date:06/12/2006,label:musee de france,
0608804,708311359,Musée d'Art Naïf Anatole Jakovsky,,Avenue du Rond-Point,06206,Nice,France,fr,open,43.685953749999996,7.232618735926904,,,,2010,payant:0;gratuit:21327;label-date:01/02/2003,label:musee de france,
0608811,140067117,Musée National Marc Chagall,36,Avenue du Docteur Ménard,06000,Nice,France,fr,open,43.709136,7.269527046511632,,,,2010,payant:100268;gratuit:50708;label-date:06/01/2002,label:musee de france,
1300104,34505703,Musée Granet,,Rue Cardinale,13626,Aix-en-Provence,France,fr,open,43.5254678,5.4526102,,,,2010,payant:75975;gratuit:58025;label-date:01/02/2003,label:musee de france,
1300403,1451755,Musée Réattu,12,Rue du Grand Prieuré,13200,Arles,France,fr,open,43.67927215,4.6275001822730655,,,,2010,payant:9898;gratuit:26393;label-date:01/02/2003,label:musee de france,
1305001,53278966,Musée Folklorique du Vieux Lambesc,4,Rue du Jas,13410,Lambesc,France,fr,open,43.651854,5.2617514637076,,,,2010,payant:0;gratuit:3332;label-date:01/02/2003,label:musee de france,
1301104,,Fondation Louis Jou,,,,LES-BAUX-DE-PROVENCE,France,fr,open,,,,,,2010,payant:800;gratuit:1600;label-date:01/02/2003,label:musee de france,
1305201,747139074,Musée Frédéric Mistral,,Avenue Lamartine,13910,Maillane,France,fr,open,43.8314021,4.7826929,,,,2010,payant:1645;gratuit:4264;label-date:01/02/2003,label:musee de france,
1305504,178808268,Musée des Docks Romains,,Place Vivaux,13002,Marseille,France,fr,open,43.29679,5.368048871902269,,,,2010,payant:2729;gratuit:2884;label-date:01/02/2003,label:musee de france,
1310001,6214739885,Musée des Alpilles,,Rue du Parage,13210,Saint-Rémy-de-Provence,France,fr,open,43.7894582,4.8308012,,,,2010,payant:2554;gratuit:6020;label-date:01/02/2003,label:musee de france,
8300201,,Musée des tourneurs sur Bois,,,,AIGUINES,France,fr,closed,,,,,,2010,payant:0;gratuit:0;label-date:01/02/2003,label:musee de france,
8305002,,Musée de la Société d’Etudes Scientifiques et Achéologiques,,,,DRAGUIGNAN,France,fr,closed,,,,,,2010,payant:0;gratuit:0;label-date:01/02/2003,label:musee de france,
8311801,130473371,Musée Archéologique,,Rue de la Vieille Église,83700,Saint-Raphaël,France,fr,open,43.42600365,6.769243065966667,,,,2010,payant:0;gratuit:17854;label-date:01/02/2003,label:musee de france,
8313703,2196651226,Musée d'Art et d'Archéologie,113,Boulevard Général Leclerc,83000,Toulon,France,fr,open,43.1263031,5.9272107,,,,2010,payant:0;gratuit:17400;label-date:01/02/2003,label:musee de france,
8313704,842473302,Musée National de la Marine de Toulon,,Sortie de l'Arsenal,83800,Toulon,France,fr,open,43.12182215,5.928354983793765,,,,2010,payant:19812;gratuit:31090;label-date:06/01/2002,label:musee de france,
8400301,1933370178,Musée d'Apt,,Place du Postel,84400,Apt,France,fr,open,43.8757289,5.3979308,,,,2010,payant:2052;gratuit:4557;label-date:01/02/2003,label:musee de france,
8403102,90931574,Musée Lapidaire et Archéologie,,Rue Eysseric et Pascal,84200,Carpentras,France,fr,closed,44.05426295,5.045272504588607,,,,2010,payant:0;gratuit:0;label-date:01/02/2003,label:musee de france,
8403103,1802571381,Musée Comtadin-Duplessis,,Rue du Collège,84200,Carpentras,France,fr,open,44.054376,5.046289,,,,2010,payant:303;gratuit:2089;label-date:01/02/2003,label:musee de france,
8403503,5111377213,Musée Jouve,,Rue Hébraïque,84300,Cavaillon,France,fr,closed,43.8371707,5.0385983,,,,2010,payant:0;gratuit:0;label-date:01/02/2003,label:musee de france,
8406801,,Musée Philippe de Girard,,,,LOUMARIN - CADENET,France,fr,closed,,,,,,2010,payant:0;gratuit:0;label-date:01/02/2003,label:musee de france,
0105301,,Musée du Brou,,,,BOURG-EN-BRESSE,France,fr,open,,,,,,2010,payant:50134;gratuit:23894;label-date:01/02/2003,label:musee de france,
0119201,1357668479,Musée Archéologique,,Place de l'Église,01580,Izernore,France,fr,open,46.220134,5.5548124,,,,2010,payant:295;gratuit:430;label-date:01/02/2003,label:musee de france,
0716801,271465,Cité de Préhistoire,,,07150,Orgnac-l'Aven,France,fr,open,44.3055791,4.4333406,,,,2010,payant:94664;gratuit:4428;label-date:01/02/2003,label:musee de france,
0718601,8313178925,Musée de la terre ardéchoise,,Voie Douce de la Payre,07000,Privas,France,fr,closed,44.7196687,4.6011043,,,,2010,payant:0;gratuit:0;label-date:01/02/2003,label:musee de france,
0731301,3801510568,Musée de la Batellerie du Rhône,,Rue du Musée,07340,Serrières,France,fr,open,45.3139177,4.76996,,,,2010,payant:932;gratuit:295;label-date:01/02/2003,label:musee de france,
7422501,7056652026,"Notre histoire, Musée de Rumilly",,Place de la Manufacture,74150,Rumilly,France,fr,closed,45.8619761,5.9480724,,,,2010,payant:0;gratuit:0;label-date:01/02/2003,label:musee de france,
7428102,5537445278,Musée du Chablais,2,Rue Michaud,74200,Thonon-les-Bains,France,fr,open,46.3735929,6.4782107,,,,2010,payant:1644;gratuit:1929;label-date:01/02/2003,label:musee de france,
3818508,35081222,Musée de la Résistance de la Déportation de l'Isère,,Rue Hébert,38000,Grenoble,France,fr,open,45.19011945,5.735202775033237,,,,2010,payant:0;gratuit:33007;label-date:01/02/2003,label:musee de france,
3800501,171257717,Conservatoire - Musée des Industries Hydroélectriques,,Le Verney,38114,Vaujany,France,fr,open,45.1463919,6.049412773128473,,,,2010,payant:85;gratuit:9409;label-date:01/02/2003,label:musee de france,
3854401,3034478021,Musée-Cloître Saint-André-Le-Bas,,Avenue de la Libération,87240,Ambazac,France,fr,open,45.9575558,1.4001491,,,,2010,payant:1082;gratuit:2688;label-date:01/02/2003,label:musee de france,
3856201,1249592087,Musée Départemental de la Révolution Française,,Parvis du Château,38220,Vizille,France,fr,open,45.0757435,5.7735647,,,,2010,payant:5000;gratuit:49584;label-date:01/02/2003,label:musee de france,
4205202,2959298116,Musée de la Soierie,,Rue Jean Morel,42190,Charlieu,France,fr,open,46.159575,4.1712806,,,,2010,payant:4716;gratuit:1700;label-date:01/02/2003,label:musee de france,
4214702,7419064520,Musée de la Diana,5,Rue Florimond Robertet,42600,Montbrison,France,fr,open,45.6055914,4.0668891,,,,2010,payant:1238;gratuit:0;label-date:01/02/2003,label:musee de france,
4218701,,Musée des Beaux-Arts et d'Archéologie J. Dechelette,,,,ROANNE,France,fr,open,,,,,,2010,payant:2364;gratuit:11111;label-date:01/02/2003,label:musee de france,
4221802,63340891,Musée d'Art et d'Industrie,2,Place Louis Comte,42000,Saint-Étienne,France,fr,open,45.4314634,4.386849541030928,,,,2010,payant:20486;gratuit:19628;label-date:01/02/2003,label:musee de france,
4221801,1810314455,Musée d'Art Moderne et Contemporain,,Rue Saint-François,42000,Saint-Étienne,France,fr,open,45.435276,4.3888032,,,,2010,payant:27348;gratuit:23231;label-date:01/02/2003,label:musee de france,
4221901,224220352,Château de la Bastie d'Urfé,,Route de la Batie D'urfe,42130,Saint-Étienne-le-Molard,France,fr,open,45.72759345,4.078354343331679,,,,2010,payant:10999;gratuit:14558;label-date:01/02/2003,label:musee de france,
4223001,7419064519,Musée Municipal,,Place de la Madeleine,42260,Saint-Germain-Laval,France,fr,open,45.8301288,4.0106,,,,2010,payant:0;gratuit:0;label-date:01/02/2003,label:musee de france,
6938701,26131828,Centre d'Histoire de la Résistance et de la Déportation,,Rue Étienne Rognon,69007,Lyon,France,fr,open,45.7464306,4.8359519,,,,2010,payant:16423;gratuit:40653;label-date:01/02/2003,label:musee de france,
6938901,125076993,Musée des Sapeurs-Pompiers de Lyon,,Avenue de Lanessan,69009,Lyon,France,fr,open,45.791253499999996,4.798525641909759,,,,2010,payant:3107;gratuit:2701;label-date:10/05/2005,label:musee de france,
7300802,79376440,Musée Archéologique,,Boulevard des Côtes,73100,Aix-les-Bains,France,fr,closed,45.6925521,5.915906815022636,,,,2010,payant:0;gratuit:0;label-date:01/02/2003,label:musee de france,
7306502,55112807,Musée Savoisien,,Place Métropole,73000,Chambéry,France,fr,open,45.56549205,5.922931048911965,,,,2010,payant:8140;gratuit:11918;label-date:06/01/2002,label:musee de france,
6733901,3451539391,Musée de la Poterie,1-13,Rue du Terrain,67116,Reichstett,France,fr,open,48.6480723,7.7520884,,,,2010,payant:2048;gratuit:620;label-date:01/02/2003,label:musee de france,
6718002,606195509,Musée Alsacien,,Place Joseph Thierry,67500,Haguenau,France,fr,open,48.8147979,7.7893977,,,,2010,payant:1392;gratuit:1128;label-date:01/02/2003,label:musee de france,
6748202,239825772,Musée Archéologique,,Rue du Bain-aux-Roses,67065,Strasbourg,France,fr,open,48.5808521,7.7525857,,,,2010,payant:6761;gratuit:31257;label-date:06/01/2002,label:musee de france,
6748203,239830896,Musée des Beaux-Arts,,Place du Marché aux Poissons,67065,Strasbourg,France,fr,open,48.5806606,7.7521404,,,,2010,payant:8491;gratuit:37139;label-date:01/02/2003,label:musee de france,
6800401,5144762817,Musée Sundgauvien d'Altkirch,38,Rue de Luppach,68480,Vieux-Ferrette,France,fr,open,47.5040397,7.3041592,,,,2010,payant:2529;gratuit:1538;label-date:01/02/2003,label:musee de france,
6822405,4551159534,Cité du Train,,Rue Alfred de Glehn,68200,Mulhouse,France,fr,open,47.7500026,7.2938678,,,,2010,payant:76999;gratuit:7245;label-date:18/11/2002,label:musee de france,
2405501,4119820065,Château de Bourdeilles,,Rue du Vieux Moulin,24310,Bourdeilles,France,fr,open,45.3222039,0.5867267,,,,2010,payant:22732;gratuit:0;label-date:01/02/2003,label:musee de france,
2432202,75346425,Musée Militaire - Souvenir du Périgord,,Rue 26e Régiment d'Infanterie,24000,Périgueux,France,fr,open,45.179478599999996,0.7132096320585205,,,,2010,payant:1736;gratuit:675;label-date:01/02/2003,label:musee de france,
2458401,5825837320,Musée d'Art et Traditions Populaires,,Rue Gambetta,24610,Villefranche-de-Lonchat,France,fr,open,44.9480862,0.0577711,,,,2010,payant:0;gratuit:1100;label-date:01/02/2003,label:musee de france,
3306305,154772662,Muséum d'Histoire Naturelle de Bordeaux,,Place Bardineau,33000,Bordeaux,France,fr,open,44.848504500000004,-0.5799899525187916,,,,2010,payant:1016;gratuit:9830;label-date:01/02/2003,label:musee de france,
3324301,,Musée des Beaux-Arts et d'Archéologie,,,,LIBOURNE,France,fr,open,,,,,,2010,payant:0;gratuit:5058;label-date:01/02/2003,label:musee de france,
4004601,1508590127,Musée Historique de l'Hydravion,,Rue Louis Bréguet,40600,Biscarrosse,France,fr,open,44.3892176,-1.1816658,,,,2010,payant:13829;gratuit:4074;label-date:01/02/2003,label:musee de france,
4012001,250016053,Musée Archéologique,,Route de l'Abbaye,40300,Hastingues,France,fr,open,43.527247,-1.122068373792949,,,,2010,payant:3883;gratuit:5955;label-date:01/02/2003,label:musee de france,
4019401,102618114,Musée de la Chalosse,480,Chemin du Sala,40380,Montfort-en-Chalosse,France,fr,open,43.71570595,-0.8337172286260439,,,,2010,payant:8541;gratuit:2344;label-date:01/02/2003,label:musee de france,
4024601,253999961,Ecomusée de la Grande Lande,,Route de la Gare,40630,Sabres,France,fr,open,44.14936935,-0.7468561714204113,,,,2010,payant:68584;gratuit:10394;label-date:01/02/2003,label:musee de france,
4716701,3110116210,Musée du Liège et du Bouchon,,Rue du Puits,47170,Mézin,France,fr,open,44.0564056,0.2561249,,,,2010,payant:4884;gratuit:824;label-date:05/07/2006,label:musee de france,
4732301,,Musée Municipal (Moulin de Gajac),,,,VILLENEUVE-SUR-LOT,France,fr,open,,,,,,2010,payant:4146;gratuit:3899;label-date:01/02/2003,label:musee de france,
6444501,,Musée Municipal des Beaux-Arts,,,,PAU,France,fr,open,,,,,,2010,payant:32496;gratuit:0;label-date:01/02/2003,label:musee de france,
0318501,2511432939,Musée des Musiques Populaires - MuPop,,Rue Notre-Dame,03100,Montluçon,France,fr,open,46.3408843,2.6055312,,,,2010,payant:1644;gratuit:2703;label-date:01/02/2003,label:musee de france,
0319001,77184178,Musée Anne de Beaujeu,,Rue des Fausses Braies,03000,Moulins,France,fr,open,46.56717035,3.3300616836759867,,,,2010,payant:13236;gratuit:3154;label-date:01/02/2003,label:musee de france,
0319002,,Centre National du Costume de Scène et de la Scénographie,,,,MOULINS,France,fr,open,,,,,,2010,payant:55995;gratuit:12610;label-date:23/10/2009,label:musee de france,
0327501,38196164,Musée Municipal de Souvigny,,Rue de Vouzon,41600,Chaon,France,fr,open,47.609893150000005,2.165856899999999,,,,2010,payant:8304;gratuit:3100;label-date:01/02/2003,label:musee de france,
6343001,161471210,Musée Municipal de la Coutellerie,,Rue de la Coutellerie,63300,Thiers,France,fr,open,45.852432,3.54815385,,,,2010,payant:22518;gratuit:4949;label-date:01/02/2003,label:musee de france,
6347001,300341262,Musée Municipal Marcel Sahut,,Rue des Écoles,63530,Volvic,France,fr,closed,45.872425,3.038987176470588,,,,2010,payant:0;gratuit:0;label-date:01/02/2003,label:musee de france,
2105404,1681385,Musée E.J Marey,,Place des Halles,21200,Beaune,France,fr,closed,47.0221265,4.836843691477009,,,,2010,payant:0;gratuit:0;label-date:01/02/2003,label:musee de france,
2111401,272998829,Musée de la Sidérurgie Grande Forge,,D 905,21500,Buffon,France,fr,closed,47.64955205,4.261698831211838,,,,2010,payant:0;gratuit:0;label-date:01/02/2003,label:musee de france,
2142502,,Musée des Beaux-Arts,,,,MONTBARD,France,fr,open,,,,,,2010,payant:0;gratuit:621;label-date:01/02/2003,label:musee de france,
5808601,153863024,Musée de la Loire,,Place de la Résistance,58200,Cosne-Cours-sur-Loire,France,fr,open,47.410323,2.923430002941176,,,,2010,payant:2288;gratuit:4086;label-date:01/02/2003,label:musee de france,
7101401,7419064532,Musée Verger Tarin,,Rue des Marbres,71400,Autun,France,fr,closed,46.9490737,4.3029239,,,,2010,payant:0;gratuit:0;label-date:01/02/2003,label:musee de france,
7101404,223582725,Museum d'Histoire Naturelle Jacques de La Comble,,Allée Jacques de la Comble,71400,Autun,France,fr,open,46.9499423,4.3172422,,,,2010,payant:2195;gratuit:2374;label-date:06/01/2002,label:musee de france,
7104001,153902869,Musée de la Mine,,Rue du Bois Clair,71450,Blanzy,France,fr,open,46.701234,4.382382640756303,,,,2010,payant:10337;gratuit:1293;label-date:01/02/2003,label:musee de france,
7113701,142255492,Musée d'Art et d'Archéologie,,Place Notre-Dame,60300,Senlis,France,fr,open,49.2064225,2.5866285006288354,,,,2010,payant:111190;gratuit:41990;label-date:01/02/2003,label:musee de france,
7126301,372835947,"""L'Atelier d'un Journal"""" de Louhans - Musée Municipal""",,Rue du Musée,71440,Thurey,France,fr,open,46.7430242,5.1227339,,,,2010,payant:2029;gratuit:3550;label-date:01/02/2003,label:musee de france,
7134201,121382168,Musée Eucharistique du Hiéron,13,Rue de la Paix,71600,Paray-le-Monial,France,fr,open,46.45203975,4.12306320795283,,,,2010,payant:4004;gratuit:2541;label-date:01/02/2003,label:musee de france,
7154301,7419064527,Hôtel Dieu - Musée Greuze,,Rue de l'Hôpital,71700,Tournus,France,fr,open,46.5619544,4.9109248,,,,2010,payant:11058;gratuit:2185;label-date:01/02/2003,label:musee de france,
8902401,62627118,Muséum - Maison de l'Eau,,Rue Jeanne d'Arc,89000,Auxerre,France,fr,open,47.7970869,3.5618150624042473,,,,2010,payant:0;gratuit:17207;label-date:01/02/2003,label:musee de france,
8902402,62636018,Musée d'Art et d'Histoire,,Rue Cochois,89000,Auxerre,France,fr,open,47.8005184,3.5725156901166075,,,,2010,payant:6924;gratuit:22429;label-date:01/02/2003,label:musee de france,
8902403,1256497741,Musée Leblanc-Duvernois,,Rue Gaston Gallimard,89600,Saint-Florentin,France,fr,open,48.0013166,3.7283151,,,,2010,payant:0;gratuit:0;label-date:01/02/2003,label:musee de france,
8902501,3050054378,Musée de l'Avallonnais Jean Després,5,Rue du Collège,89200,Avallon,France,fr,open,47.4869881,3.9065509,,,,2010,payant:0;gratuit:6875;label-date:01/02/2003,label:musee de france,
8938701,8196077887,Musée Muncipal,135,Rue des Déportés et de la Résistance,89100,Sens,France,fr,open,48.1975028,3.284393,,,,2010,payant:4530;gratuit:37114;label-date:01/02/2003,label:musee de france,
2903901,3986935,Musée de la Pêche,,Rue Militaire,29900,Concarneau,France,fr,open,47.87218475,-3.916013041508858,,,,2010,payant:28149;gratuit:4427;label-date:01/02/2003,label:musee de france,
2915502,2139061354,Musée des Phares et Balises,,Route du Phare,,Lampaul,France,fr,open,48.4594493,-5.1294058,,,,2010,payant:12479;gratuit:4077;label-date:01/02/2003,label:musee de france,
3523802,30437810,Musée des Beaux-Arts,20,Quai Émile Zola,35000,Rennes,France,fr,open,48.1096227,-1.6749412386363636,,,,2010,payant:22031;gratuit:45479;label-date:06/01/2002,label:musee de france,
