id,osm_id,name,number,street,postal_code,city,country,country_code,status,lat,lon,website,phone,fax,annee,stats,tags,description
0126901,441572672,Musée de la Résistance et de la Déportation,12,Cote Levet,01640,Jujurieux,France,fr,open,46.042453949999995,5.408558981807003,,,,2016,payant:786;gratuit:244;label-date:01/02/2003,label:musee de france,
0113701,700244363,Musée Départemental du Revermont,,Rue Principale,01370,Bourg-en-Bresse,France,fr,open,46.30032775,5.389046761156977,,,,2016,payant:1704;gratuit:7946;label-date:01/02/2003,label:musee de france,
0733401,5766476644,Musée des Vans,,Rue du Couvent,07140,Les Vans,France,fr,open,44.4044775,4.1345103,,,,2016,payant:453;gratuit:912;label-date:01/02/2003,label:musee de france,
0732401,2793855499,Musée du Rhône,,,07270,Lamastre,France,fr,open,44.9980175,4.6108622,,,,2016,payant:14892;gratuit:11091;label-date:01/02/2003,label:musee de france,
1516801,6838400485,Ecomusée de Margeride-Haute-Auvergne,,,15320,Ruynes-en-Margeride,France,fr,open,44.9961982,3.207524,,,,2016,payant:9065;gratuit:249;label-date:01/02/2003,label:musee de france,
1518701,982070993,Musée de la Haute Auvergne,,Place d'Armes,15100,Saint-Flour,France,fr,open,45.0330738,3.0948739,,,,2016,payant:1700;gratuit:3564;label-date:01/02/2003,label:musee de france,
2611301,145189774,Musée d'Histoire et d'Archéologie,2,Rue Noé,56000,Vannes,France,fr,open,47.6568685,-2.7579838224637703,,,,2016,payant:579;gratuit:4843;label-date:01/02/2003,label:musee de france,
2628101,61078917,Musée International de la Chaussure,,Rue Saint-Just,26100,Romans-sur-Isère,France,fr,open,45.04446045,5.054248261970345,,,,2016,payant:15977;gratuit:13073;label-date:01/02/2003,label:musee de france,
2636201,,Musée des Beaux-Arts,,,,VALENCE,France,fr,open,,,,,,2016,payant:9997;gratuit:31458;label-date:01/02/2003,label:musee de france,
7428102,5537445278,Musée du Chablais,2,Rue Michaud,74200,Thonon-les-Bains,France,fr,open,46.3735929,6.4782107,,,,2016,payant:2045;gratuit:2851;label-date:01/02/2003,label:musee de france,
3800601,291316822,Musée Jadis Allevard,,Musée Jadis Allevard,38580,Allevard,France,fr,open,45.3924546,6.0758962,,,,2016,payant:1532;gratuit:1787;label-date:20/12/2005,label:musee de france,
3801201,875500989,Musée Gallo-Romain,16,Kielenstraat,3700,Tongeren,België / Belgique / Belgien,be,open,50.7814543,5.465715540741746,,,,2016,payant:4939;gratuit:1983;label-date:01/02/2003,label:musee de france,
3826901,1654912102,Musée Matheysin,,Rue Colonel Escallon,38350,La Mure,France,fr,open,44.9046933,5.7845917,,,,2016,payant:615;gratuit:1621;label-date:01/02/2003,label:musee de france,
3854401,3034478021,Musée-Cloître Saint-André-Le-Bas,,Avenue de la Libération,87240,Ambazac,France,fr,open,45.9575558,1.4001491,,,,2016,payant:3568;gratuit:3788;label-date:01/02/2003,label:musee de france,
3854402,135880564,Musée Lapidaire Saint-Pierre,,Rue Delorme,38200,Vienne,France,fr,open,45.522842999999995,4.871060720000006,,,,2016,payant:3162;gratuit:6416;label-date:01/02/2003,label:musee de france,
3856201,1249592087,Musée Départemental de la Révolution Française,,Parvis du Château,38220,Vizille,France,fr,open,45.0757435,5.7735647,,,,2016,payant:4748;gratuit:53268;label-date:01/02/2003,label:musee de france,
4200301,3667424925,Musée Alice Taverne,89,Rue de la Grye,42820,Ambierle,France,fr,open,46.1054907,3.8958563,,,,2016,payant:3493;gratuit:741;label-date:01/02/2003,label:musee de france,
4205901,6050847032,Atelier - Musée du Chapeau,31,Rue Martouret,42140,Chazelles-sur-Lyon,France,fr,open,45.6386575,4.395141,,,,2016,payant:15683;gratuit:6700;label-date:01/02/2003,label:musee de france,
6301001,4008056943,Musée de la Dentelle,,Ancienne Route Nationale,63220,Arlanc,France,fr,open,45.4143324,3.7244768,,,,2016,payant:1096;gratuit:73;label-date:01/02/2003,label:musee de france,
6311303,67552132,Muséum d'Histoire Naturelle Henri-Lecoq,15,Rue Bardoux,63000,Clermont-Ferrand,France,fr,open,45.774145950000005,3.0884366874758022,,,,2016,payant:4595;gratuit:26750;label-date:06/01/2002,label:musee de france,
6901801,1788408922,Musée Folklorique et Traditions Populaires Marius Audin,62,Place de l'Hôtel de Ville,69430,Beaujeu,France,fr,open,46.154402,4.5870811,,,,2016,payant:2717;gratuit:435;label-date:01/02/2003,label:musee de france,
6938201,6575800693,Musée des Hospices Civils de Lyon,,Rue du Port du Temple,69002,Lyon,France,fr,closed,45.7608407,4.8315116,,,,2016,payant:;gratuit:;label-date:01/02/2003,label:musee de france,
6938701,26131828,Centre d'Histoire de la Résistance et de la Déportation,,Rue Étienne Rognon,69007,Lyon,France,fr,open,45.7464306,4.8359519,,,,2016,payant:25889;gratuit:34046;label-date:01/02/2003,label:musee de france,
7305401,5858569185,Musée du Costume,,Rue des Vergers,73700,Bourg-Saint-Maurice,France,fr,closed,45.6178322,6.7704898,,,,2016,payant:;gratuit:;label-date:01/02/2003,label:musee de france,
7318101,,Musée de l'Académie de La Val d'Isère,,,,MOÛTIERS,France,fr,open,,,,,,2016,payant:57;gratuit:305;label-date:01/02/2003,label:musee de france,
2123101,2482864557,Musée François Rude,,Rue Vaillant,21000,Dijon,France,fr,open,47.321005,5.0442148,,,,2016,payant:0;gratuit:82965;label-date:01/02/2003,label:musee de france,
2123103,2751550494,Musée Magnin,,Rue des Bons Enfants,21000,Dijon,France,fr,open,47.3209486,5.0422275,,,,2016,payant:7459;gratuit:10629;label-date:06/01/2002,label:musee de france,
2123104,175641505,Musée des Beaux-Arts,,Place de la Libération,21000,Dijon,France,fr,open,47.32163075,5.042364361722523,,,,2016,payant:0;gratuit:155692;label-date:06/01/2002,label:musee de france,
2123106,23363257,"Musée de la Vie Bourguignonne, Perrin de Puycousin",,Rue du Chaignot,21000,Dijon,France,fr,open,47.31745415,5.0380257629051215,,,,2016,payant:0;gratuit:40741;label-date:01/02/2003,label:musee de france,
2505607,7345774337,Muséum de Besançon,,Chemin de Ronde de la Citadelle,25000,Besançon,France,fr,open,47.2285217,6.034794,,,,2016,payant:236458;gratuit:33606;label-date:01/02/2003,label:musee de france,
2505605,6354947603,Musée de la résistance et de la Déportation,,Chemin de Ronde de la Citadelle,25000,Besançon,France,fr,open,47.2290324,6.0349109,,,,2016,payant:33998;gratuit:11332;label-date:01/02/2003,label:musee de france,
2538802,7372375792,Musée du Château des Ducs de Wurtemberg,,Square Beurnier,25200,Montbéliard,France,fr,open,47.5098603,6.79769,,,,2016,payant:6874;gratuit:10843;label-date:01/02/2003,label:musee de france,
2541801,33921375,Musée de Plein Air des Maisons Comtoises,,Rue du Musée,25360,Nancray,France,fr,open,47.23771675,6.184408422290256,,,,2016,payant:31663;gratuit:8994;label-date:01/02/2003,label:musee de france,
2543401,87617807,Musée-Maison Natale Gustave Courbet,1,Rue de la Froidière,25290,Ornans,France,fr,open,47.1050435,6.147763179625452,,,,2016,payant:39929;gratuit:12046;label-date:01/02/2003,label:musee de france,
7012201,87526037,Musée Départemental Albert-et-Félicie Demard - ATP,,Place de la Mairie,70600,Champlitte,France,fr,open,47.61684495,5.514228248646819,,,,2016,payant:3737;gratuit:7526;label-date:01/02/2003,label:musee de france,
7027901,7508378482,Musée Baron Martin,,Tertre du Château,70100,Gray,France,fr,open,47.4464565,5.5938421,,,,2016,payant:2301;gratuit:2242;label-date:01/02/2003,label:musee de france,
5819403,339392015,Musée Archéologique du Nivernais (Porte du Croux),,Rue des Ouches,58000,Nevers,France,fr,closed,46.9882494,3.1580768,,,,2016,payant:;gratuit:;label-date:01/02/2003,label:musee de france,
5821501,,Musée Ernest Guédon,,,,POUILLY-SUR-LOIRE,France,fr,closed,,,,,,2016,payant:;gratuit:;label-date:01/02/2003,label:musee de france,
7101401,7419064532,Musée Verger Tarin,,Rue des Marbres,71400,Autun,France,fr,closed,46.9490737,4.3029239,,,,2016,payant:;gratuit:;label-date:01/02/2003,label:musee de france,
7107601,,Musée Denon,,,,CHALON-SUR-SAONE,France,fr,open,,,,,,2016,payant:81;gratuit:11336;label-date:01/02/2003,label:musee de france,
7110602,2239784876,Musée du Prieuré de Charolles,4,Rue du Prieuré,71120,Charolles,France,fr,open,46.4323423,4.2799145,,,,2016,payant:872;gratuit:1248;label-date:01/02/2003,label:musee de france,
7154302,7419064526,Musée Bourguignon -  Perrin de Puycousin,,Rue de l'Hôpital,71700,Tournus,France,fr,closed,46.562054,4.9109128,,,,2016,payant:;gratuit:;label-date:01/02/2003,label:musee de france,
8902401,62627118,Muséum - Maison de l'Eau,,Rue Jeanne d'Arc,89000,Auxerre,France,fr,open,47.7970869,3.5618150624042473,,,,2016,payant:0;gratuit:14605;label-date:01/02/2003,label:musee de france,
8934401,2909216095,Musée de l'Aventure du Son,,Place de l'Hôtel de Ville,89170,Saint-Fargeau,France,fr,open,47.6414558,3.0709553,,,,2016,payant:3127;gratuit:269;label-date:18/04/2008,label:musee de france,
2205001,95903744,Musée du Château de Dinan,,Promenade des Petits Fossés,22100,Dinan,France,fr,closed,48.450287599999996,-2.0449255728476867,,,,2016,payant:;gratuit:;label-date:01/02/2003,label:musee de france,
2227801,78123314,Musée d'Art et d'Histoire,,Cour Francis Renaud,22000,Saint-Brieuc,France,fr,open,48.51234775,-2.7619036982498804,,,,2016,payant:0;gratuit:16339;label-date:01/02/2003,label:musee de france,
2922001,,Musée Bigouden,,,,PONT-L'ABBE,France,fr,open,,,,,,2016,payant:11370;gratuit:3269;label-date:01/02/2003,label:musee de france,
2923202,94312010,Musée Départemental Breton,1,Rue du Roi Gradlon,29000,Quimper,France,fr,open,47.9953725,-4.1025369543379,,,,2016,payant:13086;gratuit:14561;label-date:01/02/2003,label:musee de france,
3523801,7422696,Musée de Bretagne,,Boulevard Magenta,35000|35700|35200,Rennes,France,fr,open,48.105132049999995,-1.6741388704016005,,,,2016,payant:15364;gratuit:46388;label-date:01/02/2003,label:musee de france,
3523802,30437810,Musée des Beaux-Arts,20,Quai Émile Zola,35000,Rennes,France,fr,open,48.1096227,-1.6749412386363636,,,,2016,payant:20926;gratuit:63573;label-date:06/01/2002,label:musee de france,
3536001,92884430,Musée Saint-Nicolas,,Rue du Rachapt,35500,Vitré,France,fr,closed,48.1260135,-1.2166992529105425,,,,2016,payant:;gratuit:;label-date:01/02/2003,label:musee de france,
3536002,92884430,Musée du Château de Vitré,,Rue du Rachapt,35500,Vitré,France,fr,open,48.1260135,-1.2166992529105425,,,,2016,payant:15495;gratuit:6961;label-date:01/02/2003,label:musee de france,
5609001,243636775,Ecomusée Industriel des Forges,,Rue des Mimosas,56650,Inzinzac-Lochrist,France,fr,open,47.823174300000005,-3.2555253999999927,,,,2016,payant:1606;gratuit:1995;label-date:01/02/2003,label:musee de france,
1803301,3639383770,Musée Estève,,Rue Édouard Branly,18000,Bourges,France,fr,open,47.0861911,2.396213,,,,2016,payant:0;gratuit:14181;label-date:01/02/2003,label:musee de france,
1827901,622149606,Musée Municipal,,Rue de la Société Française,18100,Vierzon,France,fr,open,47.2249147,2.0602204,,,,2016,payant:1449;gratuit:6603;label-date:01/02/2003,label:musee de france,
2808502,276905,Muséum des Sciences Naturelles et de Préhistoire,,,28000,Chartres,France,fr,open,48.4438601,1.4881434,,,,2016,payant:0;gratuit:10000;label-date:01/02/2003,label:musee de france,
2813401,182675003,Musée d'Art et d'Histoire Marcel Dessal,,Place du Musée,28100,Dreux,France,fr,open,48.733925,1.3680411794478526,,,,2016,payant:1081;gratuit:8971;label-date:01/02/2003,label:musee de france,
2819601,2288529939,Musée Marcel Proust,,Rue des Trois Maries,28120,Illiers-Combray,France,fr,open,48.2996594,1.2430508,,,,2016,payant:3915;gratuit:286;label-date:01/02/2003,label:musee de france,
2828001,,Musée du Château Saint-Jean,,,,NOGENT-LE-ROTROU,France,fr,open,,,,,,2016,payant:9202;gratuit:10818;label-date:01/02/2003,label:musee de france,
3601001,,Château Musée,,,,AZAY-LE-FERRON,France,fr,open,,,,,,2016,payant:13847;gratuit:4010;label-date:01/02/2003,label:musee de france,
3604601,,Musée George Sand et de la Vallée Noire,,,,LA CHATRE,France,fr,open,,,,,,2016,payant:5742;gratuit:6978;label-date:01/02/2003,label:musee de france,
3601801,214892,Musée Ornithologique (Ecomusée de la Brenne),,Cour du Cheval Blanc,77300,Fontainebleau,France,fr,open,48.4023346,2.7005387366907625,,,,2016,payant:2190;gratuit:1576;label-date:01/02/2003,label:musee de france,
3700301,,Musée - Hôtel Morin,,,,AMBOISE,France,fr,open,,,,,,2016,payant:0;gratuit:8098;label-date:01/02/2003,label:musee de france,
3707201,,"Le Carroi, Musée d’Arts et d’Histoire",,,,CHINON,France,fr,open,,,,,,2016,payant:1160;gratuit:2043;label-date:01/02/2003,label:musee de france,
3724801,1935506460,Musée François Rabelais,,Rue de La Devinière,37500,Seuilly,France,fr,open,47.1405133,0.1784807,,,,2016,payant:9788;gratuit:2032;label-date:30/04/2002,label:musee de france,
3726103,38546705,Musée de l'Hôtel Goüin,25,Rue du Commerce,37000,Tours,France,fr,closed,47.3953091,0.6846798555262408,,,,2016,payant:;gratuit:;label-date:01/02/2003,label:musee de france,
3726105,40514601,Musée du Compagnonnage,2,Place Anatole France,37000,Tours,France,fr,open,47.39641815,0.6869935971502714,,,,2016,payant:22874;gratuit:8346;label-date:01/02/2003,label:musee de france,
4101801,7170311044,Château Musées de Blois,,Petits Degrés du Château,41000,Blois,France,fr,open,47.5857788,1.3313739,,,,2016,payant:220317;gratuit:32326;label-date:01/02/2003,label:musee de france,
4126901,541957843,Musée de Vendôme,,Allée de Yorktown,41100,Vendôme,France,fr,open,47.7907832,1.0689238,,,,2016,payant:0;gratuit:14943;label-date:01/02/2003,label:musee de france,
4525201,224039110,Musée Municipal,,Rue Carnot,45300,Pithiviers,France,fr,closed,48.17477735,2.2434493018304966,,,,2016,payant:;gratuit:;label-date:01/02/2003,label:musee de france,
2B03301,590087366,Musée d'Histoire de Bastia,,,20290,Lucciana,France,fr,open,42.54204815,9.496920951519154,,,,2016,payant:12499;gratuit:12235;label-date:01/02/2003,label:musee de france,
0810503,1765207774,Musée de l'Ardenne,,Les Arcades,08000,Charleville-Mézières,France,fr,open,49.77272,4.7214458,,,,2016,payant:5527;gratuit:30974;label-date:01/02/2003,label:musee de france,
0840901,1874188907,Musée du Château-Fort,,Avenue de la Dernière Cartouche,08140,Bazeilles,France,fr,open,49.6817859,4.9754729,,,,2016,payant:55930;gratuit:2846;label-date:01/02/2003,label:musee de france,
1026801,3817901518,Musée Camille Claudel,,Rue Gustave Flaubert,10400,Nogent-sur-Seine,France,fr,closed,48.4943857,3.5006636,,,,2016,payant:;gratuit:;label-date:01/02/2003,label:musee de france,
6718002,606195509,Musée Alsacien,,Place Joseph Thierry,67500,Haguenau,France,fr,open,48.8147979,7.7893977,,,,2016,payant:828;gratuit:1260;label-date:01/02/2003,label:musee de france,
6730001,58887086,Musée de la Chartreuse,,Rue des Étudiants,67120,Molsheim,France,fr,open,48.5428428,7.490422123361975,,,,2016,payant:4199;gratuit:2239;label-date:01/02/2003,label:musee de france,
6738801,,Musée du Fer,,,,REICHSHOFFEN,France,fr,open,,,,,,2016,payant:878;gratuit:1836;label-date:01/02/2003,label:musee de france,
6754401,167263621,Musée Westercamp,,Rue du Musée,67160,Wissembourg,France,fr,open,49.0389525,7.944872205882353,,,,2016,payant:0;gratuit:669;label-date:01/02/2003,label:musee de france,
5212101,,Musée des Beaux-Arts et d'Archéologie,,,,CHAUMONT,France,fr,open,,,,,,2016,payant:688;gratuit:2866;label-date:01/02/2003,label:musee de france,
5226902,489598272,Musée d'Art et d'Histoire,,Rue de la Coutellerie,52200,Langres,France,fr,open,47.8646223,5.333331557244431,,,,2016,payant:3666;gratuit:5643;label-date:01/02/2003,label:musee de france,
5235301,5915925232,Musée de la Coutellerie,,Place Charles de Gaulle,52800,Nogent,France,fr,open,48.0275986,5.3411994,,,,2016,payant:3920;gratuit:1402;label-date:18/04/2002,label:musee de france,
5244801,65662699,Musée Municipal,,Allée Jean-François Lescuyer,52100,Saint-Dizier,France,fr,open,48.63793305,4.948117698073352,,,,2016,payant:0;gratuit:5298;label-date:01/02/2003,label:musee de france,
6814901,,Musée Historique et Militaire de Huningue,,,,HUNINGE,France,fr,open,,,,,,2016,payant:105;gratuit:220;label-date:01/02/2003,label:musee de france,
6822404,449007880,Musée EDF Electropolis,,Autodrome du Musée de l'Automobile,68100,Mulhouse,France,fr,open,47.7612848,7.327971551196445,,,,2016,payant:31601;gratuit:11904;label-date:01/02/2003,label:musee de france,
6827702,1138681,Musée du Dolder,16,Rue du Général de Gaulle,68340,Riquewihr,France,fr,open,48.166885,7.298560434089087,,,,2016,payant:1821;gratuit:524;label-date:01/02/2003,label:musee de france,
6833401,218472174,Musée des Amis de Thann,,Rue du Parc,68470,Husseren-Wesserling,France,fr,open,47.885102,6.996263986308496,,,,2016,payant:485;gratuit:1222;label-date:01/02/2003,label:musee de france,
5110804,156704708,Musée du Cloître de Notre-Dame-en-Vaux,4,Rue Nicolas Durand,51000,Châlons-en-Champagne,France,fr,open,48.958076,4.3631782370533925,,,,2016,payant:911;gratuit:2098;label-date:23/02/2012,label:musee de france,
5145401,733881096,Musée des Beaux-Arts de Saint-Denis,,,51100,Reims,France,fr,open,49.252981500000004,4.030427080857688,,,,2016,payant:22947;gratuit:21704;label-date:06/01/2002,label:musee de france,
5145405,7030744259,Musée Hôtel le Vergeur,36,Place du Forum,51100,Reims,France,fr,open,49.2571018,4.0341284,,,,2016,payant:2046;gratuit:1926;label-date:01/02/2003,label:musee de france,
5415401,113033,Les Sources d'Hercule,,,54120,Deneuvre,France,fr,open,48.4443122,6.7356749,,,,2016,payant:2897;gratuit:1695;label-date:01/02/2003,label:musee de france,
5439501,49791497,Musée de l'Ecole de Nancy,,Rue du Sergent Blandan,54100,Nancy,France,fr,open,48.680552000000006,6.166075819038056,,,,2016,payant:25122;gratuit:15243;label-date:01/02/2003,label:musee de france,
5535101,,Musée Jules Bastien-Lepage - Musée de la Fortification,,,,MONTMEDY,France,fr,open,,,,,,2016,payant:10744;gratuit:2937;label-date:01/02/2003,label:musee de france,
5550202,134231670,Musée de la Bière et du Pays de Stenay,17,Rue du Moulin,55700,Stenay,France,fr,open,49.488918999999996,5.186675922267025,,,,2016,payant:7101;gratuit:13172;label-date:24/02/2003,label:musee de france,
5725601,309445273,Musée Départemental de la Guerre de 70,11,Rue de Metz,57130,Gravelotte,France,fr,open,49.114021050000005,6.029759781346406,,,,2016,payant:8380;gratuit:6192;label-date:01/02/2003,label:musee de france,
5753701,823312790,Musée de la Mine - Carreau Wendel,,Rue Saint-Charles,57540,Petite-Rosselle,France,fr,open,49.2039277,6.8630557,,,,2016,payant:41608;gratuit:4456;label-date:01/02/2003,label:musee de france,
5754001,,Musée Militaire et Erckmann-Chatrian,,,,PHALSBOURG,France,fr,open,,,,,,2016,payant:608;gratuit:676;label-date:01/02/2003,label:musee de france,
8816001,100809875,Musée Départemental d'Art Ancien et Contemporain,1,Place Lagarde,88000,Épinal,France,fr,open,48.1727635,6.446326185692797,,,,2016,payant:3056;gratuit:10728;label-date:01/02/2003,label:musee de france,
9711201,6042462812,Ecomusée de Marie-Galante,,Route de Grand-Bourg à Capesterre,97140,Grand-Bourg,France,fr,open,15.8784483,-61.2995603,,,,2016,payant:0;gratuit:37777;label-date:01/02/2003,label:musee de france,
9711701,1965845057,Musée Précolombien Edgar Clerc,,Route de la Plante,97160,Le Moule,France,fr,open,16.3396546,-61.3771244,,,,2016,payant:0;gratuit:10695;label-date:01/02/2003,label:musee de france,
9712002,,Musée Départemental Victor Schoelcher,,,,POINTE-A-PITRE,France,fr,open,,,,,,2016,payant:1584;gratuit:7903;label-date:01/02/2003,label:musee de france,
9712003,65839623,Musée l'Herminier,,Rue Sadi Carnot,97110,Pointe-à-Pitre,France,fr,closed,16.238335,-61.537012293084736,,,,2016,payant:;gratuit:;label-date:01/02/2003,label:musee de france,
0238101,4239502337,Musée - Centre de Documentation Alfred Desmasures,,Impasse du Château,02500,Hirson,France,fr,closed,49.9260179,4.0792224,,,,2016,payant:;gratuit:;label-date:01/02/2003,label:musee de france,
0240802,202812175,Musée d'Art et d'Archéologie,,Rue des Moulins,02250,Marle,France,fr,open,49.7417279,3.771423276198486,,,,2016,payant:1285;gratuit:3175;label-date:01/02/2003,label:musee de france,
0257401,236808363,Musée Monseigneur Pigneau de Behaine,,Rue du Musée,02550,Origny-en-Thiérache,France,fr,closed,49.8961405,4.022224,,,,2016,payant:;gratuit:;label-date:01/02/2003,label:musee de france,
5920501,1719221067,Musée Municipal d'Escaudain,,Rue Paul Bert,59124,Escaudain,France,fr,open,50.3330601,3.3443559,,,,2016,payant:0;gratuit:600;label-date:01/02/2003,label:musee de france,
5937501,,Musée d'Histoire Locale de Marchiennes,,,,MARCHIENNES,France,fr,open,,,,,,2016,payant:175;gratuit:382;label-date:01/02/2003,label:musee de france,
5952601,2060779461,Musée de la Tour Abbatiale,,Grand'Place,59230,Saint-Amand-les-Eaux,France,fr,open,50.4489646,3.4287208,,,,2016,payant:0;gratuit:17683;label-date:01/02/2003,label:musee de france,
6005701,556458814,MUDO - Musée de l'Oise,,Rue Saint-Pierre,60000,Beauvais,France,fr,open,49.4329907,2.0796036241134193,,,,2016,payant:0;gratuit:57977;label-date:01/02/2003,label:musee de france,
6014301,6253491677,Musée Pillon,45,Rue de l'Hôtel de Ville,60240,Chaumont-en-Vexin,France,fr,open,49.2623827,1.882077,,,,2016,payant:0;gratuit:508;label-date:01/02/2003,label:musee de france,
6015905,5339422294,Musée de la Figurine Historique,"1,3,5,7",Rue Jean Legendre,60200,Compiègne,France,fr,open,49.4176885,2.8264396,,,,2016,payant:2586;gratuit:5306;label-date:01/02/2003,label:musee de france,
6061203,5357724995,Musée de la Vénerie,,Place Saint-Maurice,60300,Senlis,France,fr,open,49.2072693,2.5833865,,,,2016,payant:1483;gratuit:4754;label-date:01/02/2003,label:musee de france,
6210801,,Musée Communautaire Opale-Sud,,,,BERCK-SUR-MER,France,fr,open,,,,,,2016,payant:1968;gratuit:5201;label-date:05/04/2002,label:musee de france,
6226801,244679581,Musée de la Céramique,,Rue Jean Macé,62240,Desvres,France,fr,open,50.666714,1.842068159820283,,,,2016,payant:6908;gratuit:1194;label-date:01/02/2003,label:musee de france,
6241301,110215831,Musée d'Histoire et d'Archéologie,,Rue du Musée,62440,Harnes,France,fr,open,50.447528,2.9107465,,,,2016,payant:0;gratuit:824;label-date:01/02/2003,label:musee de france,
6276701,204398267,Musée Municipal Bruno Danvin,,Rue Oscar Ricque,62130,Saint-Pol-sur-Ternoise,France,fr,open,50.381508,2.337263799999996,,,,2016,payant:0;gratuit:4144;label-date:01/02/2003,label:musee de france,
8071601,,Musée Départemental de l'Abbaye de Saint-Riquier,,,,ABBEVILLE,France,fr,closed,,,,,,2016,payant:;gratuit:;label-date:01/02/2003,label:musee de france,
8002103,114347,Muséum d'histoire naturelle,,,,Amiens,France,fr,closed,49.8941708,2.2956951,,,,2016,payant:;gratuit:;label-date:01/02/2003,label:musee de france,
9111401,48359053,Musée Municipal Robert Dubois-Corneau,,Rue de la Glacière,91800,Brunoy,France,fr,open,48.7003494,2.5007316063279736,,,,2016,payant:65;gratuit:4059;label-date:01/02/2003,label:musee de france,
9120001,2650356282,Musée du Château,,Rue du Marché aux Grains,91410,Dourdan,France,fr,open,48.5298686,2.0111955,,,,2016,payant:11067;gratuit:9054;label-date:01/02/2003,label:musee de france,
9201203,,"Albert-Kahn, Musée et Jardin Départementaux",,,,BOULOGNE-BILLANCOURT,France,fr,open,,,,,,2016,payant:40220;gratuit:26801;label-date:01/02/2003,label:musee de france,
9202601,82241201,Musée Roybet Fould,178,Boulevard Saint-Denis,92400,Courbevoie,France,fr,open,48.90043675,2.2718533501517357,,,,2016,payant:374;gratuit:10571;label-date:01/02/2003,label:musee de france,
9204801,137829073,Musée d'Art et d'Histoire,11,Rue des Pierres,92190,Meudon,France,fr,open,48.806285,2.2350911702464784,,,,2016,payant:2536;gratuit:8939;label-date:01/02/2003,label:musee de france,
9207301,70961327,MUS - Musée d'Histoire Urbaine et Sociale,1,Rue Merlin de Thionville,92150,Suresnes,France,fr,open,48.868207600000005,2.221619823857867,,,,2016,payant:3850;gratuit:4793;label-date:01/02/2003,label:musee de france,
7510603,,Etablissement public du musée d'Orsay et de l'Orangerie - Musée Hébert,,,,PARIS,France,fr,closed,,,,,,2016,payant:;gratuit:;label-date:06/01/2002,label:musee de france,
7510602,395785603,Musée National Eugène Delacroix,,Rue Jacob,75006,Paris,France,fr,open,48.85464155,2.335393670592886,,,,2016,payant:28362;gratuit:29786;label-date:06/01/2002,label:musee de france,
7510301,156973373,Musée de la Chasse et de la Nature,62,Rue des Archives,75003,Paris,France,fr,open,48.86125555,2.358782698354484,,,,2016,payant:30529;gratuit:40042;label-date:01/02/2003,label:musee de france,
7510502,7444,Galerie de Minéralogie et de Géologie (Muséum d'Histoire Naturelle),,,,Paris,France,fr,open,48.8566969,2.3514616,,,,2016,payant:46278;gratuit:16514;label-date:06/01/2002,label:musee de france,
7510503,83913793,Grande Galerie de l'Evolution (Muséum National d'Histoire Naturelle),,Rue Geoffroy Saint-Hilaire,75005,Paris,France,fr,open,48.8421055,2.356243821803625,,,,2016,payant:313742;gratuit:293110;label-date:06/01/2002,label:musee de france,
7510802,5304864568,Musée de la Musique,221,Avenue Jean Jaurès,75019,Paris,France,fr,open,48.8901928,2.393712,,,,2016,payant:182877;gratuit:91282;label-date:06/01/2002,label:musee de france,
7511202,,Établissement Public de la Porte Dorée - Musée de National de l’Histoire de l’Immigration,,,,PARIS,France,fr,open,,,,,,2016,payant:51678;gratuit:55302;label-date:16/11/2006,label:musee de france,
7511618,4828705432,Musée National de la Marine,,Villa Marie Vassilieff,75015,Paris,France,fr,open,48.8434128,2.320792,,,,2016,payant:51247;gratuit:35719;label-date:06/01/2002,label:musee de france,
7511701,84326105,Musée National Jean-Jacques Henner,,Rue Fortuny,75017,Paris,France,fr,open,48.88297625,2.3076796906695947,,,,2016,payant:9140;gratuit:7370;label-date:06/01/2002,label:musee de france,
7510402,5918699678,Musée National d'Art Moderne (Centre National d'Art et de Culture Georges Pompidou),,Rue Joliot-Curie,91190,Le Moulon,France,fr,open,48.7094092,2.1666145,,,,2016,payant:2461390;gratuit:967298;label-date:06/01/2002,label:musee de france,
7718601,214892,Musée du Château de Fontainebleau,,Cour du Cheval Blanc,77300,Fontainebleau,France,fr,open,48.4023346,2.7005387366907625,,,,2016,payant:185548;gratuit:237317;label-date:06/01/2002,label:musee de france,
7728402,,Musée de la Grande Guerre du Pays de Meaux,,,,MEAUX,France,fr,open,,,,,,2016,payant:73846;gratuit:15154;label-date:15/03/2007,label:musee de france,
7728803,112363959,Musée de la Gendarmerie Nationale,1-3,Rue Émile Leclerc,77000,Melun,France,fr,open,48.54554555,2.6529119346368715,,,,2016,payant:11055;gratuit:11822;label-date:14/01/2011,label:musee de france,
7744501,4895409053,Ecomusée,,Rue de la Libération,77176,Savigny-le-Temple,France,fr,closed,48.5745236,2.5833427,,,,2016,payant:;gratuit:;label-date:01/02/2003,label:musee de france,
9304601,145134117,Musée Municipal,,Rue du Docteur Roux,93190,Livry-Gargan,France,fr,closed,48.934633649999995,2.5517116365355736,,,,2016,payant:;gratuit:;label-date:01/02/2003,label:musee de france,
9501801,80773777,Musée du Vieil Argenteuil,,Rue de Rubelles,95390,Saint-Prix,France,fr,open,49.01175795,2.264040737016648,,,,2016,payant:0;gratuit:672;label-date:01/02/2003,label:musee de france,
7817201,,Musée de la Batellerie et des Voies Navigables,,,,CONFLANS-SAINTE-HONORINE,France,fr,open,,,,,,2016,payant:9631;gratuit:2803;label-date:01/02/2003,label:musee de france,
7836101,1733134564,Musée de l'Hôtel-Dieu,1,Rue Thiers,78200,Mantes-la-Jolie,France,fr,open,48.9901391,1.7194536,,,,2016,payant:3099;gratuit:1360;label-date:01/02/2003,label:musee de france,
7838401,182753888,Musée Zola-Dreyfus,,Rue Pasteur,78670,Médan,France,fr,closed,48.9556992,1.9955895638705745,,,,2016,payant:;gratuit:;label-date:23/10/2009,label:musee de france,
7820801,1290290099,Musée de la Ville,,Quai François Truffaut,78180,Montigny-le-Bretonneux,France,fr,open,48.7831521,2.042426,,,,2016,payant:2298;gratuit:2239;label-date:01/02/2003,label:musee de france,
7849801,,Musée du Jouet Pierre Pinel,,,,POISSY,France,fr,open,,,,,,2016,payant:5860;gratuit:3752;label-date:01/02/2003,label:musee de france,
7855103,,Musée d'Archéologie Nationale (des origines à l'an mille) - Château de st-Germain-en-Laye,,,,SAINT-GERMAIN-EN-LAYE,France,fr,open,,,,,,2016,payant:19769;gratuit:86642;label-date:06/01/2002,label:musee de france,
7857501,951328,Collections de la Fondation de Coubertin,,,78470,Saint-Rémy-lès-Chevreuse,France,fr,open,48.7054888,2.071109,,,,2016,payant:59;gratuit:0;label-date:01/02/2003,label:musee de france,
7864601,1482437177,Musée Lambinet,,Boulevard de la Reine,78000,Versailles,France,fr,open,48.8087784,2.1305005,,,,2016,payant:8449;gratuit:6555;label-date:01/02/2003,label:musee de france,
7864602,,Etablissement Public du Musée et du Domaine National de Versailles,,,,VERSAILLES,France,fr,open,,,,,,2016,payant:5177020;gratuit:1524173;label-date:06/01/2002,label:musee de france,
9741101,146919869,Musée Départemental de la Réunion - Musée Léon Dierx,,Rue Sainte Marie,97400,Saint-Denis,France,fr,open,-20.883840050000003,55.450058317623416,,,,2016,payant:3327;gratuit:11503;label-date:01/02/2003,label:musee de france,
9720903,,Muséum d'Histoire Naturelle,,,,FORT-DE-FRANCE TERRE-SAINVILLE,France,fr,closed,,,,,,2016,payant:;gratuit:;label-date:01/02/2003,label:musee de france,
1404701,2578288672,Musée Baron Gérard,37,Rue du Bienvenu,14400,Bayeux,France,fr,open,49.2761648,-0.7036632,,,,2016,payant:31424;gratuit:5245;label-date:01/02/2003,label:musee de france,
1411801,315032925,Musée des Beaux-Arts,,Chemin des Fossés du Château,14000,Caen,France,fr,open,49.1862879,-0.3615817,,,,2016,payant:51458;gratuit:73927;label-date:06/01/2002,label:musee de france,
1433301,7179675885,Musée d'Ethnographie et d'Arts Populaires et Musée de la Marine,,Rue de la Prison,14600,Honfleur,France,fr,open,49.4196131,0.233695,,,,2016,payant:14228;gratuit:1002;label-date:01/02/2003,label:musee de france,
1475401,367285600,Paléospace / Musée Paléontologique,,Avenue Jean Moulin,14640,Villers-sur-Mer,France,fr,open,49.32785775000001,0.013359593768197942,,,,2016,payant:44452;gratuit:6328;label-date:01/02/2003,label:musee de france,
2737501,1281576361,Musée Municipal,,Place Ernest Thorel,27400,Louviers,France,fr,open,49.214913,1.1684299,,,,2016,payant:0;gratuit:11486;label-date:01/02/2003,label:musee de france,
5008201,,Musée du Vieux Château,,,,BRICQUEBEC-EN-COTENTIN,France,fr,open,,,,,,2016,payant:351;gratuit:0;label-date:01/02/2003,label:musee de france,
5012901,1932681880,Muséum Emmanuel Liais,,Rue de l'Abbaye,50100,Cherbourg-en-Cotentin,France,fr,open,49.6429877,-1.6294662,,,,2016,payant:1842;gratuit:7607;label-date:01/02/2003,label:musee de france,
5052501,,Musée du Granit,,,,SAINT-MICHEL-DE-MONTJOIE,France,fr,open,,,,,,2016,payant:37;gratuit:1763;label-date:01/02/2003,label:musee de france,
5055101,,Musée Barbey d'Aurevilly,,,,SAINT-SAUVEUR-LE-VICOMTE,France,fr,open,,,,,,2016,payant:629;gratuit:372;label-date:01/02/2003,label:musee de france,
6137901,4317391883,Musée Départemental des Arts et Traditions Populaires du Perche,,D 277,61130,Saint-Cyr-la-Rosière,France,fr,open,48.3249849,0.6549988,,,,2016,payant:10068;gratuit:12013;label-date:01/02/2003,label:musee de france,
7621701,387891590,Château-Musée de Dieppe,,Rue de Sygogne,76200,Dieppe,France,fr,open,49.924208899999996,1.0707435133141803,,,,2016,payant:18197;gratuit:14343;label-date:25/05/2002,label:musee de france,
7625901,,Musée des Terres-Neuvas et de la Pêche,,,,FECAMP,France,fr,open,,,,,,2016,payant:3544;gratuit:648;label-date:01/02/2003,label:musee de france,
7625902,,Musée des Arts & de l'Enfance,,,,FECAMP,France,fr,closed,,,,,,2016,payant:;gratuit:;label-date:01/02/2003,label:musee de france,
7635101,69981531,Musée d'Art Moderne André Malraux - MuMa,2,Boulevard Clemenceau,76600,Le Havre,France,fr,open,49.48501735,0.10265666643901614,,,,2016,payant:53464;gratuit:46059;label-date:01/02/2003,label:musee de france,
7654003,64181527,Musée Flaubert et d'Histoire de la Médecine,,Esplanade Marcel Duchamp,76000,Rouen,France,fr,open,49.44473675,1.0945818804156213,,,,2016,payant:2775;gratuit:4260;label-date:01/02/2003,label:musee de france,
7654004,64180958,Musée des Antiquités de la Seine-Maritime,198,Rue Beauvoisine,76000,Rouen,France,fr,open,49.4469796,1.0994713257847062,,,,2016,payant:157;gratuit:27607;label-date:01/02/2003,label:musee de france,
1610201,65523448,Musée Municipal de Cognac,48,Boulevard Denfert-Rochereau,16100,Cognac,France,fr,open,45.695926150000005,-0.32557439625392126,,,,2016,payant:2945;gratuit:2953;label-date:01/02/2003,label:musee de france,
1729905,,Ancienne École de médecine navale - Musée national de la Marine,,,,ROCHEFORT,France,fr,open,,,,,,2016,payant:4934;gratuit:6645;label-date:06/01/2020,label:musee de france,
1741504,136636772,Musée Dupuy-Mestreau,,Rue Monconseil,17100,Saintes,France,fr,open,45.74313975,-0.6340019161865896,,,,2016,payant:359;gratuit:689;label-date:01/02/2003,label:musee de france,
1738501,1846520665,Musée de l'Ile d'Oléron,,Rue Aliénor d'Aquitaine,17310,Saint-Pierre-d'Oléron,France,fr,open,45.9428107,-1.3066515,,,,2016,payant:8892;gratuit:3413;label-date:01/02/2003,label:musee de france,
7919104,795257552,Musée Bernard d’Agesci,26,Avenue de Limoges,79000,Niort,France,fr,open,46.3210536,-0.454416,,,,2016,payant:4064;gratuit:9136;label-date:01/02/2003,label:musee de france,
7932901,64211578,Musée Henri Barré,,Rue du Bac,79100,Thouars,France,fr,open,46.97362875,-0.21811853555865957,,,,2016,payant:427;gratuit:1839;label-date:01/02/2003,label:musee de france,
2452001,,Musée-Aquarium,,,,CREYSSE,France,fr,closed,,,,,,2016,payant:;gratuit:;label-date:01/02/2003,label:musee de france,
2429901,3136128949,Musée des Arts et Traditions Populaires du Périgord,1,Rue Raoul Grassin,24400,Mussidan,France,fr,open,45.0375278,0.362942,,,,2016,payant:942;gratuit:1212;label-date:01/02/2003,label:musee de france,
3306310,6912095875,Musée Goupil,,Cours Pasteur,33000,Bordeaux,France,fr,closed,44.8358149,-0.5749304,,,,2016,payant:;gratuit:;label-date:01/02/2003,label:musee de france,
3354701,161041079,Musée Municipal,,Impasse Dupeyron,33730,Villandraut,France,fr,open,44.457179,-0.372994201515152,,,,2016,payant:182;gratuit:100;label-date:01/02/2003,label:musee de france,
4729201,5827779554,Musée de Préhistoire Mésolithique Laurent Coulonges,,D 68,47500,Sauveterre-la-Lémance,France,fr,open,44.5904194,1.0137463,,,,2016,payant:2222;gratuit:379;label-date:01/02/2003,label:musee de france,
6410201,631661850,Musée Basque et de l'Histoire de Bayonne,37,Quai des Corsaires,64100,Bayonne,France,fr,open,43.4910854,-1.473799,,,,2016,payant:26348;gratuit:34927;label-date:01/02/2003,label:musee de france,
6444501,,Musée Municipal des Beaux-Arts,,,,PAU,France,fr,open,,,,,,2016,payant:7596;gratuit:10671;label-date:01/02/2003,label:musee de france,
8606603,,"Musée de la Moto, de l'Automobile et du Vélo",,,,CHATELLERAULT,France,fr,open,,,,,,2016,payant:5263;gratuit:5731;label-date:01/02/2003,label:musee de france,
8619402,40140547,Musée Sainte-Croix,,Rue Paschal le Coq,86000,Poitiers,France,fr,open,46.57912245,0.34775441471496493,,,,2016,payant:6476;gratuit:25150;label-date:06/01/2002,label:musee de france,
8619404,40140547,Musée du baptistère Saint-Jean,,Rue Paschal le Coq,86000,Poitiers,France,fr,open,46.57912245,0.34775441471496493,,,,2016,payant:11974;gratuit:1462;label-date:01/02/2003,label:musee de france,
8619406,132348,Collection d'Histoire Naturelle,,,86000,Poitiers,France,fr,open,46.5802596,0.340196,,,,2016,payant:17430;gratuit:38336;label-date:01/02/2003,label:musee de france,
0918101,3127357651,Musée de la Préhistoire,,Place de l'Église,09290,Le Mas-d'Azil,France,fr,open,43.0800307,1.3600366,,,,2016,payant:12666;gratuit:546;label-date:01/02/2003,label:musee de france,
1120601,799714487,Musée Petiet,,Avenue Fabre d'Églantine,11300,Limoux,France,fr,open,43.0534043,2.2144622,,,,2016,payant:467;gratuit:2549;label-date:01/02/2003,label:musee de france,
1136901,758324962,Musée Archéologique,,Chemin de Halage,11590,Sallèles-d'Aude,France,fr,open,43.273517,2.9369963132911447,,,,2016,payant:6111;gratuit:4761;label-date:01/02/2003,label:musee de france,
1209601,152864630,"Musée des Mœurs et Coutumes, Musée du Rouergue",,Place Pierre Frontin,12500,Espalion,France,fr,open,44.5211405,2.7606325085458474,,,,2016,payant:34;gratuit:962;label-date:01/02/2003,label:musee de france,
1214501,187705210,Musée Municipal de Millau,,Rue de la Madeleine,12620,Saint-Beauzély,France,fr,open,44.164187,2.9579286798418973,,,,2016,payant:3303;gratuit:13380;label-date:01/02/2003,label:musee de france,
1220301,2242124020,Musée Municipal d'archéologie,2,Avenue François Galtier,12250,Roquefort-sur-Soulzon,France,fr,closed,43.9745977,2.9927119,,,,2016,payant:;gratuit:;label-date:01/02/2003,label:musee de france,
3018906,249023783,Carré d'Art Musée d'Art Contemporain de Nîmes,16,Place de la Maison Carrée,30000,Nîmes,France,fr,open,43.8379778,4.3550651390627815,,,,2016,payant:10267;gratuit:36924;label-date:01/02/2003,label:musee de france,
3018905,41832267,Musée des Beaux-Arts,,Rue de la Cité Foulc,30033,Nîmes,France,fr,open,43.83194295,4.360586484823399,,,,2016,payant:146;gratuit:14759;label-date:01/02/2003,label:musee de france,
3210701,395394221,Musée de l'Armagnac,,Rue Jules Ferry,32100,Condom,France,fr,open,43.9587501,0.3720146,,,,2016,payant:1422;gratuit:290;label-date:01/02/2003,label:musee de france,
3104201,,Musée du Pays de Luchon,,,,BAGNERES-DE-LUCHON,France,fr,open,,,,,,2016,payant:987;gratuit:490;label-date:01/02/2003,label:musee de france,
3147201,3509638044,Musée Archéologique Départemental,,Rue du Musée,31510,Saint-Bertrand-de-Comminges,France,fr,open,43.027071,0.569798,,,,2016,payant:0;gratuit:10347;label-date:01/02/2003,label:musee de france,
3155506,247081244,Musée du Vieux Toulouse,,Rue du May,31000,Toulouse,France,fr,open,43.6023148,1.4431296,,,,2016,payant:6130;gratuit:1317;label-date:01/02/2003,label:musee de france,
3400301,4134270080,Musée Agathois,5,Rue de la Fraternité,34300,Agde,France,fr,open,43.3118294,3.4686196,,,,2016,payant:1702;gratuit:1643;label-date:01/02/2003,label:musee de france,
3430101,2244412926,Musée Paul Valéry,,Rue François Desnoyer,34200,Sète,France,fr,open,43.3953827,3.6906637,,,,2016,payant:39884;gratuit:10520;label-date:01/02/2003,label:musee de france,
6605301,,Musée d'Art Moderne - Fonds Peskè,,,,COLLIOURE,France,fr,open,,,,,,2016,payant:6184;gratuit:2212;label-date:01/02/2003,label:musee de france,
6614801,,Musée d'Archéologie Sous-Marine,,,,PORT-VENDRES,France,fr,closed,,,,,,2016,payant:;gratuit:;label-date:01/02/2003,label:musee de france,
8106901,5168791210,Musée Charles Portal - Histoire et Patrimoine,,Rue Saint-Michel,81170,Cordes-sur-Ciel,France,fr,open,44.0637595,1.9490171,,,,2016,payant:688;gratuit:425;label-date:01/02/2003,label:musee de france,
8109902,60929966,Muséum d'histoire naturelle Philadelphe Thomas,,Rue Philadelphe Thomas,81600,Gaillac,France,fr,open,43.8993239,1.8943379,,,,2016,payant:968;gratuit:3756;label-date:01/02/2003,label:musee de france,
8211202,59127408,Musée des arts et traditions populaires,1,Rue de l'Abbaye,82200,Moissac,France,fr,closed,44.10574095,1.0849678812128933,,,,2016,payant:;gratuit:;label-date:01/02/2003,label:musee de france,
4401501,,"Musée de la Fève, Crèches et Traditions Populaires",,,,BLAIN,France,fr,open,,,,,,2016,payant:829;gratuit:221;label-date:01/02/2003,label:musee de france,
4416801,,Musées du Parc Naturel Régional de Brière,,,,SAINT-JOACHIM,France,fr,closed,,,,,,2016,payant:;gratuit:;label-date:01/02/2003,label:musee de france,
4909901,1782756206,Musée d'Art et d'Histoire,,Avenue de l’Abreuvoir,49300,Cholet,France,fr,open,47.0583944,-0.8807128,,,,2016,payant:1796;gratuit:14977;label-date:06/04/2002,label:musee de france,
5313001,3773677487,Musée du Vieux Château,,Rue du Val de Mayenne,53000,Laval,France,fr,open,48.068577,-0.7707286,,,,2016,payant:9986;gratuit:23638;label-date:01/02/2003,label:musee de france,
7218102,2088806259,Musée de la Reine Bérengère,7,Rue de la Reine Bérengère,72000,Le Mans,France,fr,open,48.0089768,0.1976955,,,,2016,payant:1551;gratuit:10322;label-date:06/01/2002,label:musee de france,
8514601,76083845,Musée du Nord de la Vendée,,Place de l'Hôtel de Ville,85600,Montaigu,France,fr,open,46.974196,-1.3132451686989501,,,,2016,payant:0;gratuit:100;label-date:01/02/2003,label:musee de france,
0407001,570290612,Musée Gassendi,64,Boulevard Gassendi,04000,Digne-les-Bains,France,fr,open,44.09366125,6.238406603731345,,,,2016,payant:2206;gratuit:16493;label-date:01/02/2003,label:musee de france,
0600402,68051130,Musée d'Histoire et d'Archéologie,,Place Mariejol,06600,Antibes,France,fr,open,43.58070895,7.128259617884984,,,,2016,payant:4996;gratuit:5571;label-date:01/02/2003,label:musee de france,
0601801,1416739719,Musée Fernand Léger,,Chemin du Val de Pome,06410,Biot,France,fr,open,43.6212652,7.1123586,,,,2016,payant:13238;gratuit:15244;label-date:06/01/2002,label:musee de france,
0602701,63863191,Musée-Château de Cagnes,,Chemin des Collettes,06800,Cagnes-sur-Mer,France,fr,open,43.667673699999995,7.156948252321393,,,,2016,payant:14179;gratuit:9451;label-date:01/02/2003,label:musee de france,
0602901,64917198,Musée de la Castre,,Place de la Castre,,Cannes,France,fr,open,43.5501472,7.010204428560124,,,,2016,payant:12271;gratuit:11424;label-date:01/02/2003,label:musee de france,
0603001,67152119,Musée Bonnard,,Rue des Prés,06110,Le Cannet,France,fr,open,43.576493400000004,7.019928487377124,,,,2016,payant:22613;gratuit:8794;label-date:06/12/2006,label:musee de france,
0608805,,Musée Archéologique - Site de  Cimiez,,,,NICE,France,fr,open,,,,,,2016,payant:3959;gratuit:24729;label-date:01/02/2003,label:musee de france,
0608808,578023554,Musée du Palais Lascaris,15,Rue Droite,06300,Nice,France,fr,open,43.6974774,7.2772468,,,,2016,payant:15825;gratuit:15399;label-date:01/02/2003,label:musee de france,
1301103,446697908,Musée d'Histoire et d'Archéologie des Baux-de-Provence,,Place Louis Jou,13520,Les Baux-de-Provence,France,fr,open,43.74474145,4.794991401666666,,,,2016,payant:286086;gratuit:0;label-date:01/02/2003,label:musee de france,
1305502,,Musée du Vieux Marseille,,,,MARSEILLE,France,fr,closed,,,,,,2016,payant:;gratuit:;label-date:01/02/2003,label:musee de france,
1310001,6214739885,Musée des Alpilles,,Rue du Parage,13210,Saint-Rémy-de-Provence,France,fr,open,43.7894582,4.8308012,,,,2016,payant:3195;gratuit:7072;label-date:01/02/2003,label:musee de france,
0500301,,Musée du Vieux Queyras,,,,AIGUILLES,France,fr,closed,,,,,,2016,payant:;gratuit:;label-date:01/02/2003,label:musee de france,
0506101,1255767096,Musée Départemental des Hautes-Alpes,,Avenue du Maréchal Foch,05000,Gap,France,fr,open,44.5622653,6.0858366,,,,2016,payant:0;gratuit:17986;label-date:01/02/2003,label:musee de france,
8305002,,Musée de la Société d’Etudes Scientifiques et Achéologiques,,,,DRAGUIGNAN,France,fr,closed,,,,,,2016,payant:;gratuit:;label-date:01/02/2003,label:musee de france,
8305004,2391557653,Musée de l'Artillerie,,Avenue des Ecoles Militaires,83300,Draguignan,France,fr,open,43.5269481,6.497204,,,,2016,payant:0;gratuit:21124;label-date:05/07/2006,label:musee de france,
8313703,2196651226,Musée d'Art et d'Archéologie,113,Boulevard Général Leclerc,83000,Toulon,France,fr,open,43.1263031,5.9272107,,,,2016,payant:0;gratuit:31411;label-date:01/02/2003,label:musee de france,
8400702,309712990,Musée du Petit Palais,,Rue Ferruce,84000,Avignon,France,fr,open,43.9527473,4.8063438,,,,2016,payant:13691;gratuit:15567;label-date:01/02/2003,label:musee de france,
8403105,1802571381,Musée Sobirats,,Rue du Collège,84200,Carpentras,France,fr,open,44.054376,5.046289,,,,2016,payant:296;gratuit:661;label-date:01/02/2003,label:musee de france,
8406801,,Musée Philippe de Girard,,,,LOUMARIN - CADENET,France,fr,closed,,,,,,2016,payant:;gratuit:;label-date:01/02/2003,label:musee de france,
8412301,749483617,Musée Municipal,,Rue du Musée,84390,Sault,France,fr,open,44.0911406,5.4084718,,,,2016,payant:0;gratuit:757;label-date:01/02/2003,label:musee de france,
8413801,1936611150,Musée Départemental du Cartonnage et de l'Imprimerie,,Avenue Maréchal Foch,84600,Valréas,France,fr,open,44.382611,4.987426,,,,2016,payant:3656;gratuit:940;label-date:01/02/2003,label:musee de france,
9750202,,Musée de l'Arche,,,,SAINT-PIERRE ET MIQUELON,France,fr,open,,,,,,2016,payant:2609;gratuit:1629;label-date:01/02/2003,label:musee de france,
