id,osm_id,name,number,street,postal_code,city,country,country_code,status,lat,lon,website,phone,fax,annee,stats,tags,description
6706101,2399054638,Musée de Bouxwiller et du pays de hanau,,Rue du Canal,67330,Bouxwiller,France,fr,open,48.8249535,7.4835103,,,,2013,payant:5106;gratuit:0;label-date:01/02/2003,label:musee de france,
6748206,491674514,Musée de l'Œuvre Notre-Dame,,Rue du Dévidoir,67065,Strasbourg,France,fr,open,48.580848200000005,7.751242401547248,,,,2013,payant:15657;gratuit:22897;label-date:01/02/2003,label:musee de france,
6748208,239813123,Musée Alsacien,23,Quai Saint-Nicolas,67065,Strasbourg,France,fr,open,48.5791319,7.7506043,,,,2013,payant:30492;gratuit:31869;label-date:01/02/2003,label:musee de france,
6754401,167263621,Musée Westercamp,,Rue du Musée,67160,Wissembourg,France,fr,open,49.0389525,7.944872205882353,,,,2013,payant:0;gratuit:5576;label-date:01/02/2003,label:musee de france,
6806603,47576073,Musée Bartholdi,30,Rue des Marchands,68000,Colmar,France,fr,open,48.0766092,7.357482163734775,,,,2013,payant:11458;gratuit:4817;label-date:01/02/2003,label:musee de france,
6822401,343385574,Musée des Beaux-Arts,,Rue Guillaume Tell,68100,Mulhouse,France,fr,open,47.7457898,7.3384212,,,,2013,payant:0;gratuit:18405;label-date:01/02/2003,label:musee de france,
6823101,6795990385,Musée Vauban,,Place de la Porte de Belfort,68600,Neuf-Brisach,France,fr,open,48.0153387,7.526694,,,,2013,payant:2151;gratuit:0;label-date:01/02/2003,label:musee de france,
6824801,,Maison du Sundgau - Musée Paysan,,,,OLTINGUE,France,fr,open,,,,,,2013,payant:895;gratuit:300;label-date:01/02/2003,label:musee de france,
6827702,1138681,Musée du Dolder,16,Rue du Général de Gaulle,68340,Riquewihr,France,fr,open,48.166885,7.298560434089087,,,,2013,payant:1666;gratuit:467;label-date:01/02/2003,label:musee de france,
6827801,1936849476,Musée du Papier Peint,28,Rue Zuber,68170,Rixheim,France,fr,open,47.7444268,7.3972851,,,,2013,payant:7148;gratuit:4857;label-date:01/02/2003,label:musee de france,
6833401,218472174,Musée des Amis de Thann,,Rue du Parc,68470,Husseren-Wesserling,France,fr,open,47.885102,6.996263986308496,,,,2013,payant:597;gratuit:1325;label-date:01/02/2003,label:musee de france,
6834301,261857352,Ecomusée d'Alsace,,Chemin des Remparts,68190,Ungersheim,France,fr,open,47.85306625,7.2871333354354615,,,,2013,payant:158563;gratuit:21390;label-date:01/02/2003,label:musee de france,
2415201,4364598320,Musée Paul Reclus,,Rue Paul Reclus,24250,Domme,France,fr,open,44.8028038,1.2138053,,,,2013,payant:141;gratuit:13569;label-date:01/02/2003,label:musee de france,
3305801,,Musée d'Art et d'Histoire du Pays Blayais,,,,BLAYE,France,fr,closed,,,,,,2013,payant:;gratuit:;label-date:01/02/2003,label:musee de france,
3306304,80024893,Musée d'Aquitaine,,Musée d'Aquitaine,33000,Bordeaux,France,fr,open,44.8356189,-0.5746906101232725,,,,2013,payant:16796;gratuit:130263;label-date:06/01/2002,label:musee de france,
3354701,161041079,Musée Municipal,,Impasse Dupeyron,33730,Villandraut,France,fr,closed,44.457179,-0.372994201515152,,,,2013,payant:;gratuit:;label-date:01/02/2003,label:musee de france,
4019401,102618114,Musée de la Chalosse,480,Chemin du Sala,40380,Montfort-en-Chalosse,France,fr,open,43.71570595,-0.8337172286260439,,,,2013,payant:5729;gratuit:2412;label-date:01/02/2003,label:musee de france,
4719501,175744724,Musée du Château Henri IV,3,Rue Sederie,47600,Nérac,France,fr,open,44.1360265,0.3418098475080772,,,,2013,payant:17469;gratuit:8353;label-date:01/02/2003,label:musee de france,
4729201,5827779554,Musée de Préhistoire Mésolithique Laurent Coulonges,,D 68,47500,Sauveterre-la-Lémance,France,fr,open,44.5904194,1.0137463,,,,2013,payant:2836;gratuit:663;label-date:01/02/2003,label:musee de france,
6410202,72701913,Musée Bonnat-Helleu - Musée des Beaux-Arts de Bayonne,,Rue Frédéric Bastiat,64100,Bayonne,France,fr,closed,43.49209785,-1.4720849092568902,,,,2013,payant:;gratuit:;label-date:01/02/2003,label:musee de france,
6416001,209763123,Musée Edmond Rostand,,Avenue du Docteur Alexandre Camino,64250,Larressore,France,fr,open,43.36763065,-1.422666450245681,,,,2013,payant:72065;gratuit:11321;label-date:01/02/2003,label:musee de france,
6444503,6815484814,Musée National du Château,,Rue Mathieu Lalanne,64000,Pau,France,fr,open,43.2977315,-0.3645267,,,,2013,payant:52299;gratuit:38269;label-date:06/01/2002,label:musee de france,
6444501,,Musée Municipal des Beaux-Arts,,,,PAU,France,fr,open,,,,,,2013,payant:7207;gratuit:10219;label-date:01/02/2003,label:musee de france,
6444502,62924897,Musée Bernadotte,8,Rue Tran,64000,Pau,France,fr,open,43.2973383,-0.37256092903587607,,,,2013,payant:1345;gratuit:3205;label-date:01/02/2003,label:musee de france,
0331002,90587179,Musée des Arts D'Afrique et D'Asie,16,Avenue Thermale,03200,Vichy,France,fr,open,46.128228,3.419954892380618,,,,2013,payant:2980;gratuit:1895;label-date:01/02/2003,label:musee de france,
1516801,6838400485,Ecomusée de Margeride-Haute-Auvergne,,,15320,Ruynes-en-Margeride,France,fr,open,44.9961982,3.207524,,,,2013,payant:7460;gratuit:1467;label-date:01/02/2003,label:musee de france,
6319501,700609620,Musée Départemental de la Céramique Gallo-Romaine,,Rue du Musée,63190,Lezoux,France,fr,open,45.82572555,3.3847440065878374,,,,2013,payant:6673;gratuit:4762;label-date:01/02/2003,label:musee de france,
6324701,,Musée des Peintres de l'Ecole de Murols,,,,MUROL,France,fr,open,,,,,,2013,payant:3913;gratuit:203;label-date:01/02/2003,label:musee de france,
6330003,700609623,Musée Régional d'Auvergne,,Rue Delille,63200,Riom,France,fr,open,45.8949948,3.116100670697047,,,,2013,payant:357;gratuit:1227;label-date:01/02/2003,label:musee de france,
6347001,300341262,Musée Municipal Marcel Sahut,,Rue des Écoles,63530,Volvic,France,fr,closed,45.872425,3.038987176470588,,,,2013,payant:;gratuit:;label-date:01/02/2003,label:musee de france,
2103801,7419064530,Musée Bonaparte,,Place du Château,21130,Auxonne,France,fr,closed,47.1915827,5.3833549,,,,2013,payant:;gratuit:;label-date:01/02/2003,label:musee de france,
2111401,272998829,Musée de la Sidérurgie Grande Forge,,D 905,21500,Buffon,France,fr,closed,47.64955205,4.261698831211838,,,,2013,payant:;gratuit:;label-date:01/02/2003,label:musee de france,
2142502,,Musée des Beaux-Arts,,,,MONTBARD,France,fr,open,,,,,,2013,payant:0;gratuit:1770;label-date:01/02/2003,label:musee de france,
5806202,3618004518,Musée du Costume,,Place du Château,58120,Château-Chinon (Ville),France,fr,open,47.0672537,3.9351818,,,,2013,payant:3881;gratuit:1527;label-date:01/02/2003,label:musee de france,
5821501,,Musée Ernest Guédon,,,,POUILLY-SUR-LOIRE,France,fr,closed,,,,,,2013,payant:;gratuit:;label-date:01/02/2003,label:musee de france,
5830401,1356183136,Musée Auguste Grasset,,Rue de la Caserne,58210,Varzy,France,fr,open,47.3586963,3.3887096,,,,2013,payant:2288;gratuit:0;label-date:01/02/2003,label:musee de france,
7101403,3234274490,Musée Lapidaire Saint-Nicolas,,Rue Saint-Nicolas,71400,Autun,France,fr,closed,46.9553471,4.3003744,,,,2013,payant:;gratuit:;label-date:01/02/2003,label:musee de france,
7101401,7419064532,Musée Verger Tarin,,Rue des Marbres,71400,Autun,France,fr,closed,46.9490737,4.3029239,,,,2013,payant:;gratuit:;label-date:01/02/2003,label:musee de france,
7107601,,Musée Denon,,,,CHALON-SUR-SAONE,France,fr,open,,,,,,2013,payant:0;gratuit:9937;label-date:01/02/2003,label:musee de france,
7110602,2239784876,Musée du Prieuré de Charolles,4,Rue du Prieuré,71120,Charolles,France,fr,open,46.4323423,4.2799145,,,,2013,payant:1148;gratuit:1260;label-date:01/02/2003,label:musee de france,
7113701,142255492,Musée d'Art et d'Archéologie,,Place Notre-Dame,60300,Senlis,France,fr,open,49.2064225,2.5866285006288354,,,,2013,payant:8865;gratuit:5288;label-date:01/02/2003,label:musee de france,
7127001,700244362,Musée des Ursulines,,Rue des Ursulines,71000,Saint-Clément,France,fr,open,46.307027,4.833142197130883,,,,2013,payant:1974;gratuit:20177;label-date:01/02/2003,label:musee de france,
7134201,121382168,Musée Eucharistique du Hiéron,13,Rue de la Paix,71600,Paray-le-Monial,France,fr,open,46.45203975,4.12306320795283,,,,2013,payant:3593;gratuit:3518;label-date:01/02/2003,label:musee de france,
7135101,3617522815,Ecomusée de la Bresse Bourguignonne,,Rue du Château,71270,Pierre-de-Bresse,France,fr,open,46.8828547,5.2614005,,,,2013,payant:25249;gratuit:17980;label-date:01/02/2003,label:musee de france,
7127201,6575800688,Musée Départemental du Compagnonnage,,Rue Pierre François Guillon,71570,Romanèche-Thorins,France,fr,open,46.1880514,4.733891,,,,2013,payant:2137;gratuit:1635;label-date:01/02/2003,label:musee de france,
8902403,1256497741,Musée Leblanc-Duvernois,,Rue Gaston Gallimard,89600,Saint-Florentin,France,fr,open,48.0013166,3.7283151,,,,2013,payant:0;gratuit:882;label-date:01/02/2003,label:musee de france,
8936801,2598935771,Musée Colette,,Place du Château,89520,Saint-Sauveur-en-Puisaye,France,fr,open,47.6173071,3.1989776,,,,2013,payant:6121;gratuit:1057;label-date:01/02/2003,label:musee de france,
8941801,70591575,Musée Municipal de Tonnerre,,Rue du Prieuré,89700,Tonnerre,France,fr,closed,47.856170750000004,3.9753439945533167,,,,2013,payant:;gratuit:;label-date:01/02/2003,label:musee de france,
8944601,2628533133,Musée Zervos - Maison Romain Rolland,,,89450,Vézelay,France,fr,open,47.4638215,3.743302,,,,2013,payant:2110;gratuit:6766;label-date:01/02/2003,label:musee de france,
5618101,2854735858,Musée National de la Marine,,Grand pont,56290,Port-Louis,France,fr,open,47.7102292,-3.3642103,,,,2013,payant:33877;gratuit:26931;label-date:01/02/2003,label:musee de france,
5626002,145189774,Musée d'Histoire et d'Archéologie de Vannes,2,Rue Noé,56000,Vannes,France,fr,open,47.6568685,-2.7579838224637703,,,,2013,payant:2162;gratuit:4507;label-date:01/02/2003,label:musee de france,
1803306,6604772585,Musée des Meilleurs Ouvriers de France,,Place Étienne Dolet,18000,Bourges,France,fr,open,47.0814193,2.3993842,,,,2013,payant:0;gratuit:18298;label-date:01/02/2003,label:musee de france,
1827901,622149606,Musée Municipal,,Rue de la Société Française,18100,Vierzon,France,fr,open,47.2249147,2.0602204,,,,2013,payant:0;gratuit:7088;label-date:01/02/2003,label:musee de france,
3601001,,Château Musée,,,,AZAY-LE-FERRON,France,fr,open,,,,,,2013,payant:12295;gratuit:2739;label-date:01/02/2003,label:musee de france,
3604401,,Musées de Châteauroux - Hôtel Bertrand,,,,CHATEAUROUX,France,fr,open,,,,,,2013,payant:236;gratuit:17195;label-date:01/02/2003,label:musee de france,
3707201,62476444,Musée du Vieux Chinon,,Rue Voltaire,37500,Chinon,France,fr,open,47.167215049999996,0.23917757377302834,,,,2013,payant:754;gratuit:742;label-date:01/02/2003,label:musee de france,
3722601,2180497491,Musée Municipal,1,Rue de la Paix,37800,Maillé,France,fr,open,47.0523157,0.5806916,,,,2013,payant:0;gratuit:256;label-date:01/02/2003,label:musee de france,
3724801,1935506460,Musée François Rabelais,,Rue de La Devinière,37500,Seuilly,France,fr,open,47.1405133,0.1784807,,,,2013,payant:8913;gratuit:3594;label-date:30/04/2002,label:musee de france,
3726105,40514601,Musée du Compagnonnage,2,Place Anatole France,37000,Tours,France,fr,open,47.39641815,0.6869935971502714,,,,2013,payant:26217;gratuit:17016;label-date:01/02/2003,label:musee de france,
3726102,73677174,Musée des Beaux-Arts,,Rue Fleury,37000,Tours,France,fr,open,47.39526145000001,0.6950591874529539,,,,2013,payant:17547;gratuit:36723;label-date:06/01/2002,label:musee de france,
4502801,7689503538,Musée Daniel Vannier,,Place Dunois,45190,Beaugency,France,fr,closed,47.7777641,1.6336664,,,,2013,payant:;gratuit:;label-date:01/02/2003,label:musee de france,
4508201,91175188,Musée de la Marine de Loire,,Allée de Lamballe,45110,Châteauneuf-sur-Loire,France,fr,open,47.864703,2.2173067297297298,,,,2013,payant:7403;gratuit:3769;label-date:01/02/2003,label:musee de france,
4520301,,Musée Gaston Couté,,,,MEUNG-SUR-LOIRE,France,fr,open,,,,,,2013,payant:0;gratuit:2264;label-date:01/02/2003,label:musee de france,
4520801,95074878,Musée du Gatinais,2,Rue du Faubourg de la Chaussée,45200,Montargis,France,fr,closed,47.997254999999996,2.7365194242424016,,,,2013,payant:;gratuit:;label-date:27/12/2002,label:musee de france,
4523402,367781410,Musée Historique et Archéologique,41,South Orleans Road,02653,Orleans,United States,us,open,41.7878404,-69.987513,,,,2013,payant:997;gratuit:8165;label-date:01/02/2003,label:musee de france,
0805301,1874188907,Musée de la Maison de la Dernière Cartouche,,Avenue de la Dernière Cartouche,08140,Bazeilles,France,fr,open,49.6817859,4.9754729,,,,2013,payant:1173;gratuit:865;label-date:01/02/2003,label:musee de france,
0840901,1874188907,Musée du Château-Fort,,Avenue de la Dernière Cartouche,08140,Bazeilles,France,fr,open,49.6817859,4.9754729,,,,2013,payant:50794;gratuit:1777;label-date:01/02/2003,label:musee de france,
5206001,,Musée Municipal,,,,BOURBONNE-LES-BAINS,France,fr,open,,,,,,2013,payant:0;gratuit:2403;label-date:01/02/2003,label:musee de france,
5145401,733881096,Musée des Beaux-Arts de Saint-Denis,,,51100,Reims,France,fr,open,49.252981500000004,4.030427080857688,,,,2013,payant:21312;gratuit:29699;label-date:06/01/2002,label:musee de france,
2B16901,,Musée Départemental Pascal Paoli,,,,MOROSAGLIA,France,fr,open,,,,,,2013,payant:7136;gratuit:2351;label-date:01/02/2003,label:musee de france,
2505607,7345774337,Muséum de Besançon,,Chemin de Ronde de la Citadelle,25000,Besançon,France,fr,open,47.2285217,6.034794,,,,2013,payant:240320;gratuit:28107;label-date:01/02/2003,label:musee de france,
2505605,6354947603,Musée de la résistance et de la Déportation,,Chemin de Ronde de la Citadelle,25000,Besançon,France,fr,open,47.2290324,6.0349109,,,,2013,payant:51706;gratuit:0;label-date:01/02/2003,label:musee de france,
2505601,9493688,Musée des Beaux-Arts et d'Archéologie,,Place de la Révolution,25000,Besançon,France,fr,open,47.2402151,6.023512568897798,,,,2013,payant:12;gratuit:44878;label-date:06/01/2002,label:musee de france,
7012201,87526037,Musée Départemental Albert-et-Félicie Demard - ATP,,Place de la Mairie,70600,Champlitte,France,fr,open,47.61684495,5.514228248646819,,,,2013,payant:6627;gratuit:5308;label-date:01/02/2003,label:musee de france,
7027901,7508378482,Musée Baron Martin,,Tertre du Château,70100,Gray,France,fr,open,47.4464565,5.5938421,,,,2013,payant:3548;gratuit:2658;label-date:01/02/2003,label:musee de france,
3901302,2637893946,Musée de la Vigne et du Vin,,Passage Saint-Vernier,39600,Arbois,France,fr,open,46.9035466,5.7751443,,,,2013,payant:3795;gratuit:2576;label-date:01/02/2003,label:musee de france,
3930002,631011962,Musée des Beaux-Arts,,Place Philibert de Chalon,39000,Lons-le-Saunier,France,fr,open,46.6760636,5.5535325,,,,2013,payant:790;gratuit:2902;label-date:01/02/2003,label:musee de france,
3943401,7554007745,Musée Municipal de Poligny,49,Grande Rue,39800,Poligny,France,fr,closed,46.8364264,5.708932,,,,2013,payant:;gratuit:;label-date:01/02/2003,label:musee de france,
9712003,65839623,Musée l'Herminier,,Rue Sadi Carnot,97110,Pointe-à-Pitre,France,fr,closed,16.238335,-61.537012293084736,,,,2013,payant:;gratuit:;label-date:01/02/2003,label:musee de france,
9712002,,Musée Départemental Victor Schoelcher,,,,POINTE-A-PITRE,France,fr,open,,,,,,2013,payant:4669;gratuit:3518;label-date:01/02/2003,label:musee de france,
9730901,9598387,Musée des Cultures Guyanaises,54,Rue Madame Payé,97300,Cayenne,France,fr,open,4.9412531,-52.32960007270078,,,,2013,payant:1103;gratuit:8823;label-date:01/02/2003,label:musee de france,
9122301,3407370497,Musée Intercommunal d'Etampes,,Chemin du Fourneou,91590,Cerny,France,fr,open,48.4959939,2.343302,,,,2013,payant:616;gratuit:6062;label-date:01/02/2003,label:musee de france,
9204801,137829073,Musée d'Art et d'Histoire,11,Rue des Pierres,92190,Meudon,France,fr,open,48.806285,2.2350911702464784,,,,2013,payant:3318;gratuit:7063;label-date:01/02/2003,label:musee de france,
9206303,,Musée d'Histoire Locale - Mémoire de la Ville,,,,RUEIL-MALMAISON,France,fr,open,,,,,,2013,payant:0;gratuit:3812;label-date:01/02/2003,label:musee de france,
9207201,7325289618,Cité de la céramique - Sèvres & Limoges,,Rue de la Cité,79000,Niort,France,fr,open,46.312254,-0.4461027,,,,2013,payant:23858;gratuit:22331;label-date:06/01/2002,label:musee de france,
7510512,7444,Galerie d’entomologie (Muséum national d'histoire naturelle),,,,Paris,France,fr,closed,48.8566969,2.3514616,,,,2013,payant:;gratuit:;label-date:06/01/2002,label:musee de france,
7511603,,Etablissement Public du Musée des Arts Asiatiques Guimet,,,,PARIS,France,fr,open,,,,,,2013,payant:219929;gratuit:168693;label-date:06/01/2002,label:musee de france,
7510901,251318666,Musée National Gustave Moreau,,Rue de La Rochefoucauld,75009,Paris,France,fr,open,48.8779237,2.3345515,,,,2013,payant:10273;gratuit:12102;label-date:06/01/2002,label:musee de france,
7510517,237003117,Musée de l'Assistance Publique - Hôpitaux de Paris,,Quai de la Tournelle,75005,Paris,France,fr,closed,48.850724,2.3518758,,,,2013,payant:;gratuit:;label-date:02/10/2002,label:musee de france,
7510706,895871273,Musée National de la Légion d'Honneur et des Ordres de Chevalerie,,Rue de la Légion d'Honneur,75007,Paris,France,fr,open,48.8602845,2.3247488,,,,2013,payant:0;gratuit:49531;label-date:06/01/2002,label:musee de france,
7510905,84511123,Musée de la Vie Romantique,16,Rue Chaptal,75009,Paris,France,fr,open,48.88120505,2.333539383011497,,,,2013,payant:6455;gratuit:69212;label-date:08/07/2004,label:musee de france,
7511502,1212876,Musée Bourdelle,16,Rue Antoine Bourdelle,75015,Paris,France,fr,open,48.843215,2.318663236817872,,,,2013,payant:12433;gratuit:54170;label-date:08/07/2004,label:musee de france,
7510703,472159547,Musée National Auguste Rodin,,Rue de Varenne,75007,Paris,France,fr,open,48.85474735,2.3158669998625365,,,,2013,payant:442403;gratuit:247479;label-date:06/01/2002,label:musee de france,
7511201,,Etablissement public de la Porte Dorée - Aquarium Tropical,,,,PARIS,France,fr,open,,,,,,2013,payant:137305;gratuit:75192;label-date:06/01/2002,label:musee de france,
7511202,,Établissement Public de la Porte Dorée - Cité Nationale de l’Histoire de l’Immigration,,,,PARIS,France,fr,open,,,,,,2013,payant:38486;gratuit:53594;label-date:16/11/2006,label:musee de france,
7510106,7515426,Musée du Louvre,,Rue Croix des Petits Champs,75001,Paris,France,fr,open,48.8611473,2.33802768704666,,,,2013,payant:5635387;gratuit:3498880;label-date:06/01/2002,label:musee de france,
7510602,395785603,Musée National Eugène Delacroix,,Rue Jacob,75006,Paris,France,fr,open,48.85464155,2.335393670592886,,,,2013,payant:42756;gratuit:21652;label-date:06/01/2002,label:musee de france,
7510807,,"Musée Cernuschi, Musée des Arts de l'Asie de la ville de Paris",,,,PARIS,France,fr,open,,,,,,2013,payant:25254;gratuit:50683;label-date:08/07/2004,label:musee de france,
7510305,57745741,Musée National Picasso,5,Rue de Thorigny,75003,Paris,France,fr,closed,48.8598698,2.3621151762679444,,,,2013,payant:;gratuit:;label-date:06/01/2002,label:musee de france,
7510107,,Musée de la Mode et du Textile (Union Centrale des Arts Décoratifs),,,,PARIS,France,fr,open,,,,,,2013,payant:;gratuit:;label-date:06/01/2002,label:musee de france,
7511620,,Musée National du Sport (transfert à Nice),,,,PARIS,France,fr,closed,,,,,,2013,payant:;gratuit:;label-date:16/12/2003,label:musee de france,
7510304,5918699678,Musée National des Techniques,,Rue Joliot-Curie,91190,Le Moulon,France,fr,open,48.7094092,2.1666145,,,,2013,payant:134156;gratuit:155230;label-date:06/01/2002,label:musee de france,
7510516,1142933435,Musée du Service de Santé des Armées du Val-de-Grâce,1,Place Alphonse Laveran,75005,Paris,France,fr,open,48.8403652,2.3414281,,,,2013,payant:8423;gratuit:9020;label-date:06/12/2006,label:musee de france,
7510709,17954721,Musée du Quai Branly - Jacques Chirac,37,Quai Branly,75007,Paris,France,fr,open,48.8609943,2.297969635195826,,,,2013,payant:334417;gratuit:735042;label-date:09/12/2004,label:musee de france,
7702201,113288014,Musée Départemental de l'Ecole de Barbizon - Auberge Ganne,92,Grande Rue,77630,Barbizon,France,fr,open,48.4461862,2.602608897820088,,,,2013,payant:11754;gratuit:7079;label-date:01/02/2003,label:musee de france,
7728803,112363959,Musée de la Gendarmerie Nationale,1-3,Rue Émile Leclerc,77000,Melun,France,fr,closed,48.54554555,2.6529119346368715,,,,2013,payant:;gratuit:;label-date:14/01/2011,label:musee de france,
7744501,4895409053,Ecomusée,,Rue de la Libération,77176,Savigny-le-Temple,France,fr,open,48.5745236,2.5833427,,,,2013,payant:665;gratuit:7914;label-date:01/02/2003,label:musee de france,
9304801,4247776290,Musée de l'Histoire Vivante,31,Boulevard Théophile Sueur,93100,Bobigny,France,fr,open,48.8660128,2.4718198,,,,2013,payant:;gratuit:;label-date:01/02/2003,label:musee de france,
9406801,,Musée de Saint-Maur - Villa Médicis,,,,LA VARENNE-SAINT-HILAIRE,France,fr,open,,,,,,2013,payant:104;gratuit:9044;label-date:11/01/2003,label:musee de france,
9550002,41467265,Musée Camille Pissarro,17,Rue du Château,95300,Pontoise,France,fr,open,49.0482376,2.0999530104316726,,,,2013,payant:0;gratuit:4003;label-date:01/02/2003,label:musee de france,
7842001,,Musée-Maison Maurice Ravel,,,,MONTFORT-L'AMAURY,France,fr,open,,,,,,2013,payant:1913;gratuit:0;label-date:01/02/2003,label:musee de france,
7820801,1290290099,Musée de la Ville,,Quai François Truffaut,78180,Montigny-le-Bretonneux,France,fr,open,48.7831521,2.042426,,,,2013,payant:4241;gratuit:3759;label-date:01/02/2003,label:musee de france,
7864602,,Etablissement Public du Musée et du Domaine National de Versailles,,,,VERSAILLES,France,fr,open,,,,,,2013,payant:5663007;gratuit:1904001;label-date:06/01/2002,label:musee de france,
1104901,1722803126,Eburomagus Musée Archéologique,2,Avenue du Razès,11150,Bram,France,fr,open,43.2438113,2.1161341,,,,2013,payant:1747;gratuit:1366;label-date:23/02/2012,label:musee de france,
1106901,842466709,Musée des Beaux-Arts,,Rue de Verdun,11000,Carcassonne,France,fr,open,43.212599,2.3550441,,,,2013,payant:0;gratuit:49366;label-date:01/02/2003,label:musee de france,
1137901,,Musée des Corbières,,,,SIGEAN,France,fr,open,,,,,,2013,payant:265;gratuit:667;label-date:01/02/2003,label:musee de france,
3020202,73758873,Musée Départemental d'Art Sacré du Gard,,Rue Saint-Jacques,30130,Pont-Saint-Esprit,France,fr,open,44.25521465,4.65104364282573,,,,2013,payant:152;gratuit:9041;label-date:01/02/2003,label:musee de france,
3025801,3549720940,Musée de la Maison Romane,,Rue Maison Romane,30800,Saint-Gilles,France,fr,open,43.6769345,4.4310858,,,,2013,payant:1360;gratuit:1335;label-date:01/02/2003,label:musee de france,
3033401,2910313011,Musée Municipal Georges Borias,,Promendade Racine,30700,Uzès,France,fr,open,44.0124548,4.422769,,,,2013,payant:1831;gratuit:1356;label-date:01/02/2003,label:musee de france,
3410801,1964228636,Musée Municipal,27,Quai du Maréchal de Lattre de Tassigny,34200,Sète,France,fr,closed,43.4060674,3.6961935,,,,2013,payant:;gratuit:;label-date:01/02/2003,label:musee de france,
3412901,,Site Archéologique Lattara - Musée Henri Prades de Montpellier Agglomération,,,,LATTES,France,fr,open,,,,,,2013,payant:15792;gratuit:10758;label-date:01/02/2003,label:musee de france,
3400302,1131132,Musée de l'Ephèbe,,Place du Père Marcel Astruc,34300,Agde,France,fr,open,43.2868906,3.5137320418987343,,,,2013,payant:9060;gratuit:6899;label-date:01/02/2003,label:musee de france,
3417203,1226892,Musée Fabre,,Cour de la Mosaïque,34062,Montpellier,France,fr,open,43.6117542,3.8801274326001858,,,,2013,payant:195794;gratuit:86275;label-date:06/01/2002,label:musee de france,
3417901,239313434,Musée Archéologique Paul Soyris,,Rue de la Mairie,34570,Murviel-lès-Montpellier,France,fr,open,43.604634,3.737293733606559,,,,2013,payant:115;gratuit:440;label-date:01/02/2003,label:musee de france,
3428401,178387339,Musée de Préhistoire Régionale et du Mégalithisme,,Passage de la Pourtanelle,34220,Saint-Pons-de-Thomières,France,fr,open,43.488682499999996,2.758707373774508,,,,2013,payant:923;gratuit:658;label-date:01/02/2003,label:musee de france,
6604902,2004488993,Musée départemental d'Art Moderne,,Boulevard du Maréchal Joffre,66400,Céret,France,fr,open,42.4859058,2.7484863,,,,2013,payant:52179;gratuit:25814;label-date:01/02/2003,label:musee de france,
6605301,,Musée d'Art Moderne - Fonds Peskè,,,,COLLIOURE,France,fr,open,,,,,,2013,payant:10505;gratuit:3969;label-date:01/02/2003,label:musee de france,
6613604,81558950,Muséum d'Histoire Naturelle,,Place Joseph Deloncle,66000,Perpignan,France,fr,open,42.69731995,2.8996247968495945,,,,2013,payant:0;gratuit:11811;label-date:01/02/2003,label:musee de france,
5439501,49791497,Musée de l'Ecole de Nancy,,Rue du Sergent Blandan,54100,Nancy,France,fr,open,48.680552000000006,6.166075819038056,,,,2013,payant:24411;gratuit:19700;label-date:01/02/2003,label:musee de france,
5439504,,Palais des ducs de Lorraine - Musée Historique Lorrain,,,,NANCY,France,fr,open,,,,,,2013,payant:26174;gratuit:37053;label-date:01/02/2003,label:musee de france,
5512201,1874334984,Musée de la Céramique et de l'Ivoire,,Avenue Carcano,55200,Commercy,France,fr,open,48.7634869,5.589335,,,,2013,payant:1276;gratuit:394;label-date:01/02/2003,label:musee de france,
5535101,,Musée Jules Bastien-Lepage - Musée de la Fortification,,,,MONTMEDY,France,fr,open,,,,,,2013,payant:13906;gratuit:3055;label-date:01/02/2003,label:musee de france,
5744801,253993536,Musée Départemental du Sel,,D 38A,57630,Marsal,France,fr,open,48.788486,6.6057743,,,,2013,payant:3876;gratuit:9979;label-date:01/02/2003,label:musee de france,
5763102,,Moulin de la Blies - Musée des Techniques Faïencières,,,,SARREGUEMINES,France,fr,open,,,,,,2013,payant:10581;gratuit:13666;label-date:01/02/2003,label:musee de france,
8838302,2582715284,Musée Charles Friry,12,Rue du Général Humbert,88200,Remiremont,France,fr,open,48.0151071,6.5897788,,,,2013,payant:515;gratuit:1883;label-date:11/08/2002,label:musee de france,
0920701,3241536133,Musée de la Forge,,Rue du Rocher,09000,Foix,France,fr,open,42.9657002,1.6047597,,,,2013,payant:31848;gratuit:0;label-date:01/02/2003,label:musee de france,
0926801,2833497965,Musée du Palais des Evêques,,Chemin du Parc,09190,Saint-Lizier,France,fr,open,43.0027248,1.1370459,,,,2013,payant:9644;gratuit:1637;label-date:01/02/2003,label:musee de france,
3201301,65470495,Musée des Jacobins,,Rue Daumesnil,32000,Auch,France,fr,open,43.64730755,0.5875967260305804,,,,2013,payant:4463;gratuit:11770;label-date:01/02/2003,label:musee de france,
3216001,43270337,Musée Campanaire,,Place de l'Hôtel de Ville,32600,L'Isle-Jourdain,France,fr,open,43.6130002,1.082133198397282,,,,2013,payant:6420;gratuit:0;label-date:01/02/2003,label:musee de france,
3223301,4777291860,Musée Joseph Abeilhé,,Place du Chevalier d'Antras,32230,Marciac,France,fr,open,43.5252665,0.1617874,,,,2013,payant:110;gratuit:55;label-date:01/02/2003,label:musee de france,
3147201,3509638044,Musée Archéologique Départemental,,Rue du Musée,31510,Saint-Bertrand-de-Comminges,France,fr,open,43.027071,0.569798,,,,2013,payant:0;gratuit:58393;label-date:01/02/2003,label:musee de france,
3155509,134123637,Muséum d'Histoire Naturelle,,Allée des Justes des Nations,31400,Toulouse,France,fr,open,43.59334975,1.4495300359978467,,,,2013,payant:124863;gratuit:118569;label-date:06/01/2002,label:musee de france,
3155504,22718219,Musée des Augustins,,Rue Antonin Mercié,31000,Toulouse,France,fr,open,43.6009417,1.4463433320120154,,,,2013,payant:47259;gratuit:74857;label-date:06/01/2002,label:musee de france,
4610202,68383015,Musée Champollion - Les Ecriture du Monde,,Impasse Champollion,46100,Figeac,France,fr,open,44.60972575,2.0344712177978126,,,,2013,payant:28935;gratuit:11353;label-date:01/02/2003,label:musee de france,
4618201,,"""Musée Archéologique """"Armand-Viré""""""",,,,LUZECH,France,fr,open,,,,,,2013,payant:386;gratuit:442;label-date:01/02/2003,label:musee de france,
8106901,5168791210,Musée Charles Portal - Histoire et Patrimoine,,Rue Saint-Michel,81170,Cordes-sur-Ciel,France,fr,open,44.0637595,1.9490171,,,,2013,payant:888;gratuit:367;label-date:01/02/2003,label:musee de france,
8114001,,Musée du Pays Vaurais,,,,LAVAUR,France,fr,open,,,,,,2013,payant:2502;gratuit:2838;label-date:01/02/2003,label:musee de france,
8211202,59127408,Musée des arts et traditions populaires,1,Rue de l'Abbaye,82200,Moissac,France,fr,open,44.10574095,1.0849678812128933,,,,2013,payant:0;gratuit:112;label-date:01/02/2003,label:musee de france,
5901401,626582331,Musée Théophile Jouglet,,Rue des Incas,59300,Valenciennes,France,fr,closed,50.3575723,3.5306353,,,,2013,payant:;gratuit:;label-date:01/02/2003,label:musee de france,
5904301,81168271,Musée Benoît de Puydt,,Rue des Viviers,59270,Bailleul,France,fr,open,50.7407272,2.7345033127504697,,,,2013,payant:2375;gratuit:2196;label-date:01/02/2003,label:musee de france,
5918303,76418840,Musée Portuaire,,Rue du Gouvernement,59140,Dunkerque,France,fr,open,51.03788695,2.371791835328942,,,,2013,payant:28590;gratuit:32399;label-date:01/02/2003,label:musee de france,
5920501,1719221067,Musée Municipal d'Escaudain,,Rue Paul Bert,59124,Escaudain,France,fr,open,50.3330601,3.3443559,,,,2013,payant:0;gratuit:327;label-date:01/02/2003,label:musee de france,
5937501,,Musée d'Histoire Locale de Marchiennes,,,,MARCHIENNES,France,fr,open,,,,,,2013,payant:212;gratuit:292;label-date:01/02/2003,label:musee de france,
5951201,,Musée des Beaux-Arts,,,,ROUBAIX,France,fr,open,,,,,,2013,payant:88501;gratuit:104042;label-date:01/02/2003,label:musee de france,
5952601,2060779461,Musée Municipal,,Grand'Place,59230,Saint-Amand-les-Eaux,France,fr,open,50.4489646,3.4287208,,,,2013,payant:0;gratuit:14550;label-date:01/02/2003,label:musee de france,
6211901,8264025342,Musée Régional d'Ethnologie,457,Cours Promenade Kennedy,62700,Bruay-la-Buissière,France,fr,open,50.4787367,2.5372076,,,,2013,payant:0;gratuit:1620;label-date:01/02/2003,label:musee de france,
6226801,244679581,Musée de la Céramique,,Rue Jean Macé,62240,Desvres,France,fr,open,50.666714,1.842068159820283,,,,2013,payant:7001;gratuit:710;label-date:01/02/2003,label:musee de france,
6282601,156284015,Musée Municipal,,Avenue du Château,62520,Le Touquet-Paris-Plage,France,fr,open,50.515136,1.6082098695652083,,,,2013,payant:3336;gratuit:3490;label-date:01/02/2003,label:musee de france,
1411803,6041330527,Musée d'Initiation à la Nature,,Rue du Carel,14000,Caen,France,fr,open,49.1801396,-0.3735491,,,,2013,payant:0;gratuit:7297;label-date:01/02/2003,label:musee de france,
1433301,7179675885,Musée d'Ethnographie et d'Arts Populaires et Musée de la Marine,,Rue de la Prison,14600,Honfleur,France,fr,open,49.4196131,0.233695,,,,2013,payant:16623;gratuit:1029;label-date:01/02/2003,label:musee de france,
1475401,367285600,Paléospace / Musée Paléontologique,,Avenue Jean Moulin,14640,Villers-sur-Mer,France,fr,open,49.32785775000001,0.013359593768197942,,,,2013,payant:33764;gratuit:2611;label-date:01/02/2003,label:musee de france,
5012901,1932681880,Muséum Emmanuel Liais,,Rue de l'Abbaye,50100,Cherbourg-en-Cotentin,France,fr,open,49.6429877,-1.6294662,,,,2013,payant:0;gratuit:13443;label-date:01/02/2003,label:musee de france,
5021801,5864155897,Musée Richard Anacréon,,Rue Notre-Dame,50400,Granville,France,fr,open,48.8385103,-1.6006345,,,,2013,payant:9796;gratuit:6613;label-date:01/02/2003,label:musee de france,
5021802,,Musée du Vieux Granville,,,,GRANVILLE,France,fr,open,,,,,,2013,payant:5702;gratuit:6929;label-date:01/02/2003,label:musee de france,
7616402,2382698870,Maison des Templiers,,Rue Thomas Bazin,76490,Rouen,France,fr,closed,49.5253513,0.7258829,,,,2013,payant:;gratuit:;label-date:01/02/2003,label:musee de france,
7625902,,Musée des Arts & de l'Enfance,,,,FECAMP,France,fr,closed,,,,,,2013,payant:;gratuit:;label-date:01/02/2003,label:musee de france,
7649701,69426369,Musée Départemental Pierre Corneille,502,Rue Pierre Corneille,76650,Petit-Couronne,France,fr,open,49.38956865,1.0212361735096276,,,,2013,payant:725;gratuit:3254;label-date:01/02/2003,label:musee de france,
7654002,64717877,MUNAE - Musée National de l'Education,6,Rue de Bihorel,76000,Rouen,France,fr,open,49.44841715,1.102956596817131,,,,2013,payant:3733;gratuit:5562;label-date:06/01/2002,label:musee de france,
7674201,479793340,Musée Victor Hugo,,Véloroute du Val de Seine,76490,Rouen,France,fr,open,49.5243684,0.7222076852299901,,,,2013,payant:4900;gratuit:7802;label-date:01/02/2003,label:musee de france,
4402101,3339518562,Musée du Pays de Retz,,Rue des Moines,44580,Saint-Nazaire,France,fr,open,47.0422902,-1.9521029,,,,2013,payant:2709;gratuit:388;label-date:01/02/2003,label:musee de france,
4417601,,Maison de l'Eclusier /Parc Naturel Régional de Brière,,,,SAINT-MALO DE GUERSAC,France,fr,closed,,,,,,2013,payant:;gratuit:;label-date:01/02/2003,label:musee de france,
4900702,126922667,Musée Pincé,32,Rue Lenepveu,49100,Angers,France,fr,closed,47.4720515,-0.5520486041666655,,,,2013,payant:;gratuit:;label-date:01/02/2003,label:musee de france,
4900701,126965407,Musée des Beaux-Arts,14,Rue du Musée,49100,Angers,France,fr,open,47.4689171,-0.5545021308806701,,,,2013,payant:18977;gratuit:49644;label-date:06/01/2002,label:musee de france,
4909904,1301987143,Musée du Textile,,Avenue Marcel Cauchy,49300,Cholet,France,fr,open,47.0681455,-0.8982604,,,,2013,payant:5801;gratuit:6563;label-date:06/04/2002,label:musee de france,
4932802,6288432418,Château-Musée,,Passage du Marquis de Geoffre,49730,Montsoreau,France,fr,open,47.2156815,0.0624464,,,,2013,payant:77110;gratuit:19659;label-date:01/02/2003,label:musee de france,
5300301,277287315,Musée des Tisserands Mayennais,,Place Billard de Veaux,53300,Ambrières-les-Vallées,France,fr,open,48.403429,-0.6308390478723407,,,,2013,payant:369;gratuit:43;label-date:01/02/2003,label:musee de france,
5312201,8292313,Musée Archéologique Départemental de Jublains,,Rue de la Libération,53160,Jublains,France,fr,open,48.2545411,-0.4975843742117564,,,,2013,payant:14788;gratuit:12703;label-date:18/07/2002,label:musee de france,
7218101,31113389,Musée de Tessé,2,Avenue de Paderborn,72000,Le Mans,France,fr,open,48.01029025,0.20354701794554617,,,,2013,payant:14882;gratuit:10816;label-date:06/01/2002,label:musee de france,
8501201,,Ecomusée du Marais Breton Vendéen,,,,LA BARRE-DE-MONTS,France,fr,open,,,,,,2013,payant:15733;gratuit:7273;label-date:01/02/2003,label:musee de france,
8515401,,Musée Clemenceau et de Lattre-de-Tassigny,,,,MOUILLERON-EN-PAREDS,France,fr,open,,,,,,2013,payant:1517;gratuit:2856;label-date:06/01/2002,label:musee de france,
0268401,,Musée de la Vie Rurale et Forestière,,,,SAINT-MICHEL-EN-THIERACHE,France,fr,closed,,,,,,2013,payant:;gratuit:;label-date:01/02/2003,label:musee de france,
0269102,,Musée des Beaux-Arts Antoine Lecuyer,,,,SAINT-QUENTIN,France,fr,open,,,,,,2013,payant:2218;gratuit:3464;label-date:01/02/2003,label:musee de france,
0281001,2306316571,Musée Alexandre Dumas,,Rue Démoustier,02600,Villers-Cotterêts,France,fr,open,49.2530103,3.0896156,,,,2013,payant:744;gratuit:1199;label-date:01/02/2003,label:musee de france,
6017601,,Musée de l'Archerie et de l'Art Sacré,,,,CREPY-EN-VALOIS,France,fr,open,,,,,,2013,payant:5149;gratuit:1701;label-date:01/02/2003,label:musee de france,
6061203,5357724995,Musée de la Vénerie,,Place Saint-Maurice,60300,Senlis,France,fr,open,49.2072693,2.5833865,,,,2013,payant:1691;gratuit:3001;label-date:01/02/2003,label:musee de france,
8071601,,Musée Départemental de l'Abbaye de Saint-Riquier,,,,ABBEVILLE,France,fr,closed,,,,,,2013,payant:;gratuit:;label-date:01/02/2003,label:musee de france,
8025301,53222058,Musée Lombart,,Rue du Musée,80600,Doullens,France,fr,open,50.1546836,2.3437442,,,,2013,payant:261;gratuit:4958;label-date:01/02/2003,label:musee de france,
1601502,44840732,Atelier - Musée du Papier,,Rue de Bordeaux,16000,Saint-Cybard,France,fr,open,45.65355635,0.1495325417727163,,,,2013,payant:902;gratuit:19263;label-date:01/02/2003,label:musee de france,
1700401,64991060,Musée Napoléonien et Africain,,Rue des Remparts,17123,Île-d'Aix,France,fr,open,46.01301115,-1.1746563582783416,,,,2013,payant:11319;gratuit:10556;label-date:06/01/2002,label:musee de france,
1729904,90808269,Musée National de la Marine,,Rue Amiral Meyer,17300,Rochefort,France,fr,open,45.9423,-0.9649527857142841,,,,2013,payant:18786;gratuit:19094;label-date:06/01/2002,label:musee de france,
1741503,67102698,Musée Archéologique,,Place Bassompierre,17100,Saintes,France,fr,open,45.745257699999996,-0.6286597158380409,,,,2013,payant:0;gratuit:41081;label-date:01/02/2003,label:musee de france,
7919103,795257552,Musée ethnographique et archéologique du Donjon,26,Avenue de Limoges,79000,Niort,France,fr,open,46.3210536,-0.454416,,,,2013,payant:9030;gratuit:8140;label-date:01/02/2003,label:musee de france,
7919104,795257552,Musée Bernard d’Agesci,26,Avenue de Limoges,79000,Niort,France,fr,open,46.3210536,-0.454416,,,,2013,payant:3845;gratuit:7535;label-date:01/02/2003,label:musee de france,
7920201,7281748506,Musée d'Art et d'Histoire Georges Turpin,1,Rue de la Vau Saint-Jacques,79200,Parthenay,France,fr,open,46.6519796,-0.2493419,,,,2013,payant:0;gratuit:8849;label-date:01/02/2003,label:musee de france,
8606602,2541482016,Musée Municipal de l'Hôtel de Sully,,Rue du Vieux Palais,86100,Châtellerault,France,fr,closed,46.8158293,0.5419934,,,,2013,payant:;gratuit:;label-date:01/02/2003,label:musee de france,
0401901,5820118153,Musée de la vallée,,D 25,04530,Les Prats,France,fr,open,44.5154275,6.7524549,,,,2013,payant:8960;gratuit:2424;label-date:01/02/2003,label:musee de france,
0407001,570290612,Musée Gassendi,64,Boulevard Gassendi,04000,Digne-les-Bains,France,fr,open,44.09366125,6.238406603731345,,,,2013,payant:2776;gratuit:8189;label-date:01/02/2003,label:musee de france,
0408801,5921065703,Musée Municipal,,D 13,04300,Mane,France,fr,open,43.9352027,5.7592489,,,,2013,payant:0;gratuit:700;label-date:01/02/2003,label:musee de france,
0416601,,Musée Archéologique,,,,RIEZ-LA-ROMAINE,France,fr,closed,,,,,,2013,payant:;gratuit:;label-date:01/02/2003,label:musee de france,
0602701,63863191,Musée-Château de Cagnes,,Chemin des Collettes,06800,Cagnes-sur-Mer,France,fr,open,43.667673699999995,7.156948252321393,,,,2013,payant:18629;gratuit:13642;label-date:01/02/2003,label:musee de france,
0602902,2824215844,Musée de la Mer,,Allée des Eucalyptus,06407,Cannes,France,fr,open,43.523904,7.0453202,,,,2013,payant:44519;gratuit:35981;label-date:01/02/2003,label:musee de france,
0606901,67332571,Villa-Musée Jean-Honoré Fragonard,,Impasse Fragonard,06130,Grasse,France,fr,open,43.656642649999995,6.921149488843463,,,,2013,payant:0;gratuit:5931;label-date:01/02/2003,label:musee de france,
0608305,137784549,Musée des Beaux-Arts,,Avenue de la Madone,06500,Menton,France,fr,open,43.766633999999996,7.487974850304882,,,,2013,payant:0;gratuit:22025;label-date:01/02/2003,label:musee de france,
0608304,1837011704,Musée Jean Cocteau Collection Séverin Wunderman,,Quai de Monléon,06500,Menton,France,fr,open,43.7747355,7.5057931,,,,2013,payant:44987;gratuit:18097;label-date:01/02/2003,label:musee de france,
0608303,137783866,Musée de Préhistoire Régionale,,Rue Lieutenant Bosano,06500,Menton,France,fr,open,43.777006,7.503394160358056,,,,2013,payant:0;gratuit:13378;label-date:01/02/2003,label:musee de france,
0608816,140260291,Musée Départemental des Arts Asiatiques,33,Avenue des Baumettes,06000,Nice,France,fr,open,43.694615,7.248872770499375,,,,2013,payant:0;gratuit:72475;label-date:01/02/2003,label:musee de france,
0608805,,Musée Archéologique - Site de  Cimiez,,,,NICE,France,fr,open,,,,,,2013,payant:15511;gratuit:30870;label-date:01/02/2003,label:musee de france,
0608804,708311359,Musée d'Art Naïf Anatole Jakovsky,,Avenue du Rond-Point,06206,Nice,France,fr,open,43.685953749999996,7.232618735926904,,,,2013,payant:0;gratuit:18162;label-date:01/02/2003,label:musee de france,
0608802,2264574278,Musée d'Art et d'Histoire,,Fossés de la Citadelle,06230,Villefranche-sur-Mer,France,fr,open,43.701601,7.3106059,,,,2013,payant:24055;gratuit:52781;label-date:01/02/2003,label:musee de france,
0608810,,Musée Archéologique - Site de Terra Amata,,,,NICE,France,fr,open,,,,,,2013,payant:0;gratuit:23129;label-date:01/02/2003,label:musee de france,
0615501,88040667,"Musée Magnelli, Musée de la Céramique",,Place de la Libération,06220,Vallauris,France,fr,open,43.580016,7.0532145,,,,2013,payant:;gratuit:;label-date:01/02/2003,label:musee de france,
1300101,34505703,Musée du Pavillon de Vendôme,,Rue Cardinale,13626,Aix-en-Provence,France,fr,open,43.5254678,5.4526102,,,,2013,payant:5158;gratuit:11392;label-date:01/02/2003,label:musee de france,
1300107,86887992,Muséum d'Histoire Naturelle,166,Avenue Jean Monnet,13090,Aix-en-Provence,France,fr,open,43.5333952,5.4236948895737775,,,,2013,payant:9203;gratuit:32138;label-date:06/01/2002,label:musee de france,
1300106,,Musée Paul Arbaud,,,,AIX-EN-PROVENCE,France,fr,closed,,,,,,2013,payant:;gratuit:;label-date:01/02/2003,label:musee de france,
1305504,178808268,Musée des Docks Romains,,Place Vivaux,13002,Marseille,France,fr,open,43.29679,5.368048871902269,,,,2013,payant:0;gratuit:9420;label-date:01/02/2003,label:musee de france,
1305507,4945719803,Musée d'Archéologie Méditerranéenne,,Rue de la Vieille Tour,13000,Marseille,France,fr,open,43.3005836,5.3682814,,,,2013,payant:55467;gratuit:60114;label-date:01/02/2003,label:musee de france,
1305509,2365711963,Musée de la Mode,,Avenue Clot Bey,13008,Marseille,France,fr,open,43.2572605,5.3820342,,,,2013,payant:;gratuit:;label-date:01/02/2003,label:musee de france,
1305601,99114044,Musée Ziem,,Boulevard du 14 Juillet,13500,Martigues,France,fr,open,43.408675849999995,5.054218764027318,,,,2013,payant:14083;gratuit:9661;label-date:01/02/2003,label:musee de france,
1309201,,Musée Municipal Paul Lafran,,,,SAINT-CHAMAS,France,fr,open,,,,,,2013,payant:0;gratuit:4487;label-date:01/02/2003,label:musee de france,
1310301,,Musée de l'Empéri de Salon et de la Crau,,,,SALON-DE-PROVENCE,France,fr,open,,,,,,2013,payant:6673;gratuit:33336;label-date:01/02/2003,label:musee de france,
8305002,,Musée de la Société d’Etudes Scientifiques et Achéologiques,,,,DRAGUIGNAN,France,fr,closed,,,,,,2013,payant:;gratuit:;label-date:01/02/2003,label:musee de france,
8306102,171570079,Musée des Troupes de Marine,,Avenue Musée Troupes de la Marine,83600,Fréjus,France,fr,open,43.47196945,6.720701433077389,,,,2013,payant:0;gratuit:14600;label-date:05/07/2006,label:musee de france,
8311801,130473371,Musée Archéologique,,Rue de la Vieille Église,83700,Saint-Raphaël,France,fr,open,43.42600365,6.769243065966667,,,,2013,payant:0;gratuit:28237;label-date:01/02/2003,label:musee de france,
8400301,1933370178,Musée d'Apt,,Place du Postel,84400,Apt,France,fr,open,43.8757289,5.3979308,,,,2013,payant:2666;gratuit:5688;label-date:01/02/2003,label:musee de france,
8400701,83784740,Muséum d'Histoire Naturelle Esprit Requien,27,Rue de la République,84000,Avignon,France,fr,open,43.9458915,4.806026218689352,,,,2013,payant:0;gratuit:13206;label-date:06/01/2002,label:musee de france,
8403105,1802571381,Musée Sobirats,,Rue du Collège,84200,Carpentras,France,fr,open,44.054376,5.046289,,,,2013,payant:333;gratuit:730;label-date:01/02/2003,label:musee de france,
8413901,694831616,Musée-Bibliothèque François Pétrarque,,Chemin de la Fontaine de Vaucluse,84800,Fontaine-de-Vaucluse,France,fr,open,43.9220356,5.1302755,,,,2013,payant:2095;gratuit:1535;label-date:01/02/2003,label:musee de france,
0119201,1357668479,Musée Archéologique,,Place de l'Église,01580,Izernore,France,fr,open,46.220134,5.5548124,,,,2013,payant:940;gratuit:1590;label-date:01/02/2003,label:musee de france,
0130501,6575792682,Musée Chintreuil,,Rue Borjon,01190,Pont-de-Vaux,France,fr,open,46.4303185,4.9377644,,,,2013,payant:5076;gratuit:1368;label-date:01/02/2003,label:musee de france,
0140701,3215575817,Musée du Bois,,Allée Serullaz,01420,Seyssel,France,fr,closed,45.9591932,5.8316942,,,,2013,payant:;gratuit:;label-date:01/02/2003,label:musee de france,
0716801,271465,Cité de Préhistoire,,,07150,Orgnac-l'Aven,France,fr,closed,44.3055791,4.4333406,,,,2013,payant:;gratuit:;label-date:01/02/2003,label:musee de france,
0731601,68332777,Musée et Site Archéologiques,,Rue des Ruines,07130,Soyons,France,fr,open,44.8879269,4.850776295600438,,,,2013,payant:11822;gratuit:1784;label-date:01/02/2003,label:musee de france,
2636401,,Musée du site Préhistorique,,,,VASSIEUX-EN-VERCORS,France,fr,open,,,,,,2013,payant:12644;gratuit:0;label-date:01/02/2003,label:musee de france,
7428102,5537445278,Musée du Chablais,2,Rue Michaud,74200,Thonon-les-Bains,France,fr,open,46.3735929,6.4782107,,,,2013,payant:1223;gratuit:1913;label-date:01/02/2003,label:musee de france,
3819101,,Musée d'Huez et de l'Oisans,,,,ALPE D'HUEZ,France,fr,open,,,,,,2013,payant:407;gratuit:1339;label-date:01/02/2003,label:musee de france,
3818507,2388638743,Musée Stendhal,20,Grande Rue,38000,Grenoble,France,fr,open,45.1915799,5.7281471,,,,2013,payant:3857;gratuit:1946;label-date:01/02/2003,label:musee de france,
3818505,5107373,Musée de Grenoble,,Voie de Corato,38000,Grenoble,France,fr,open,45.1949735,5.732253035706579,,,,2013,payant:94540;gratuit:101467;label-date:06/01/2002,label:musee de france,
3818502,1102624,Musée Dauphinois,30,Rue Maurice Gignoux,38031,Grenoble,France,fr,open,45.19514890000001,5.727071788552173,,,,2013,payant:0;gratuit:67630;label-date:01/02/2003,label:musee de france,
3854403,2675390826,Musée des Beaux-Arts et d'Archéologie,,Place Miremont,38200,Vienne,France,fr,open,45.5239956,4.8748576,,,,2013,payant:1997;gratuit:2945;label-date:01/02/2003,label:musee de france,
3854401,3034478021,Musée-Cloître Saint-André-Le-Bas,,Avenue de la Libération,87240,Ambazac,France,fr,open,45.9575558,1.4001491,,,,2013,payant:3905;gratuit:4103;label-date:01/02/2003,label:musee de france,
3856201,1249592087,Musée Départemental de la Révolution Française,,Parvis du Château,38220,Vizille,France,fr,open,45.0757435,5.7735647,,,,2013,payant:4364;gratuit:56352;label-date:01/02/2003,label:musee de france,
3856301,,Musée Lucien Mainssieux,,,,VOIRON,France,fr,open,,,,,,2013,payant:0;gratuit:6102;label-date:28/07/2004,label:musee de france,
4200301,3667424925,Musée Alice Taverne,89,Rue de la Grye,42820,Ambierle,France,fr,open,46.1054907,3.8958563,,,,2013,payant:3375;gratuit:673;label-date:01/02/2003,label:musee de france,
4209101,,Musée d'Histoire du  20ème Siècle - Résistance et Déportation,,,,ESTIVAREILLES,France,fr,open,,,,,,2013,payant:3043;gratuit:0;label-date:01/02/2003,label:musee de france,
4209401,346317680,Musée d'Archéologie,,Rue Victor de Laprade,42110,Feurs,France,fr,open,45.7442509,4.2195524,,,,2013,payant:1133;gratuit:4041;label-date:01/02/2003,label:musee de france,
4221804,49047701,Musée de la Mine / Site Couriot,3,Boulevard Maréchal Franchet d'Espèrey,69400,Saint-Étienne,France,fr,open,45.4382508,4.376131713032282,,,,2013,payant:28471;gratuit:27520;label-date:01/02/2003,label:musee de france,
4221901,224220352,Château de la Bastie d'Urfé,,Route de la Batie D'urfe,42130,Saint-Étienne-le-Molard,France,fr,open,45.72759345,4.078354343331679,,,,2013,payant:15157;gratuit:9999;label-date:01/02/2003,label:musee de france,
6938201,6575800693,Musée des Hospices Civils de Lyon,,Rue du Port du Temple,69002,Lyon,France,fr,closed,45.7608407,4.8315116,,,,2013,payant:;gratuit:;label-date:01/02/2003,label:musee de france,
6938501,700244364,Musées Gadagne,,Rue de la Fronde,69005,Lyon,France,fr,open,45.7640445,4.827288742103092,,,,2013,payant:46636;gratuit:58497;label-date:01/02/2003,label:musee de france,
7300801,79376440,Musée du docteur Faure,,Boulevard des Côtes,73100,Aix-les-Bains,France,fr,open,45.6925521,5.915906815022636,,,,2013,payant:5894;gratuit:5453;label-date:01/02/2003,label:musee de france,
7300802,79376440,Musée Archéologique,,Boulevard des Côtes,73100,Aix-les-Bains,France,fr,closed,45.6925521,5.915906815022636,,,,2013,payant:;gratuit:;label-date:01/02/2003,label:musee de france,
7306504,51263801,Muséum d'histoire naturelle,,Avenue de Lyon,73000,Chambéry,France,fr,closed,45.564102399999996,5.916291852044658,,,,2013,payant:;gratuit:;label-date:01/02/2003,label:musee de france,
