id,osm_id,name,number,street,postal_code,city,country,country_code,status,lat,lon,website,phone,fax,opening_days,closing_days,stats,tags,description
9201203,2701140971,Albert-Kahn,10,Rue du Port,92100,Boulogne-Billancourt,France,fr,open,48.8414886,2.2270833,http://albert-kahn.hauts-de-seine.fr/,0155192803,0146038659,Ouvert du mardi au dimanche de 11h à 17h d'octobre à avril et de 11h à 18h de mai à septembre,"1er janvier, 25 décembre",label-date:01/02/2003,label:musee de france;type:a classer,
3155507,22718219,Musée des Transports et des Communications,,Rue Antonin Mercié,31000,Toulouse,France,fr,open,43.6009417,1.4463433320120154,http://asptuit.fr/ee.fr/,0561550210,0561550210,Ouvert les jeudis de 10h à 12h et de 14h à 16h et sur rendez-vous,,label-date:01/02/2003,label:musee de france;type:musee,
0240802,202812175,Musée d'Art et d'Archéologie,,Rue des Moulins,02250,Marle,France,fr,open,49.7417279,3.771423276198486,http://ca-paysdelaon.fr/musee.html,0323228700,0323228705,Ouvert du mardi au dimanche 1er juin au 30 septembre de 10h à 17h et du 1er octobre au 31 mai de 13h à 17h et le matin sur rendez-vous,"1er janvier, 1er mai, 14 juillet, 24,25 et 31 décembre",label-date:01/02/2003,label:musee de france;type:musee,
2614601,133910375,Château de Grignan,,Rue Montant au Château,26230,Grignan,France,fr,open,44.418758600000004,4.908919569000301,http://chateaux.ladrome.fr/,0475918357,0475918362,Ouvert tous les jours de 9h30 à 12h et de 14h à 18h et en juillet-août de 10h à 18h,"1er janvier, 25 décembre",label-date:01/02/2003,label:musee de france;type:a classer,
3600601,2416267792,Musée de la Chemiserie et de l'Elégance Masculine,,Rue Charles Brillaud,36200,Argenton-sur-Creuse,France,fr,open,46.5884724,1.5182182,http://chemiserie.cc-argenton.fr/,0254243469,0254244192,"Ouvert du 15 février au 30 juin et du 1er septembre au 23 décembre du mardi au dimanche de 9h30 à 12h et de 14h à 18h, juillet-août lundi de 14h à 18h30 et du mardi au dimanche de 10h à 12h30 et de 14h à 18h30","24 au 31 décembre, Janvier, du 1er au 14 février",label-date:01/02/2003,label:musee de france;type:musee,
1411803,6041330527,Musée d'Initiation à la Nature,,Rue du Carel,14000,Caen,France,fr,open,49.1801396,-0.3735491,http://cpievdo.fr/cpie-presentation-environnement/musee-d-initiation-a-la-nature,0231304327,0231304344,"Ouvert des vacances de Pâques à celles de la Toussaint : du lundi au vendredi de 14h à 18h, tous les mercredis de l'année et pendant les vacances scolaires",,label-date:01/02/2003,label:musee de france;type:musee,
1927201,,Musée du Cloître de Tulle André Mazeyrie,,,,TULLE,France,fr,open,,,http://culture.ville-tulle.fr/culture/musees-et-archives/musee-du-cloitre,0555269105,0555262423,"Ouvert du mardi au samedi, les 1er et 3ème dimanche du mois du 1er mai au 31 octobre de 10h à 13h et de 14h à 18h30 et du 1er novembre au 30 avril de 13h à 18h",,label-date:01/02/2003,label:musee de france;type:musee,
9207101,1620203330,Musée du Domaine Départemental de Sceaux,,Allée de la Duchesse,92330,Sceaux,France,fr,open,48.7742577,2.300099,http://domaine-de-sceaux.hauts-de-seine.fr/,0141872950,0141872951,"Ouvert du mardi au dimanche du 1er novembre au 28 février de 13h à 17h, et du 1er mars au 31 octobre de 14h à 18h30","1er au 15 janvier, 1er mai, 25 décembre",label-date:01/02/2003,label:musee de france;type:musee,
5606901,96124965,Ecomusée de l'Île de Groix,,Quartier des Iles Bretonnes,22100,Dinan,France,fr,open,48.4366452,-2.068196590266697,http://ecomusee.groix.fr/ee.fr/,0297868460,0297865651,"Ouvert de mai à septembre tous les jours de 9h45 à 12h30 et de 14h à 18h, d'octobre à novembre et avril du mardi au dimanche de 9h45 à 12h et de 14h à 17h, de décembre à mars le mercredi, samedi et dimanche (sauf vacances scolaires du mercredi au dimanch",Jours fériés,label-date:01/02/2003,label:musee de france;type:ecomusee,
5905301,54367331,Forum Antique de Bavay,,Sentier Promenade du Rempart,59570,Bavay,France,fr,open,50.29911105,3.79156153828687,http://forumantique.lenord.fr/,0359731550,0359731551,Ouvert tous les jours de 9h à 12h et de 13h à 18h,"1er janvier, 1er mai, 1er et 11 novembre, 25 décembre - Fermetures annuelles la 1ère quinzaine de septembre et la 2ème quinzaine de janvier",label-date:01/02/2003,label:musee de france;type:musee archeologique;art:antiquite,
5318801,129529138,Musée de l'Ardoise et de la Géologie,,Chemin de la Malvalière,53800,Renazé,France,fr,open,47.79468745,-1.0412421144256487,http://geocities.com/musardoise,0243064014,0243068250,"Ouvert dimanche et jours fériés en mai, juin, septembre, octobre, du mercredi au dimanche et jours fériés en juillet-août de 14h à 17h30. Pour les groupes toute l'année sur réservation",,label-date:01/02/2003,label:musee de france;type:musee d'histoire naturelle,
5313001,3773677487,Musée du Vieux Château,,Rue du Val de Mayenne,53000,Laval,France,fr,open,48.068577,-0.7707286,http://laval.fr/musees/musee-du-vieux-château ou http://musees.laval.fr/,0253741230,0243498653,"Ouvert du 1er octobre au 31 mai du mardi au samedi de 9h30 à 12h et de 13h30 à 17h30, les dimanches de 14h à 18h, du 1er juin au 30 septembre du mardi au samedi de 9h30 à12h et de 13h30 à 18h30, les dimanches, 14 juillet et 15 août de 14h à 18h","1er janvier, dimanhces de Pâques et de Pentecôte, 1er mai, 8 mai, Ascension, 1er novembre, 11 novembre et 25 décembre",label-date:01/02/2003,label:musee de france;type:musee,
5912202,626582331,Musée Diocésain d'Art Sacré,,Rue des Incas,59300,Valenciennes,France,fr,open,50.3575723,3.5306353,http://liturgiecatholique.fr/Musee-diocesain-d-Art-Sacre-du.html,0327813496,0327813491,Salle d'exposition ouverte 20 jours en 2012 (septembre-décembre),,label-date:01/02/2003,label:musee de france;type:musee,
7511616,84511129,Maison de Balzac,47,Rue Raynouard,75016,Paris,France,fr,open,48.85520045,2.2808817591013373,http://maisondebalzac.paris.fr/,0155744180,0145251922,Ouvert du mardi au dimanche de 10h à 18h,,label-date:08/07/2004,label:musee de france;type:a classer,
2123104,175641505,Musée des Beaux-Arts,,Place de la Libération,21000,Dijon,France,fr,open,47.32163075,5.042364361722523,http://mba.dijon.fr/ ou http://www.ville-dijon.fr/,0380745209,0380745344,Ouvert du mercredi au lundi du 2 mai au 31 octobre de 9h30 à 18h et du 2 novembre au 30 avril de 10h à 17h,"1er janvier, 1er & 8 mai, 14 juillet, 1er & 11 novembre, 25 décembre",label-date:06/01/2002,label:musee de france;type:musee de beaux-arts,
2123101,2482864557,Musée François Rude,,Rue Vaillant,21000,Dijon,France,fr,open,47.321005,5.0442148,http://mba.dijon.fr/ ou http://www.ville-dijon.fr/,0380745270,0380745344,Ouvert de mai à octobre du mercredi au lundi de 9h30 à 18h et de novembre à avril de 10h à 17h,"1er janvier, 1er et 8 mai,14 juillet, 1er et 11 novembre, 25 décembre",label-date:01/02/2003,label:musee de france;type:musee,
5439506,753920204,Musée des Beaux-Arts de Nancy,,Rue Stanislas,54100,Nancy,France,fr,open,48.6936593,6.1818995387620195,http://mban.nancy.fr/,0383853072,0383853076,Ouvert du mercredi au lundi de 10h à 18h,"1er janvier, 1er mai, 14 juillet, 1er novembre, 25 décembre",label-date:06/01/2002,label:musee de france;type:musee de beaux-arts,
5935003,41065833,Musée d'Histoire Naturelle et de Géologie,19,Rue de Bruxelles,59000,Lille,France,fr,open,50.6266587,3.06701952992126,http://mhn.lille.fr/,0328553080,0320861482,"Ouvert le lundi, du mercredi au vendredi de 9h30 à 17h, samedi et dimanche de 10h à 18h",Certains jours fériés,label-date:01/02/2003,label:musee de france;type:musee d'histoire naturelle,
1038705,,Maison de l'Outil et de la Pensée Ouvrière,,,,TROYES,France,fr,open,,,http://mopo3.com/,0325732826,0325739047,Ouvert d'octobre à mars du mercredi au lundi de 10h à 18h et d'avril à septembre tous les jours de 10h à 18h,"25 décembre, 1ère semaine de janvier, lundi de la Pentecôte",label-date:01/02/2003,label:musee de france;type:musee technique et industriel,
6005701,556458814,MUDO - Musée de l'Oise,,Rue Saint-Pierre,60000,Beauvais,France,fr,open,49.4329907,2.0796036241134193,http://mudo.oise.fr/,0344104050,0344484945,Ouvert du mercredi au lundi de 11h à 18h,"1er janvier, lundi de Pâques, 1er mai, lundi de Pentecôte, 11 novembre, 25 décembre",label-date:01/02/2003,label:musee de france;type:musee,
