id,osm_id,name,number,street,postal_code,city,country,country_code,status,lat,lon,website,phone,fax,opening_days,closing_days,stats,tags,description
9201203,2863425786,Albert-Kahn,,Rue du Port,92100,Boulogne-Billancourt,France,fr,open,48.8416327,2.2276788,http://albert-kahn.hauts-de-seine.fr/,0155192803,0146038659,Ouvert du mardi au dimanche de 11h à 17h d'octobre à avril et de 11h à 18h de mai à septembre,"1er janvier, 25 décembre",label-date:01/02/2003,label:musee de france;type:a classer,
3155507,1532673247,Musée des Transports et des Communications,93,Avenue Jules Julien,31400,Toulouse,France,fr,open,43.57702,1.4505826,http://asptuit.fr/ee.fr/,0561550210,0561550210,Ouvert les jeudis de 10h à 12h et de 14h à 16h et sur rendez-vous,,label-date:01/02/2003,label:musee de france;type:musee,
0240802,2690271355,Musée d'Art et d'Archéologie,27,Rue Georges Ermant,02000,Laon,France,fr,open,49.563257,3.6266548,http://ca-paysdelaon.fr/musee.html,0323228700,0323228705,Ouvert du mardi au dimanche 1er juin au 30 septembre de 10h à 17h et du 1er octobre au 31 mai de 13h à 17h et le matin sur rendez-vous,"1er janvier, 1er mai, 14 juillet, 24,25 et 31 décembre",label-date:01/02/2003,label:musee de france;type:musee,
2614601,133910375,Château de Grignan,,Rue Montant au Château,26230,Grignan,France,fr,open,44.418758600000004,4.908919569000301,http://chateaux.ladrome.fr/,0475918357,0475918362,Ouvert tous les jours de 9h30 à 12h et de 14h à 18h et en juillet-août de 10h à 18h,"1er janvier, 25 décembre",label-date:01/02/2003,label:musee de france;type:a classer,
3600601,2416267792,Musée de la Chemiserie et de l'Elégance Masculine,,Rue Charles Brillaud,36200,Argenton-sur-Creuse,France,fr,open,46.5884724,1.5182182,http://chemiserie.cc-argenton.fr/,0254243469,0254244192,"Ouvert du 15 février au 30 juin et du 1er septembre au 23 décembre du mardi au dimanche de 9h30 à 12h et de 14h à 18h, juillet-août lundi de 14h à 18h30 et du mardi au dimanche de 10h à 12h30 et de 14h à 18h30","24 au 31 décembre, Janvier, du 1er au 14 février",label-date:01/02/2003,label:musee de france;type:musee,
1411803,,Musée d'Initiation à la Nature,,Enceinte de l'hôtel de ville,14027,CAEN,France,fr,open,,,http://cpievdo.fr/cpie-presentation-environnement/musee-d-initiation-a-la-nature,0231304327,0231304344,"Ouvert des vacances de Pâques à celles de la Toussaint : du lundi au vendredi de 14h à 18h, tous les mercredis de l'année et pendant les vacances scolaires",,label-date:01/02/2003,label:musee de france;type:musee,
1927201,64242494,Musée du Cloître de Tulle André Mazeyrie,,Place Monseigneur Berteaud,19000,Tulle,France,fr,open,45.267961650000004,1.7711923564657082,http://culture.ville-tulle.fr/culture/musees-et-archives/musee-du-cloitre,0555269105,0555262423,"Ouvert du mardi au samedi, les 1er et 3ème dimanche du mois du 1er mai au 31 octobre de 10h à 13h et de 14h à 18h30 et du 1er novembre au 30 avril de 13h à 18h",,label-date:01/02/2003,label:musee de france;type:musee,
9207101,3784897182,Musée du Domaine Départemental de Sceaux,,Allée du Bassin de l'Église,92330,Sceaux,France,fr,open,48.7751632,2.2987666,http://domaine-de-sceaux.hauts-de-seine.fr/,0141872950,0141872951,"Ouvert du mardi au dimanche du 1er novembre au 28 février de 13h à 17h, et du 1er mars au 31 octobre de 14h à 18h30","1er au 15 janvier, 1er mai, 25 décembre",label-date:01/02/2003,label:musee de france;type:musee,
5606901,175791621,Ecomusée de l'Île de Groix,,Rue Francis Stéphant,56590,Groix,France,fr,open,47.6397756005466,-3.444878551643307,http://ecomusee.groix.fr/ee.fr/,0297868460,0297865651,"Ouvert de mai à septembre tous les jours de 9h45 à 12h30 et de 14h à 18h, d'octobre à novembre et avril du mardi au dimanche de 9h45 à 12h et de 14h à 17h, de décembre à mars le mercredi, samedi et dimanche (sauf vacances scolaires du mercredi au dimanch",Jours fériés,label-date:01/02/2003,label:musee de france;type:ecomusee,
5905301,454352993,Forum Antique de Bavay,,Chaussée du Bois,59570,Hon-Hergies,France,fr,open,50.310089842120654,3.806635259502962,http://forumantique.lenord.fr/,0359731550,0359731551,Ouvert tous les jours de 9h à 12h et de 13h à 18h,"1er janvier, 1er mai, 1er et 11 novembre, 25 décembre - Fermetures annuelles la 1ère quinzaine de septembre et la 2ème quinzaine de janvier",label-date:01/02/2003,label:musee de france;type:musee archeologique;art:antiquite,
5318801,317851722,Musée de l'Ardoise et de la Géologie,,,53800,Renazé,France,fr,open,47.79357451152757,-1.0416548972184299,http://geocities.com/musardoise,0243064014,0243068250,"Ouvert dimanche et jours fériés en mai, juin, septembre, octobre, du mercredi au dimanche et jours fériés en juillet-août de 14h à 17h30. Pour les groupes toute l'année sur réservation",,label-date:01/02/2003,label:musee de france;type:musee d'histoire naturelle,
5313001,6055416915,Musée du Vieux Château,,Place de la Trémoille,53000,Laval,France,fr,open,48.0690478,-0.7723285,http://laval.fr/musees/musee-du-vieux-château ou http://musees.laval.fr/,0253741230,0243498653,"Ouvert du 1er octobre au 31 mai du mardi au samedi de 9h30 à 12h et de 13h30 à 17h30, les dimanches de 14h à 18h, du 1er juin au 30 septembre du mardi au samedi de 9h30 à12h et de 13h30 à 18h30, les dimanches, 14 juillet et 15 août de 14h à 18h","1er janvier, dimanhces de Pâques et de Pentecôte, 1er mai, 8 mai, Ascension, 1er novembre, 11 novembre et 25 décembre",label-date:01/02/2003,label:musee de france;type:musee,
5912202,,Musée Diocésain d'Art Sacré,Service de la conservation du patrimoine culturel 11,Rue du Grand Séminaire - CS 80149,59403,CAMBRAI,France,fr,open,,,http://liturgiecatholique.fr/Musee-diocesain-d-Art-Sacre-du.html,0327813496,0327813491,Salle d'exposition ouverte 20 jours en 2012 (septembre-décembre),,label-date:01/02/2003,label:musee de france;type:musee,
7511616,3668728886,Maison de Balzac,,Rue Raynouard,75016,Paris,France,fr,open,48.8550539,2.2798372,http://maisondebalzac.paris.fr/,0155744180,0145251922,Ouvert du mardi au dimanche de 10h à 18h,,label-date:08/07/2004,label:musee de france;type:a classer,
2123104,,Musée des Beaux-Arts,,Palais des Ducs et des Etats de Bourgogne CS 73310,21033,DIJON,France,fr,open,,,http://mba.dijon.fr/ ou http://www.ville-dijon.fr/,0380745209,0380745344,Ouvert du mercredi au lundi du 2 mai au 31 octobre de 9h30 à 18h et du 2 novembre au 30 avril de 10h à 17h,"1er janvier, 1er & 8 mai, 14 juillet, 1er & 11 novembre, 25 décembre",label-date:06/01/2002,label:musee de france;type:musee de beaux-arts,
2123101,2920660488,Musée François Rude,5,Rue Vaillant,21000,Dijon,France,fr,open,47.3212635,5.0440301,http://mba.dijon.fr/ ou http://www.ville-dijon.fr/,0380745270,0380745344,Ouvert de mai à octobre du mercredi au lundi de 9h30 à 18h et de novembre à avril de 10h à 17h,"1er janvier, 1er et 8 mai,14 juillet, 1er et 11 novembre, 25 décembre",label-date:01/02/2003,label:musee de france;type:musee,
5439506,,Musée des Beaux-Arts de Nancy,3,Place Stanislas B.P. 218,54004,NANCY,France,fr,open,,,http://mban.nancy.fr/,0383853072,0383853076,Ouvert du mercredi au lundi de 10h à 18h,"1er janvier, 1er mai, 14 juillet, 1er novembre, 25 décembre",label-date:06/01/2002,label:musee de france;type:musee de beaux-arts,
5935003,41065833,Musée d'Histoire Naturelle et de Géologie,19,Rue de Bruxelles,59000,Lille,France,fr,open,50.6266587,3.06701952992126,http://mhn.lille.fr/,0328553080,0320861482,"Ouvert le lundi, du mercredi au vendredi de 9h30 à 17h, samedi et dimanche de 10h à 18h",Certains jours fériés,label-date:01/02/2003,label:musee de france;type:musee d'histoire naturelle,
1038705,1135315,Maison de l'Outil et de la Pensée Ouvrière,7,Rue de la Trinité,10000,Troyes,France,fr,open,48.294707450000004,4.073275966957282,http://mopo3.com/,0325732826,0325739047,Ouvert d'octobre à mars du mercredi au lundi de 10h à 18h et d'avril à septembre tous les jours de 10h à 18h,"25 décembre, 1ère semaine de janvier, lundi de la Pentecôte",label-date:01/02/2003,label:musee de france;type:musee technique et industriel,
6005701,556458814,MUDO - Musée de l'Oise,,Rue Saint-Pierre,60000,Beauvais,France,fr,open,49.4329907,2.0796036241134193,http://mudo.oise.fr/,0344104050,0344484945,Ouvert du mercredi au lundi de 11h à 18h,"1er janvier, lundi de Pâques, 1er mai, lundi de Pentecôte, 11 novembre, 25 décembre",label-date:01/02/2003,label:musee de france;type:musee,
0700501,760857821,MuséAL - Musée Archéologique d'Alba,,D 107,07400,Alba-la-Romaine,France,fr,open,44.55282507565184,4.606086110768568,http://museal.ardeche.fr/,0475524515,,"Ouvert de février à juin et de septembre à novembre le lundi, mercredi au vendredi de 10h à 12h30 et de 14h30 à 18h, le samedi et dimanche de 14h30 à 18h, en juillet-août du lundi au vendredi de 10h à 13h et de 14h à 18h30, le dimanche de 14h30 à 18h. Pet","Janvier et décembre - 1er janvier, 1er mai, 25 décembre",label-date:15/05/2014,label:musee de france;type:musee archeologique;art:prehistoire,
8305004,,Musée de l'Artillerie,,Avenue de la Grande Armée Quartier Bonaparte D. 59 - B.P. 400 Avenue de la Grande Armée - D 59,83007,DRAGUIGNAN,France,fr,open,,,http://musee.artillerie.asso.fr/,0483081386,0483081386,"Ouvert du dimanche au mercredi de 9h à 12h et de 13h30 à 17h30, le jeudi pour les groupes sur demande",Du 15 décembre au 15 janvier,label-date:29/08/2006,label:musee de france;type:musee,
2B03301,361862194,Musée d’Histoire de Bastia,,Escalier Romieu,20297,Bastia,France,fr,open,42.6936279,9.451196235820046,http://musee.bastia.corsica/fr/le-musee/le-palais-des-gouverneurs-1777.html,0495310912,0428270099,"Ouvert du 1er mai au 30 septembre de 10h à 18h30, tous les jours en juillet août, du 1er octobre au 30 avril de 9h à 12h et de 14h à17h (basse saison)","1er et 11 novembre, 1er et 8 mai, et pendant les vacances scolaires de Noël",label-date:01/02/2003,label:musee de france;type:musee historique,
1716801,89687617,Musée Régional de Fouras,,Route du Bois Brule,17450,Saint-Laurent-de-la-Prée,France,fr,open,45.98714030990624,-1.0390002922831438,http://musee.fouras.assoc.pagespro-orange.fr/,0546841523,0546842914,"Ouvert tous les samedis, dimanches et jours fériés de 14h30 à 17h30 hors saison, durant les vacances scolaires toutes zones du mardi au dimanche de 14h30 à 17h30, du 1er juin au 15 septembre de 10h à 12h et de 15h à 18h30 et le lundi après-midi",,label-date:01/02/2003,label:musee de france;type:musee,
5618102,395047148,Musée de la Compagnie des Indes,16,Rue de la Citadelle,56290,Port-Louis,France,fr,open,47.7062466,-3.3540777971307127,http://musee.lorient.fr/,0297821913,0297824288,"Ouvert du 1er février au 30 avril du mercredi au lundi de 10h à 12h30 et de 14h à 18h, du 2 mai au 31 août tous les jours de 10h à 18h30, du 1er septembre au 15 décembre du mercredi au lundi de 13h30 à 18h","1er mai, mi- décembre au 31 janvier inclus",label-date:01/02/2003,label:musee de france;type:musee,
6824801,4652897051,Maison du Sundgau - Musée Paysan,10,Rue Principale,68480,Oltingue,France,fr,open,47.4927971,7.3912562,http://musee.paysan.fr/ee.fr/,0389407924,0389073098,"Ouvert du 1er mars au 15 juin, du 1er octobre au 15 décembre le dimanche de 14h à 17h, du 16 juin au 30 septembre mardi, jeudi, samedi, dimanche de 15h à 18h, et du 1er mars au 30 novembre sur rendez-vous pour les groupes",Janvier et février,label-date:01/02/2003,label:musee de france;type:musee,
9404601,8068790767,Musée Fragonard,34 bis,Rue Delalain,94700,Maisons-Alfort,France,fr,open,48.806161,2.438204,http://musee.vet-alfort.fr/,0143967052,0143967044,"Ouvert le mercredi et jeudi, samedi et dimanche de 14h à 18h",,label-date:29/08/2006,label:musee de france;type:musee,
6216001,1022553,Musée de Boulogne-sur-Mer,,Rue de Bernet,62200,Boulogne-sur-Mer,France,fr,open,50.72565845,1.6177348677097347,http://musee.ville-boulogne-sur-mer.fr/,0321100220,0321100223,Ouvert du mercredi au dimanche du 2 mai au 30 septembre de 10h à 18h et en basse saison de 10h à 12h30 et de 14h30 à 17h30,"25 décembre, 1er janvier et fermeture annuelle la 1ère semaine de janvier",label-date:01/02/2003,label:musee de france;type:musee,
9531301,2584777623,Musée d'Art et d'Histoire Louis Senlecq,,Grande Rue,95290,L'Isle-Adam,France,fr,open,49.1120241,2.2161084,http://musee.ville-isle-adam.fr/,0174561123,0174561122,Ouvert du mercredi au lundi de 14h à 18h,"1er janvier, 1er mai, 14 juillet, 24 décembre, 25 décembre",label-date:01/02/2003,label:musee de france;type:musee historique,
7836101,5729764173,Musée de l'Hôtel-Dieu,6,Place de l'Étape,78200,Mantes-la-Jolie,France,fr,open,48.9908143,1.7195595,http://musee.ville-mantes-la-jolie.com/,0134788660,0134788665,"Ouvert lundi, mercredi à vendredi de 13h à 18h et de 9h à 12 pour les groupes, samedi de 10h à 18h, dimanche et jours fériés de 13h à 19h et du 1er novembre au 31 mars le lundi, mercredi au vendredi de 13h à 18h, samedi de 10h à 18h et dimanches et jours","25 décembre, 1er janvier",label-date:01/02/2003,label:musee de france;type:musee,
6444501,6815427668,Musée Municipal des Beaux-Arts,7,Rue Mathieu Lalanne,64000,Pau,France,fr,open,43.2972203,-0.3643812,http://musee.ville-pau.fr/,0559273302,0559980963,Ouvert de 10h à 12h et de 14h à 18h,,label-date:01/02/2003,label:musee de france;type:musee de beaux-arts,
7838001,132264703,Musée Victor Aubert,,Place de la Mairie,78580,Maule,France,fr,open,48.908905,1.8494343830067348,http://museeaubertmaule.fr/ee.fr/,0130906149,0130909648,Ouvert chaque mercredi et dimanche du mois de 15h à 18h,,label-date:01/02/2003,label:musee de france;type:musee,
5055101,7825540785,Musée Barbey d'Aurevilly,,Rue Bottin Desylles,50390,Saint-Sauveur-le-Vicomte,France,fr,open,49.3846661,-1.5320188,http://museebarbeydaurevilly.over-blog.com/,0233416518,0233958885,"Ouvert d'avril à octobre du dimanche, lundi, mercredi au vendredi de 14h à 18h, toutes les vacances scolaires (A,B,C) dimanche, lundi, mercredi au vendredi et jours fériés de 14h à 18h","Toussaint, Noël, jour de l'an",label-date:01/02/2003,label:musee de france;type:musee,
8101201,306264058,Musée Eugénie et Maurice Guérin,,Sentier Littéraire,81140,Andillac,France,fr,open,44.0102115,1.8993096781274508,http://musee-cayla.tarn.fr/,0563339030,0563773214,"Ouvert du 16 février au 30 avril et du 2 novembre au 23 décembre du dimanche au jeudi de 14h à 17h, du 2 mai au 30 juin et de septembre à octobre du samedi au jeudi de 14h à 18h, en juillet-août tous les jours de 10h à 12h et de 14h à 18h30",24 décembre au 15 février - 1er mai et 1er novembre,label-date:01/02/2003,label:musee de france;type:musee,
8106901,249678964,Musée Charles Portal - Histoire et Patrimoine,,D 30,81170,Mouzieys-Panens,France,fr,open,44.08180243710963,1.9343669499274612,http://musee-charles-portal.asso-web.com/ ou http://savieuxcordes.canalblog.com/,0563560611,0563560611,"Ouvert de Pâques à la Toussaint vendredi, samedi, dimanche et jours fériés de 15h à 18 et en juillet-août du mercredi au lundi de 14h30 à 18h30",,label-date:01/02/2003,label:musee de france;type:musee historique,
1805701,5602450107,Musée Emile Chénon,,Rue de la Victoire,18370,Châteaumeillant,France,fr,open,46.5613145,2.1964279,http://museechenon.e-monsite.com/,0248614924,0248614924,Ouvertdu 1er juin au 30 septembre tous les jours de 10h à 12h et de 14h à 18h et du 1er octobre au 31 mai le lundi et du mercredi au samedi de 10h à 12h et de 14h à 17h,,label-date:01/02/2003,label:musee de france;type:musee,
6311305,172763581,Musée d'Art Roger-Quillot,,Rue du Ressort,63100,Clermont-Ferrand,France,fr,open,45.78731055,3.1150661360715617,http://museedart.clermont-ferrand.fr/,0473161130,0473161131,"Ouvert du mardi au vendredi de 10h à 18h, samedi, dimanche et jours fériés de 10h à 12h et de 13h à 18h","1er janvier, 1er mai, 1er novembre, 25 décembre",label-date:01/02/2003,label:musee de france;type:musee,
0601802,4793674909,Musée d'Histoire Locale,,Rue Saint-Sébastien,06410,Biot,France,fr,open,43.6273561,7.0984841,http://musee-de-biot.fr/,0493655454,0493655173,"Ouvert du 16 septembre au 14 juin de 14h à 18h du mercredi au dimanche, et du 15 juin au 15 septembre de 10h à 18h du mercredi au dimanche",,label-date:01/02/2003,label:musee de france;type:musee historique,
5913501,161288430,Musée Départemental de Flandre,,Route de Zermezeele,59670,Cassel,France,fr,open,50.80849292147377,2.465258278714358,http://museedeflandre.lenord.fr/fr/Accueil.aspx,0359734560,0359734550,"Ouvert du mardi au vendredi de 10h à 12h30 et de 14h à 18h, samedi et dimanche de 10h à 18h","1er janvier, 1er mai, lundi de Pâques, lundi de Pentecôte, 25 décembre",label-date:01/02/2003,label:musee de france;type:musee,
7654010,4213965254,Musée de la Céramique,1,Rue Faucon,76000,Rouen,France,fr,open,49.4455384,1.0938248,http://museedelaceramique.fr/,0235073174,0235154323,Ouvert du mercredi au lundi de 10h à 13h et de 14h à 18h,"1er janvier, 1er, 8 et 13 mai, Ascension, 14 juillet, 15 août, 1er et 11 novembre, 25 décembre",label-date:06/01/2002,label:musee de france;type:musee,
0278901,4919666009,Musée de La Thiérache,6,Place de l'Église,02140,Vervins,France,fr,open,49.8346087,3.9075461,http://museedelathierache.jimdo.com/ ou http://www.evasion-aisne.com/,0323582461,,"Ouvert d'octobre à mai du lundi midi au samedi midi de 9h à 12h et de 13h30 à 17h30, de juin à septembre du mardi au samedi de 9h à 12h et de 14h à 18h",,label-date:01/02/2003,label:musee de france;type:musee,
1220202,124620805,Musée des Beaux-Arts Denys Puech,,Place Clemenceau,12000,Rodez,France,fr,open,44.3492851,2.578009623962491,http://musee-denys-puech.grand-rodez.com/,0565778960,0565778803,"Ouvert du mardi au vendredi de 10 h à 12 h et de 14 h à 18 h, samedi et dimanche de 14h à 18h","1er janvier, 1er mai, 1er novembre et 25 décembre",label-date:01/02/2003,label:musee de france;type:musee de beaux-arts,
7654004,64180707,Musée des Antiquités de la Seine-Maritime,198,Rue Beauvoisine,76000,Rouen,France,fr,open,49.44710085,1.0990036003098362,http://museedesantiquites.fr/,0235985510,0232763170,Ouvert du mardi au samedi de 13h30 à 17h30 et le dimanche de 14h à 18h,"1er janvier, 1er mai, 1er et 11 novembre, 25 décembre",label-date:01/02/2003,label:musee de france;type:musee,
8300201,5032188311,Musée des tourneurs sur Bois,,D 19,83630,Aiguines,France,fr,open,43.7753136,6.2431879,http://museedestourneurssurbois.com/le-musee-2/,0494709917,,"Ouvert en juillet-août tous les jours de 10h30 à 18h30, d'avril à mai, et septembre-octobre tous les jours de 9h30 à 17h30 sauf le mercredi après-midi, de novembre à mars ouvert au public sur demande",20 décembre au 5 janvier,label-date:01/02/2003,label:musee de france;type:musee,
5909201,203055821,Musée de l'Ostrevant,,Rue Edouard Lalo,59111,Bouchain,France,fr,open,50.28460127510501,3.3113403378523967,http://museedostrevant.canalblog.com/,0327357397,,"Ouvert le dimanche de 15h à 18h d'avril à octobre, les autres jours toute l'année sur rendez-vous",,label-date:01/02/2003,label:musee de france;type:musee,
2928901,713941188,Musée de l'Ecole Rurale en Bretagne,4,Route Départementale Numéro 60 de Landévennec à Dinéault,29560,Trégarvan,France,fr,open,48.244619400000005,-4.226097494586295,http://musee-ecole.fr/,0298260472,0298260646,"Ouvert de février à juin et du 1er septembre au 1er novembre de 14h à 18h, et en juillet-août tous les jours de 11h à 19h",Décembre-janvier,label-date:01/02/2003,label:musee de france;type:musee,
1220201,4068403108,Musée Fenaille,,Place Eugène Raynaldy,12000,Rodez,France,fr,open,44.3491948,2.5763972,http://musee-fenaille.rodezagglo.fr/,0565738430,0565738431,"Ouvert du 11 avril au 30 juin et du 1er au 30 septembre du mardi au samedi de 11h à 19h, le dimanche de 14h à 19h, en juillet-août le lundi de 14h à 19h et du mardi au dimanche de 10h à 19h, du 1er octobre au 31 mars du mardi au vendredi de 10h à 12h et d","1er janvier, 1er mai, 1er novembre, 25 décembre",label-date:01/02/2003,label:musee de france;type:musee,
1305505,35466085,Musée d'Histoire de Marseille,,Voie Antique,13001,Marseille,France,fr,open,43.29766505,5.374906929777982,http://musee-histoire-marseille-voie-historique.fr/,0491553600,0491904378,Ouvert du mardi au dimanche de 10h à 18h,"1er janvier, 1er mai, 1er novembre, 25 et 26 décembre",label-date:01/02/2003,label:musee de france;type:musee historique,
9542801,3969048826,Musée jean-Jacques Rousseau,5,Rue Jean-Jacques Rousseau,95160,Montmorency,France,fr,open,48.9868997,2.320923,http://museejjrousseau.montmorency.fr/,0139648013,0139899123,Ouvert du mardi au dimanche de 14h à 18h et pour les groupes du mardi au samedi de 10h à 13h,1er mai et fêtes de fin d’année,label-date:01/02/2003,label:musee de france;type:musee,
7638401,5024093423,"Juliobona, Musée Gallo-Romain de Lillebonne",,Place Félix Faure,76170,Lillebonne,France,fr,open,49.5182274,0.5363834,http://musee-juliobona.fr/,0232840207,0232840207,"Ouvert hors période vacances scolaires en visite libre le samedi et dimanche de 13h30 à 18h30, et en visite guidée à 15h. Durant les vacances scolaires (sauf Noël) du mercredi au lundi de 13h30 à 18h30 et visite guidée le mercredi, vendredi, dimanche à 15",Décembre et janvier,label-date:01/02/2003,label:musee de france;type:musee,
7654006,277779066,Musée Le Secq des Tournelles,,Rue du Bailliage,76000,Rouen,France,fr,open,49.445268,1.0938521,http://museelesecqdestournelles.fr/,0235884292,0235154323,Ouvert du mercredi au lundi de 14h à 18h,"1er janvier, 1er mai, 1er et 11 novembre et 25 décembre.",label-date:01/02/2003,label:musee de france;type:musee,
3430101,771104710,Musée Paul Valéry,148,Rue François Desnoyer,34200,Sète,France,fr,open,43.395577,3.6908624608863025,http://museepaulvalery-sete.fr/,0499047616,0457670402,Ouvert du 1er avril au 31 octobre de 9h30 à 19h tous les jours et du 2 novembre au 31 mars de 10h à 18h du mardi au dimanche,"1er janvier, 1er mai, 1er novembre, 25 décembre",label-date:01/02/2003,label:musee de france;type:musee,
7702201,113288014,Musée Départemental de l'Ecole de Barbizon - Auberge Ganne,92,Grande Rue,77630,Barbizon,France,fr,open,48.4461862,2.602608897820088,http://musee-peintres-barbizon.fr/,0160662227,0160662296,Ouvert de 10h à 12h30 et de 14h à 17h30 en juillet-août de 10h à 12h30 et de 14h à 18h du mercredi au lundi,1er mai - du 22 décembre au 1er janvier 2010,label-date:01/02/2003,label:musee de france;type:musee,
8114501,64702061,Musée Raymond Lafage,,Rue Victor Mazies,81310,Lisle-sur-Tarn,France,fr,open,43.85288378756484,1.8113695312947409,http://museeraymondlafage.wifeo.com/ ou http://musee.lislesurtarn.over-blog.fr/,0563404545,0563333618,Ouvert du mercredi au lundi de 10h à 12h et de 15h à 18h du 1er avril au 31 octobre,,label-date:01/02/2003,label:musee de france;type:musee,
6014301,673601767,Musée Pillon,,D 566,60240,Chaumont-en-Vexin,France,fr,open,49.2456564,1.8900852,http://museeraymondpillon.overblog.com/ ou http:flore-de-chaumont-en-vexin.overblog.com/,0344490046,0344491774,Le 3ème Week-end d'avril à octobre 10h à 12h et de 14h à 18h et sur rendez-vous pour les visites guidées,,label-date:01/02/2003,label:musee de france;type:musee,
7921601,148697866,Conservatoire du Machinisme et des Pratiques Agricoles,,,79230,Prahecq,France,fr,open,46.258700443877835,-0.3678191563722487,http://museeruralies.fr/ee.fr/,0549756827,0549756989,,,label-date:01/02/2003;unlabel-date:2014-05-15 00:00:00,label:musee de france;type:musee technique et industriel,
7401001,40433675,Musée-château d'Annecy,3,Place du Château,74000,Annecy,France,fr,open,45.8975865,6.125218460401776,http://musees.agglo-annecy.fr/Chateau-d-Annecy,0450338730,0450330084,Ouvert tous les jours de 10h30 à 18h de juin à septembre et du mercredi au lundi de 10h à 12h et de 14h à 17h d'octobre à mai,"1er janvier, dimanche et lundi de Pâques, 1er mai, 1er & 11 novembre, 25 décembre",label-date:01/02/2003,label:musee de france;type:musee,
7012201,87537863,Musée Départemental Albert Demard,,D 17,70600,Champlitte,France,fr,open,47.65960523062636,5.468935558603187,http://musees.cg70.fr/,0384678200,0384678209,Ouvert du 1er avril au 30 septembre de 9h30 à 12h et de 14h à 18h et du 1er octobre au 31 mars de 14h à 17h et de mi-février-31 mars de 14h à 17h,"1er mai, 1er et 11 novembre, et congés scolaires de fin d'année - fermeture de mi-novembre à mi-février (sauf groupes sur demande)",label-date:01/02/2003,label:musee de france;type:musee,
7013901,105067203,Musée Départemental de la Montagne Albert Demard,,Rue de la Libération,70440,Haut-du-Them,France,fr,open,47.842320650000005,6.721628501333344,http://musees.cg70.fr/,0384204309,0384204709,"Ouvert du 1er février au 31 mars le lundi et du mercredi au vendredi de 14h à 17h, week-end de 14h à 17h, du 1er avril au 30 juin et en septembre de 9h30 à 12h et de 14h à 18h, en juillet-août de 9h30 à 19h du lundi au samedi et le dimanche de 14h-19","1er mai, 1er et 11 novembre, matin des jours fériés, pendant les vacances scolaires de fin d'année",label-date:01/02/2003,label:musee de france;type:musee,
6924801,143519910,Ecomusée du Haut Beaujolais,,D 604,69240,Mardore,France,fr,open,46.06814285971697,4.338145439747246,http://musees.ouestrhodanien.fr/ecomusee-du-haut-beaujolais.html,0474640648,,Ouvert durant les travaux uniquement lors des journées du patrimoine de 14h à 18h,,label-date:09/07/2005,label:musee de france;type:ecomusee,
8111501,7981190600,Musée Départemental du Textile,5,Rue de la Rive,81270,Labastide-Rouairoux,France,fr,open,43.4767403,2.6384539,http://musees-departementaux.tarn.fr/,0563980860,0563983614,"Ouvert du 16 février au 30 avril et du 2 novembre au 23 décembre de 14h à 17h, du 2 mai au 30 juin et du 1er septembre au 31 octobre de 14h à 18h, en juillet-août de 10h à 12h et de 14h à 18h30","1er mai, 1er novembre, et du 24 décembre au 15 février",label-date:01/02/2003,label:musee de france;type:musee,
0615502,88040667,Musée Picasso la guerre et la paix à Vallauris,,Place de la Libération,06220,Vallauris,France,fr,open,43.580016,7.0532145,http://musees-nationaux-alpesmaritimes.fr/picasso/,0493647183,0493649742,Ouvert du 15 juin au 14 septembre de 10h à 12h15 et de 14h à 18h - du 15 septembre au 14 juin de 10h à 12h15 et de 14h à 17h,"1er janvier, le 1er mai, le 1er novembre, le 11 novembre et le 25 décembre",label-date:06/01/2002,label:musee de france;type:musee,
1700401,64990000,Musée Napoléonien et Africain,,Rue Napoléon,17123,Île-d'Aix,France,fr,open,46.0125542,-1.174544936702279,http://musees-nationaux-malmaison.fr/musees-napoleonien-africain/,0546846640,0546846967,"Ouvert du 1er avril au 30 septembre tous les jours de 9h30 à 12h et de 14h à 18h, du 1er au 31 octobre du mercredi au lundi de 9h30 à 12h et de 14h à 18h, du 1er novembre au 31 mars du mercredi au lundi de 9h30 à 12h et de 14h à 17h","1er janvier, 25 décembre",label-date:06/01/2002,label:musee de france;type:musee,
1220204,191987024,Musée Soulages,10,D 161,12510,Druelle,France,fr,open,44.367931,2.5312153124999988,http://musee-soulages.rodezagglo.fr/,0565738244,,"Ouvert d'avril à juin du mardi au dimanche de 11h à 19h, en juillet-août le lundi de 14h à 19h et du mardi au dimanche inclus de 10h à 19h, en septembre du mardi au dimanche inclus de 11h à 19h, d'octobre à avril du mardi au vendredi de 10h à 12h et de 14","1er janvier, 1er mai, 1er novembre et 25 décembre",label-date:24/01/2006,label:musee de france;type:musee,
0500301,67340794,Musée du Vieux Queyras,,,05470,Aiguilles,France,fr,open,44.7812914,6.8683444,http://museum.cg05.fr/3939-musee-du-vieux-queyras.htm,,,,,label-date:01/02/2003,label:musee de france;type:musee,
0506101,3989773309,Musée Départemental des Hautes-Alpes,,Avenue du Maréchal Foch,05000,Gap,France,fr,open,44.5625928,6.0855059,http://museum.hautes-alpes.fr/,0492510158,0492526430,"Ouvert du 1er septembre au 30 juin le lundi et du mercredi au vendredi de 14h à 17h, samedi, dimanche de 14h à 18h et du 1er juillet au 31 août tous les jours jours fériés compris de 10h à 12h et de 14h à 18h","1er ajvier, 1er mai, 25 décembre",label-date:01/02/2003,label:musee de france;type:musee,
4410901,1655069605,Muséum d'Histoire Naturelle de Nantes,12,Rue Voltaire,44000,Nantes,France,fr,open,47.2123903,-1.564645,http://museum.nantes.fr/,0240992620,0251840191,Ouvert du mercredi au lundi de septembre à juin de 10h à 18h et en juillet-août tous les jours de 10h à 19h,Jours fériés,label-date:06/01/2002,label:musee de france;type:musee historique,
7654007,64180707,Muséum d'Histoire Naturelle,198,Rue Beauvoisine,76000,Rouen,France,fr,open,49.44710085,1.0990036003098362,http://museumderouen.fr/fr,0235714150,0235154564,Ouvert du mardi au samedi de 13h30 à 17h30 et le dimanche de 14h à 18h,"1er janvier, Lundi de Pâques, 1er mai, 8 mai, Lundi de Pentecôte, Ascension, 14 juillet, 15 août, 1er novembre, 11 novembre, 25 décembre",label-date:01/02/2003,label:musee de france;type:musee historique,
5546301,7172208820,Musée d'Art Sacré de la Meuse,,Rue du Palais de Justice,55300,Saint-Mihiel,France,fr,open,48.8883687,5.5409286,http://otsisaintmihiel.e-monsite.com/,0329890647,0329890647,"Ouvert du 1er janvier au 31 mars et du 1er novembre au 31 décembre du lundi au vendredi de 9h à 12h30 et de 13h30 à 17h30, le samedi de 11h à 16h, du 1er avril au 14 juin du lundi au samedi de 9h à 12h30 et de 13h30 à 18h, le dimanche de 13h30 à 18h, du 1",,label-date:01/02/2003,label:musee de france;type:musee,
6015903,40472612,Musée national de la Voiture et du Tourisme (Annexe du musée National du Château de Compiègne),,Route de la Tilloye,60200,Compiègne,France,fr,open,49.39907301329229,2.853832018436063,http://palaisdecompiegne.fr/un-palais-trois-musees/le-musee-national-de-la-voiture-et-du-tourisme,0344384700,,Voir musée national de Compiègne,,label-date:06/01/2002,label:musee de france;type:musee,
5306201,4372004098,Musée d'Art et d'Archéologie Hôtel Fouquet,,Rue Jean Bourré,53200,Château-Gontier,France,fr,open,47.8288455,-0.7051231,http://patrimoine.chateaugontier.fr/,0243095598,0243709552,Ouvert du mercredi au dimanche de 15h à 18h de la nuit des musées aux JEP. Ouvert toute l'année pour les groupes et individuels sur réservation,,label-date:01/02/2003,label:musee de france;type:musee,
2819601,6436636155,Musée Marcel Proust,4,Rue du Docteur Proust,28120,Illiers-Combray,France,fr,open,48.2998445,1.243436,http://perso.orange.fr/marcelproust/,0237243097,0237243097,Ouvert de mi-janvier à fin juin et de septembre à mi-décembre du mardi au dimanche de 14h30 à 16h -t en juillet-août visite supplémentaire à 11h,"15 décembre au 15 janvier, 1er mai, 1er & 11 novembre",label-date:01/02/2003,label:musee de france;type:musee,
0230401,4200402074,Musée Jeanne d'Aboville,,Rue du Général de Gaulle,02800,La Fère,France,fr,open,49.6618629,3.3677694,http://perso.wanadoo.fr/lafere/musee.htm,0323567191,0323564004,Ouvert du mercredi au dimanche de 14h à 17h30,"1er janvier, 1er mai, 14 juillet, 1er novembre, 25 décembre",label-date:01/02/2003,label:musee de france;type:musee,
3025801,115179264,Musée de la Maison Romane,,,30800,Saint-Gilles,France,fr,open,43.656743620161855,4.408321515990031,http://saint-gilles.fr/musee-de-la-maison-romane,0466874042,0466877819,"Ouvert d'avril à octobre du mercredi au vendredi de 10h30 à 12h30 et de 14h à 16h, de novembre à mars du mercredi au vendredi de 14h à 16h","Janvier, jours fériés, le 24 et 31 décembre",label-date:01/02/2003,label:musee de france;type:musee,
9722501,399547316,Musée Volcanologique Franck Arnold Perret,,Place Félix Boisson,97250,Saint-Pierre,France,fr,open,14.743057974117763,-61.176360365887476,http://saintpierre-martinique.fr/musee-franck-perret/,0596781516,0596781693,Ouvert tous les jours de 9h à 17h,1er janvier,label-date:01/02/2003,label:musee de france;type:musee,
5056201,121349952,Musée Maritime de l'Ile de Tatihou,,Route du Marais,50550,Saint-Vaast-la-Hougue,France,fr,open,49.600965113208595,-1.2732398728332726,http://tatihou.manche.fr/,0233543333,0233543347,"D'avril à septembre tous les jours de 10h à 18h, d'octobre à mars les weeks-ends et vacances scolaires (l'après-midi).",Décembre et janvier,label-date:01/02/2003,label:musee de france;type:musee,
3155506,224996363,Musée du Vieux Toulouse,,Allées Charles de Fitte,31300,Toulouse,France,fr,open,43.59595163048181,1.4322572720978646,http://toulousainsdetoulouse.fr/,0562271150,0562275088,Ouvert de mi-avril à mi-novembre du lundi au samedi de 14h à 18h. Ouvert toute l'année sur rendez-vous pour les groupes.,Jours fériés,label-date:01/02/2003,label:musee de france;type:musee,
0311801,6934212842,Musée Municipal de Gannat,4,Place Rantian,03800,Gannat,France,fr,open,46.1023452,3.1963134,http://tourisme-bassin-gannat.com/,0470902378,0470901522,Ouvert du 2ème samedi d'avril au dernier dimanche d'octobre du mardi au dimanche de 14h à 18h,,label-date:01/02/2003,label:musee de france;type:musee,
3033401,,Musée Municipal Georges Borias,,Ancien Evêché BP 103,30701,UZES,France,fr,open,,,http://www.uzes-tourisme.com/sitefr/musees/borias.htm,0466224023,,"Ouvert du mardi au dimanche en févrieret novembre-décembre de 14h à 17h, de mars à juin et septembre à octobre de 15h à 18h, juillet-août de 10h à 12h et de 15h à 18h","Janvier, 1er novembre, 25 décembre",label-date:01/02/2003,label:musee de france;type:musee,
6737201,572391872,Musée de l'Image Populaire de Pfaffenhoffen,,Rue du Docteur Albert Schweitzer,67350,Haguenau-Wissembourg,France,fr,open,48.844790950000004,7.611295831739587,http://webmuseo.com/ws/musee-image-populaire,0388078005,0388078009,Ouvert du mercredi au dimanche du 2 mai au 30 septembre de 14h à 18h et du 1er octobre au 30 avril de 14h à 17h,"1er janvier, 4 semaines de fermeture annuelle après le 8 janvier, vendredi Saint, 1er mai, 1er novembre, les 24 et 25 décembre",label-date:15/12/2002,label:musee de france;type:musee d'arts populaires,
9207301,4228872847,MUS - Musée d'Histoire Urbaine et Sociale,,Rue Merlin de Thionville,92150,Suresnes,France,fr,open,48.8683572,2.2220543,http://webmuseo.com/ws/musee-suresnes/app/report,0141183737,0141181676,Ouvert du mercredi au dimanche de 14h à 18h,"Jours fériés, les deux premières semaines d’août et les 24 et 31 décembre",label-date:01/02/2003,label:musee de france;type:musee historique,
6620501,202147590,Musée de Tautavel,,Avenue Léon-Jean Grégory,66720,Tautavel,France,fr,open,42.81374605,2.748188591517857,http://www.450000ans.com/ ou http://www.cerptautavel.com/,0468290776,0468294009,Ouvert toute l'année de 10h à 12h30 et de 14h à 18h en juillet août de 10h à 19h,"1er janvier, 25 décembre",label-date:01/02/2003,label:musee de france;type:musee,
8306102,,Musée des Troupes de Marine,,Avenue du Musée des Troupes de Marine B.P. 94,83608,FREJUS,France,fr,open,,,http://www.aamtdm.net,0494178782,0494178635,"Ouvert du lundi au vendredi de juin à septembre de 10h à 12h et de 14h à 18h et d'octobre à mai de 14h à 18h le dimanche et lundi, et du mercredi au vendredi",Du 24 décembre au 2 janvier,label-date:29/08/2006,label:musee de france;type:musee,
5011001,206441811,Musée de l'Abbaye,,D 292,50680,Couvains,France,fr,open,49.17571688093131,-1.0126331899124608,http://www.abbaye-cerisy.fr/,0233573463,0233573463,"Ouvert en avril du mardi au dimanche de 11h à 18h, de mai à août tous les jours de 10h à 18h, en septembre du mercredi au dimanche de 12h à 18h, d'octobre à la Toussaint le week-end de 12h à 18h",,label-date:01/02/2003,label:musee de france;type:musee,
0268401,730644313,Musée de la Vie Rurale et Forestière,,Laie Micorda,02830,Saint-Michel,France,fr,open,49.92324462193808,4.168450837370037,http://www.abbaye-saintmichel.com/,0323588720,0323588722,,,label-date:01/02/2003,label:musee de france;type:musee,
1300106,4878029809,Musée Paul Arbaud,,Place des Quatre Dauphins,13626,Aix-en-Provence,France,fr,open,43.5253104,5.4501576,http://www.academiedaix.org/,0442383895,,Ouvert du mardi au samedi de 14h à 17h. Visite de groupe de préférence le matin sur rdv,,label-date:01/02/2003,label:musee de france;type:musee,
4700101,,Musée des Beaux-Arts,,Place du Dr Pierre Esquirol,47916,AGEN,France,fr,open,,,http://www.agen.fr/musee,0553694723,0553694777,Ouvert toute l'année de 10h à 12h30 et de 13h30 à 18h,"1er janvier, 1er et 8 mai, Lundi de Pâques, Jeudi de l'Ascension,1er et 11 novembre, 25 décembre",label-date:01/02/2003,label:musee de france;type:musee de beaux-arts,
7904901,1823218211,Musée de Bressuire,,Rue des Religieuses,79300,Bressuire,France,fr,open,46.8417018,-0.4932582,http://www.agglo2b.fr/,0549743224,,Ouvert samedi et dimanche de 14h à 18h. Sur rdv de 9h à 11h30 et de 13h30 à 17h,Janvier,label-date:01/02/2003,label:musee de france;type:musee,
8606603,53005059,"Musée de la Moto, de l'Automobile et du Vélo",,Allée de la Chapelle d'Antoigné,86100,Châtellerault,France,fr,open,46.82518281888358,0.5758513629595088,http://www.agglo-chatellerault.fr/,0549210346,0549852588,"Ouvert du 1er février au 30 juin et du 21 septembre au 31 décembre du mercredi au dimanche de 14h à 18h, du 1er juillet au 20 septembre du mercredi au lundi de 10h à 12h et de 14h à 18h. Ouverture le lundi toute la journée, du mercredi au samedi le matin","Janvier, 1er mai, le 25 décembre",label-date:01/02/2003,label:musee de france;type:musee,
7919104,7312560170,Musée Bernard d’Agesci,,Avenue de Limoges,79000,Niort,France,fr,open,46.3210927,-0.4541762,http://www.agglo-niort.fr/-Musee-Bernard-d-Agesci,0549787204,0549787219,Ouvert du mardi au dimanche de 10h à 17h du 16 septembre au 30 avril et de 10h à 18h du 1er mai au 15 septembre,,label-date:01/02/2003,label:musee de france;type:musee,
1300103,27582532,Musée du palais de l'Archevêché (ex musée des Tapisseries),,Avenue Alfred Capus,13090,Aix-en-Provence,France,fr,open,43.53535896287801,5.434581927326592,http://www.aixenprovence.fr/Musee-des-Tapisseries,0442230991,0442918873,Ouvert du 1er janvier au 14 avril de 10h à 12h30 et 13h30 à 17h et du 15 avril au 31 décembre 2017 de 10h à 12h30 et 13h30 à 18h,"Janvier, 1er mai, 25 décembre",label-date:01/02/2003,label:musee de france;type:musee,
1300101,87741780,Musée du Pavillon de Vendôme,13,Rue de la Molle,13100,Aix-en-Provence,France,fr,open,43.5311451,5.442097351888718,http://www.aixenprovence.fr/Pavillon-de-Vendome-465,0442918875,0442918873,Ouvert du 1er janvier au 14 avril du mercredi au lundi de 10h à 12h30 et de 13h30 à 17h et à partir du 15 avril du mercredi au lundi de 10h à 12h30 et de 13h30 à 18h,"1er mai, 25 décembre",label-date:01/02/2003,label:musee de france;type:musee,
2A00401,66271794,Musée Napoléonien,,Avenue Antoine Serafini,20000,Ajaccio,France,fr,open,41.91934165,8.739064594742057,http://www.ajaccio.fr/Salon-Napoleonien_a50.html,0495515253,0495218094,Ouvert du 15 juin au 15 septembre du lundi au vendredi de 9h à 11h45 et de 14h à 17h45 et du 16 septembre au 14 juin du lundi au vendredi de 9h à 11h45 et de 14h à 16h45,,label-date:01/02/2003,label:musee de france;type:musee,
7301101,70923998,Musée Municipal d'Albertville-Conflans,,Route du Chenola,73200,Albertville,France,fr,open,45.674361742870744,6.369726883867193,http://www.albertville.fr/,0479378686,0479328339,Ouvert du mercredi au dimanche de 10h à 12h30 et de 13h30 à 18h. Pendant les vacances scolaires (toutes zones) ouvert tous les jours de 10h à 12h30 et de 13h30 à 18h,"24, 25, 31 décembre, le 1er janvier, 1er mai",label-date:01/02/2003,label:musee de france;type:musee,
2100801,82976658,Musée Alésia - Centre d'Interprétation,,D 10,21150,Grésigny-Sainte-Reine,France,fr,open,47.53414097726677,4.525794618453544,http://www.alesia.com/,0380969623,0380969624,"Ouverture en février-mars et novembre de 10h à 17h, d'avril à juin et de septembre à octobre de 10h à 18h, en juillet-août de 10h à 19h",Du 2 janvier au 13 février inclus pour le CI et vestiges. Du 12 novembre au 31 décembre pour les vestiges. En décembre pour le CI,label-date:01/02/2003,label:musee de france;type:musee,
8613701,64482102,Musée Charbonneau-Lassay,,Rue du Martray,86200,Loudun,France,fr,open,47.01017505,0.07548291119472342,http://www.alienor.org/,0549980848,0549981288,"Ouvert mercredi, samedi et dimanche de 15h à 18h de janvier-juin et septembre-décembre, en juillet-août du mercredi au lundi de 15h à 19h",,label-date:01/02/2003,label:musee de france;type:musee,
1721801,4243457233,Musée Cappon,,Rue d'Aligre,17230,Marans,France,fr,open,46.3092605,-0.9921718,http://www.alienor.org/,0546011287,0546359736,"Ouvert du 1er janvier au 31 mars et du 1er octobre au 31 décembre du lundi au mercredi et le vendredi de 9h30 à 12h30 et de 14h à 17h30 et le jeudi de 9h30 à 12h30, du 1er avril au 30 juin et en septembre du lundi au mercredi et le vendredi de 9h30 à 12h3",Jours fériés,label-date:01/02/2003,label:musee de france;type:musee,
8606602,35154574,Musée Municipal de l'Hôtel de Sully,,Rue de Sully,86100,Châtellerault,France,fr,open,46.816026764044175,0.5420903357424701,http://www.alienor.org/,0549210127,0549852588,,,label-date:01/02/2003,label:musee de france;type:musee,
1730002,8232350999,Musée du Nouveau Monde,10,Rue Fleuriau,17000,La Rochelle,France,fr,open,46.1614493,-1.1511343,http://www.alienor.org/,0546414650,0546419579,"Ouvert d'octobre à juin le lundi, mercredi, jeudi, vendredi de 9h30 à 12h30 et de 13h45 à 17h, week-end de 14h à 18h et de juillet à septembre de 10h à 13h et de 13h45 à 18h, week-end de 14h à 18h","1er janvier, 1er mai, 14 juillet, 1er et 11 novembre, 25 décembre",label-date:26/05/2002,label:musee de france;type:musee,
1741503,360826689,Musée Archéologique,,Rue René Cassin,17100,Saintes,France,fr,open,45.741644449999995,-0.6294367037011372,http://www.alienor.org/,0546742097,0546976233,"Ouvert du 1er avril au 30 septembre du mardi au samedi de 10h à 12h30 et de 13h30 à 18h, le dimanche de 14h à 18h, du 1er octobre au 31 mars du mardi au samedi de 13h30 à 17h","1er janvier, 1er mai, 1er novembre, 25 décembre",label-date:01/02/2003,label:musee de france;type:musee archeologique;art:prehistoire,
7919103,425332637,Musée ethnographique et archéologique du Donjon,,Rue Gustave Eiffel,79000,Niort,France,fr,open,46.3316538,-0.46343476029503605,http://www.alienor.org/,0549787200,0549787219,Ouvert du mardi au dimanchei de 10h à 12h30 et de 14h à 18h du 1ermai au 15 septembre et de 10h à 12h30 et de 14h à 17h du 16 septembre au 30 avril (musée ouvert ponctuellement lors de expositions temporaires ou pendant les vacances scolaires),,label-date:01/02/2003,label:musee de france;type:musee archeologique;art:prehistoire,
1730003,119813966,Musée des Beaux-Arts,,Rue Gargoulleau,17000,La Rochelle,France,fr,open,46.162119000000004,-1.1516622730597308,http://www.alienor.org/,0546416465,0546292260,"Ouvert d'octobre à juin le lundi, mercredi, jeudi, vendredi de 9h30 à 12h30 et de 13h45 à 17h, week-end de 14h à 18h et de juillet à septembre de 10h à 13h et de 13h45 à 18h, week-end de 14h à 18h","1er janvier, 1er mai, 14 juillet, 1er et 11 novembre, 25 décembre",label-date:26/05/2002,label:musee de france;type:musee de beaux-arts,
1730004,119814589,Musée d'Orbigny-Bernon,11,Rue des Augustins,17000,La Rochelle,France,fr,open,46.160786,-1.155112461886791,http://www.alienor.org/,0546411883,,"Ouvert du 1er octobre au 30 juin le lundi, mercredi, jeudi, vendredi de 9h30 à 12h30 et de 13h30 à 17h, week-end de 14h à 18h et du 1erjuillet au 30 septembre de 10h à 13h et de 13h45 à 18h, week-end de 14h à 18h",,label-date:26/05/2002,label:musee de france;type:musee,
1741504,136636772,Musée Dupuy-Mestreau,,Rue Monconseil,17100,Saintes,France,fr,open,45.74313975,-0.6340019161865896,http://www.alienor.org/,0546933671,0546982393,"Ouvert du 1er avril au 30 septembre du mardi au samedi de 10h à 12h30 et de 13h30 à 18h, le dimanche et jours fériés de 14h à 18h, du 1er octobre au 31 mars du mardi au dimanche de 14h à 17h, jours fériés de 14h à 17h","1er janvier, 1er mai, 1er novembre, 25 décembre",label-date:01/02/2003,label:musee de france;type:musee,
7920201,64332716,Musée d'Art et d'Histoire Georges Turpin,1,Rue de la Vau Saint-Jacques,79200,Parthenay,France,fr,open,46.651990549999994,-0.24898664024635325,http://www.alienor.org/ ou http://www.cc-parthenay.fr/Patrimoine/Musee/presentation/present-2.htm,0549645373,0549949056,"Ouvert du mercredi au vendredi de 10h à 12h et de 14h à 18h, le dimanche de 14h30 à 18h et le samedi de juin à septembre de 14h30 à 18h",Jours fériés,label-date:01/02/2003,label:musee de france;type:musee historique,
3819101,405351300,Musée d'Huez et de l'Oisans,,Les Chamois,38750,L'Alpe d'Huez,France,fr,open,45.0990795,6.0843169,http://www.alpedhuez-mairie.fr/47-musee.html,0476112174,0476113425,Ouvert du lundi au samedi de 10h à 12h et de 14h à 19h de décembre à avril et en juillet-août et le premier dimanche de chaque mois,Jours fériés,label-date:01/02/2003,label:musee de france;type:musee,
9730901,9598386,Musée des Cultures Guyanaises,78,Rue Madame Payé,97300,Cayenne,France,fr,open,4.941449049999999,-52.32837932029817,http://www.amazonian-museum-network.org/,0594314172,0594378445,"Le 78 rue Mme Payé est ouvert lundi et mardi de 8h à 13h et de 15h à 17h45, mercredi de 8h à 13h, jeudi et vendredi de 8h à 13h et de 15h à 17h45, samedi de 8h à 12h Le 54 rue Mme Payé est ouvert lundi et mardi et jeudi de 8h à 13h et de 15h à 17h45, mer",,label-date:01/02/2003,label:musee de france;type:musee,
8002102,3917996518,Musée de l'Hôtel de Berny,40,Rue Victor Hugo,80000,Amiens,France,fr,open,49.8930439,2.3025013,http://www.amiens.com/,0322971400,0322971427,,,label-date:01/02/2003,label:musee de france;type:musee,
8002101,3892429086,Musée de Picardie,48,Rue de la République,80000,Amiens,France,fr,open,49.8903728,2.2958898,http://www.amiens.fr/musees,0322971400,0322971426,"Ouvert mardi, vendredi, samedi de 10h à 12h et de 14h à 18h, mercredi de 10h à 18h, jeudi de 10h à 12h et de 14h à 21h, dimanche de 14h à 19h, ouvert le 15 août","1er janvier, 1er & 11 novembre, 25 décembre",label-date:06/01/2002,label:musee de france;type:musee,
1136901,25667301,Musée Archéologique,,,11590,Sallèles-d'Aude,France,fr,open,43.26829035037811,2.939021477229481,http://www.amphoralis.com/,0468468948,0468468811,"Ouvert d'octobre à mai du mardi au vendredi de 13h30 à 17h, samedi-dimanche de 10h à 12h et de 14h à 18 et de juin à septembre du mardi au dimanche de 10h à 12h et de 15h à 19h","1er mai, 1er et 11 novembre et du 19 décembre au 6 janvier",label-date:01/02/2003,label:musee de france;type:musee archeologique;art:prehistoire,
7710802,111020806,"Musée des Transports Urbains, Interurbains et Ruraux",1,Rue Gabriel de Mortillet,77500,Chelles,France,fr,open,48.8772165,2.6031387497966936,http://www.amtuir.org/,0160204550,0146521681,Accueil de groupe sur rendez-vous et lors des JEP et nuit des musées,,label-date:01/02/2003,label:musee de france;type:musee,
1734701,89437771,Musée Municipal des Cordeliers,18,Rue Régnaud,17400,Saint-Jean-d'Angély,France,fr,open,45.942658800000004,-0.523387020754123,http://www.angely.net,0546250972,0546322954,"Ouvert de mi juin à mi septembre du mardi au dimanche, et jours fériés (hors lundis) de 10h30 à 12h30 et de 13h30 à 18h, de mi-septembre à mi-juin du mercredi auvendredi de 14h à 18h, samedi, dimanche et jours fériés de 14h30 à 18h",,label-date:01/02/2003,label:musee de france;type:musee,
4900704,126965407,Galerie David d'Angers,14,Rue du Musée,49100,Angers,France,fr,open,47.4689171,-0.5545021308806701,http://www.angers.fr/mba,0241053800,0241053839,Ouvert du 2 janvier au 30 avril et du 22 septembre au 31 décembre du mardi au dimanche de 10 h à 18h et du 2 mai au 20 septembre 2015 tous les jours et de 10h à 18h,"1er janvier, 1er mai, 1er et 11 novembre et 25 décembre",label-date:06/01/2002,label:musee de france;type:a classer,
4900701,126965407,Musée des Beaux-Arts,14,Rue du Musée,49100,Angers,France,fr,open,47.4689171,-0.5545021308806701,http://www.angers.fr/mba,0241053800,0241053839,Ouvert du 2 janvier au 30 avril et du 22 septembre au 31 décembre : du mardi au dimanche de 10 h à 18h Du 2 mai au 20 septembre 2015 : tous les jours et de 10h à 18h,"1er janvier, 1er mai, 1er et 11 novembre et 25 décembre",label-date:06/01/2002,label:musee de france;type:musee de beaux-arts,
4900708,8142950,Muséum des Sciences Naturelles,43,Rue Jules Guitton,49000,Angers,France,fr,open,47.473709,-0.5462840642857151,http://www.angers.fr/museum,0241054850,0241054851,Ouvert du mardi au dimanche de 14h à 18h. Le matin pour les groupes sur réservation,"1er janvier, 1er mai, 1er et 11 novembre et 25 décembre",label-date:01/02/2003,label:musee de france;type:museum,
9201201,37201149,Musée des Années Trente,,Rue Gallieni,92100,Boulogne-Billancourt,France,fr,open,48.836465448575325,2.238679548631924,http://www.annees30.com/,0155184642,0155185158,Ouvert du mardi au dimanche de 11h à 18h,"1er janvier, 1er mai, 25 décembre",label-date:01/02/2003,label:musee de france;type:musee,
6002901,3495694612,Musée de la Céramique Architecturale,287,Avenue du Maréchal Foch,60390,Auneuil,France,fr,open,49.3715269,1.9916533,http://www.annuaire-mairie.fr/musee-de-la-ceramique-architecturale.html,0344477847,0344477629,Musée fermé au public,,label-date:01/02/2003,label:musee de france;type:musee,
5903601,4631928909,Musée d'Histoire et d'Archéologie,,Rue Villien,59440,Avesnes-sur-Helpe,France,fr,open,50.1225569,3.9315834,http://www.annuaire-mairie.fr/musee-de-la-societe-archeologique-d-avesnes-sur-helpe.html#musee,0327611015,,,,label-date:01/02/2003,label:musee de france;type:musee historique,
0600401,3042324042,Musée Picasso,,Place Mariejol,06600,Antibes,France,fr,open,43.5809665,7.1278516,http://www.antibes-juanlespins.com/,0492905420,0492905421,"Ouvert du 16 septembre au 14 juin de 10h à 12h et de 14h à 18h, du 15 juin au 15 septembre de 10h à 18h. Nocturnes en juillet et août le mercredi et le vendredi jusqu’à 20h","1er janvier, le 1er mai, le 1er novembre et le 25 décembre",label-date:01/02/2003,label:musee de france;type:musee,
0600402,44828659,Musée d'Histoire et d'Archéologie,,Impasse Auguste Donnet,06600,Antibes,France,fr,open,43.594171927120264,7.103216597014965,http://www.antibes-juanslespins.com/fr/culture/musees,0493958598,0492905335,Ouvert du mardi au dimanche du 16 septembre au 14 juin de 10h à 13h et de 14h à 17h et du 15 juin au 15 septembre de 10h à 12h et de 14h à 18h,"1er janvier, 1er mai, 1er novembre, 25 décembre",label-date:01/02/2003,label:musee de france;type:musee historique,
7510517,60807091,Musée de l'Assistance Publique - Hôpitaux de Paris,7,Rue du Fer à Moulin,75005,Paris,France,fr,open,48.83903325,2.3549278190090392,http://www.aphp.fr/musee,0140275005,0140274648,,,label-date:02/10/2002,label:musee de france;type:musee,
7511201,1244401762,Etablissement public de la Porte Dorée - Aquarium Tropical,,Avenue Daumesnil,75012,Saint-Mandé,France,fr,open,48.8350785,2.4203112,http://www.aquarium-portedoree.fr/,0144748480,0143432753,"Ouvert tous les jours du mardi au vendredi de 10h à 17h15, le week-end de 10h à 19h, y compris certains jours fériés",,label-date:06/01/2002,label:musee de france;type:a classer,
9535101,4542685707,ARCHEA - Archéologie en Pays de France,56,Rue de Paris,95380,Louvres,France,fr,open,49.041052,2.5072634,http://www.archea-roissyportedefrance.fr/,0134090105,0134729691,Ouvert du mercredi au vendredi de 13h30 à 18h et le samedi et dimanche et jours fériés de 11h à 18h,"Entre le 25 décembre et le 1er janvier, et le 1er mai",label-date:01/02/2003,label:musee de france;type:a classer,
9750202,164826452,Musée de l'Arche,,Rue du 11 Novembre,97500,Saint-Pierre,France,fr,open,46.777100649999994,-56.17583987786475,http://www.arche-musee-et-archive.net,0508410435,0508410436,"Ouvert du lundi au dimanche de 10h à 12h et de 13h30 à 17h du 1er mai au 31 octobre, le reste de l'année du lundi au vendredi et les fins de semaine en période d'expositions temporaires",,label-date:01/02/2003,label:musee de france;type:musee,
0119201,181617867,Musée Archéologique,,Place de l'Église,01580,Izernore,France,fr,open,46.219906153560856,5.555621035507474,http://www.archeologie-izernore.com/,0474492042,0474492042,"Ouvert de septembre à mai du mercredi au vendredi de 9h à 12h et de 14h à 17h, et de juin à août du mardi au samedi de 9h à 12h et de 14h à 18h","Jours fériés, et fermeture exceptionnelle",label-date:01/02/2003,label:musee de france;type:musee archeologique;art:prehistoire,
3620001,725782456,Musée Archéologique d'Argentomagus,,D 927,36200,Le Pêchereau,France,fr,open,46.595712985799736,1.5729012280559933,http://www.argentomagus.com/ ou http://www.argentomagus.cc-argenton.fr/,0254244731,0254241170,Ouvert du 1er septembre au 30 juin du mercredi au lundi de 9h30-12h et de 14h-18h et en juillet-août tous les jours,du 24 décembre au 1er janvier inclus et durant les trois premières semaines de janvier,label-date:01/02/2003,label:musee de france;type:musee archeologique;art:prehistoire,
6301001,75373122,Musée de la Dentelle,,Ancienne Route Nationale,63220,Arlanc,France,fr,open,45.414248799999996,3.724555884818339,http://www.arlanc.fr/dentelle/index.php,0473950003,0473951892,"Ouvert du 1er mai au 30 juin week-end et jours fériés de 14h à 18h, du 1er juillet au 31 août tous les jours de 14h à 18h, du 1er au 30 septembre les week-end de 14h à 18h",Décembre à mi mars,label-date:01/02/2003,label:musee de france;type:musee,
1300405,,Musée Départemental de l'Arles Antique,,Presqu'île-du-Cirque-Romain B.P. 205,13635,ARLES Cédex,France,fr,open,,,http://www.arles-antiques.cg13.fr/,0413315103,0413315137,Ouvert du mercredi au lundi de 10h à 18h,"1er janvier, 1er mai, 1er novembre, 25 décembre",label-date:01/02/2003,label:musee de france;type:musee archeologique;art:antiquite,
6416001,171903858,Musée Edmond Rostand,,Gerastoko bidea,64250,Espelette,France,fr,open,43.32194428659561,-1.4309144919712813,http://www.arnaga.com/,0559298392,0559299494,"Ouvert tous les jours d'avril à juin et de septembre au 14 octobre de 9h30 à 12h30 et de 14h30 à 18h30, en juillet-août de 10h à 19h, et du 15 octobre à la fin des vacances de la Toussaint de 14h30 à 18h",,label-date:01/02/2003,label:musee de france;type:musee,
4012001,224791356,Musée Départemental d'Histoire et d'Archéologie,,Route de l'Abbaye,40300,Hastingues,France,fr,open,43.524410945642074,-1.1223196354557534,http://www.arthous.landes.org/,0558730389,0558737272,Ouvert du 1er avril au 30 septembre du mardi au dimanche de 11h à 13h et de 14h à 18h30 et du 1er octobre au 30 novembre du mardi au dimanche de 14h à 17h,"1er mai, 1er & 11 novembre",label-date:01/02/2003,label:musee de france;type:musee historique,
0608816,183459679,Musée Départemental des Arts Asiatiques,,,0610,Nice,France,fr,open,43.712619,7.2380114,http://www.arts-asiatiques.com/,0492293700,0492293701,Ouvert du mercredi au lundi en juillet-août de 10h à 18h et de septembre à juin de 10h à 17h,"1er janvier, 1er mai et 25 décembre",label-date:01/02/2003,label:musee de france;type:musee,
7510304,,Musée National des Techniques (Conservatoire National des Arts et Métiers),292,rue Saint-Martin,75003,PARIS,France,fr,open,,,http://www.arts-et-metiers.net,0153018200,0153018201,"Ouvert du mardi au dimanche de 10 h à 18h, jeudi jusqu'à 21h30","1er mai, 25 décembre",label-date:06/01/2002,label:musee de france;type:musee technique et industriel,
1300105,6124132187,Musée-Atelier de Paul Cézanne,,Avenue Paul Cézanne,13626,Aix-en-Provence,France,fr,open,43.5379805,5.4466766,http://www.atelier-cezanne.com/,0442210653,0442219034,Ouvert de lundi à dimanche de 10h à 12h et de 14h à 17h jusqu'à 18h de juin à septembre,"1er janvier, 1er mai, 25 décembre",label-date:01/02/2003,label:musee de france;type:atelier d'artiste,
3155504,22718219,Musée des Augustins,,Rue Antonin Mercié,31000,Toulouse,France,fr,open,43.6009417,1.4463433320120154,http://www.augustins.org/,0561222182,0561223469,Ouvert tous les jours de 10h à 18h. Nocturne le mercredi jusqu'à 21h,,label-date:06/01/2002,label:musee de france;type:musee,
1501401,567566720,Musée des Sciences,13,Rue du Château Saint-Etienne,15000,Aurillac,France,fr,open,44.9332317,2.4451841,http://www.aurillac.fr/,0471480700,0471482919,Ouvert de janvier à mi-juin et de septembre à décembre du mardi au samedi de 14h à l8h et de mi-juin au 4 septembre du lundi au samedi de 10h à 18h30 et le dimanche de 14h à 18h30,"1er janvier, 1er mai, 1er novembre, 25 décembre",label-date:01/02/2003,label:musee de france;type:musee,
7101402,2914005204,Musée Rolin,3,Rue des Bancs,71400,Autun,France,fr,open,46.9457239,4.2992324,http://www.autun.com/,0385542160,0385524741,"de mi-février à fin mars du lundi au samedi de 10h à 12h et de 14h à 17h, le dimanche de 14h à 17h, du 1er avril au 30 juin de 9h30 à 12h et de 13h30 à 18h, septembre de 9h30 à 12h et de 13h30 à 18h, juillet à septembre de 10h à 13h et de 14h à 18h, de j","1er mai, 14 juillet, 1er et 11 novembre, du 15 décembre au 21 février inclus",label-date:01/02/2003,label:musee de france;type:musee,
7101404,2913866511,Museum d'Histoire Naturelle Jacques de La Comble,14,Rue Saint-Antoine,71400,Autun,France,fr,open,46.9480092,4.3017976,http://www.autun.com/tourisme/museum.php,0385520915,0385863878,"Ouvert en juin du lundi au vendredi de 14h à 17h30, en juillet et août du mercredi au dimanche de 14h à 17h30, durant les autres périodes le mercredi de 17h à 17h et sur rendez-vous pour les autres jours",Jours fériés,label-date:06/01/2002,label:musee de france;type:musee historique,
1518701,467734259,Musée de la Haute Auvergne,,D 909,15100,Saint-Georges,France,fr,open,45.03254565335945,3.1189028249908994,http://www.auvergne-centrefrance.com/geotouring/musees/detail/mus154.htm,0471602232,0471606847,"Ouvert de mai à fin octobre tous les jours de 10h à 12h et de 14h à 18h, de novembre à fin avril le lundi et du mercredi au samedi de 10h à 12h et de 14h à 17h","1er mai, jours fériés, Entre Noël et jour de l'an",label-date:01/02/2003,label:musee de france;type:musee,
8200801,71379817,Musée du Vieil Auvillar,,Autoroute des Deux Mers,82340,Caudecoste,France,fr,open,44.06827504765832,0.8465495996699195,http://www.auvillar.com/,0563395733,0563398982,Ouvert du 15 avril au 15 octobre du mercredi au lundi de 14h30 à 18h30 et du 16 octobre au 14 avril samedi et dimanche de 14h30 à 17h30,"Décembre, janvier",label-date:01/02/2003,label:musee de france;type:musee,
8934401,6718625473,Musée de l'Aventure du Son,1,Place de l'Hôtel de Ville,89170,Saint-Fargeau,France,fr,open,47.6411673,3.0706386,http://www.aventureduson.fr/,0386741306,0386741306,"Ouvert en mars, avril, octobre du mercredi au lundi de 14h à 18h, de mai à septembre tous les jours de 10h à 12h et de 14h à 18h. Hors périodes d'ouverture sur rdv pour les groupes","1er novembre, 25 décembre, 1er janvier",label-date:23/06/2008,label:musee de france;type:musee,
1404701,2578288672,Tapisserie de Bayeux - MAHB Musée d'Art et d'Histoire Baron Gérard,37,Rue du Bienvenu,14400,Bayeux,France,fr,open,49.2761648,-0.7036632,http://www.bayeuxmuseum.com/mahb.html,0231921421,0231219184,Ouvert tous les jours du 15 février au 30 avril et du 1er octobre au 31 décembre de 10h à 12h30 et de 14h à 18h et du 1e rmai au 30 septembre de 9h30 à 18h30,Du 4 janvier au 16 février (2016),label-date:01/02/2003,label:musee de france;type:musee historique,
3003201,307878744,Musée Municipal de la Vignasse,,Chemin du Mas d'Allaud,30300,Beaucaire,France,fr,open,43.77774379548823,4.5833390652508745,http://www.beaucaire.fr/spip.php?article65,0466599007,0466594761,"Ouvert du 1er avril au 30 juin du mercredi au vendredi de 9h30 à 12h30 et de 14h à 18h et le samedi de 14h à 18h, du 1er juillet au 30 septembre du mercredi au dimanche de 9h30 à 12h30 et de 14h à 18h et du 1eroctobre au 31 mars de 14h à 17h","Du 25 décembre au 2 janvier inclus, 1er & 8 mai, 1er & 11 novembre",label-date:01/02/2003,label:musee de france;type:musee,
6901801,1788408911,Musée Folklorique et Traditions Populaires Marius Audin,,Place de l'Hôtel de Ville,69430,Beaujeu,France,fr,open,46.1546049,4.5876708,http://www.beaujolaisvignoble.com/,0474692288,0474044293,"Ouvert du mardi au dimanche en mars à avril et octobre à novembre de 10h à 12h et de 14h30 à 18h, et de mai à septembre tous les jours de 9h30 à 12h30 et de 14h30 à 18h30, fermeture à 19h en juillet-août",Décembre-Janvier-Février,label-date:01/02/2003,label:musee de france;type:musee d'arts populaires,
7510610,148485612,Musée de l'Ecole Nationale Supérieure des Beaux-Arts,14,Rue Bonaparte,75006,Paris,France,fr,open,48.85713185,2.333843977034844,http://www.beauxartsparis.fr/,0147035000,0147035080,Le Cabinet des dessins Jean Bonna est ouvert de 13h à 18h du lundi au vendredi,,label-date:2017-07-10 00:00:00,label:musee de france;type:musee de beaux-arts,
2403701,7125697131,Musée d'Anthropologie du Tabac d'Intérêt National,,Rue Docteur Roux,24100,Bergerac,France,fr,open,44.8576347,0.4953255,http://www.bergerac.fr/EspCulture/sitetabac/index.htm,0553630413,0553619002,"Ouvert en basse saison du mardi au vendredi de 10h à 12h et de 14h à 18h, le samedi de 10h à 12h et d'avril à fin mai du mardi au samedi de 10h à 12h et de 14h à 18h, le dimanche de 14h30 à 18h30, du 1er juin à fin septembre tous les jours de 10h à 13h et",Jours fériés,label-date:01/02/2003,label:musee de france;type:musee,
2505602,108767,Musée du Temps,,Rue de la Préfecture,25000,Besançon,France,fr,open,47.2357435,6.026814505707437,http://www.besancon.fr/museedutemps,0381878161,0381878160,"Ouvert du mardi au samedi de 9h15 à 12h et de 14h à 18h , dimanche et jours fériés de 10h à 18h","1er janvier, 1er mai, 1er novembre, 25 décembre",label-date:01/02/2003,label:musee de france;type:musee,
6733901,2734407949,Musée de la Poterie,9,Rue de Kuhlendorf,67660,Betschdorf,France,fr,open,48.9004548,7.9143422,http://www.betschdorf.fr/tourisme/visiter_betschdrof/musee_poterie.php,0388544807,0388544807,"Ouvert du mardi au samedi de 10h à 12h et de 13h à 18h, dimanche de 14h à 18h (ouvert du 21 avril au 29 septembre en 2013)",Novembre à mi-avril,label-date:01/02/2003,label:musee de france;type:musee,
7144001,367087539,Musée de Bibracte,,,71990,Saint-Léger-sous-Beuvray,France,fr,open,46.93450027674302,4.062967132048242,http://www.bibracte.fr/,,,"Ouvert en 2017 du 11 mars au 12 novembre de 10 h à 18h, en juillet et août tous les jours jusqu'à 19 h, et les mercredis jusqu'à 22 h.",Décembre à mi-mars,label-date:17/11/2017,label:musee de france;type:musee,
9201204,37201149,Musée Belmondo et de la Sculpture Figurative du XXè siècle,,Rue Gallieni,92100,Boulogne-Billancourt,France,fr,open,48.836465448575325,2.238679548631924,http://www.boulognebillancourt.com/,0155186901,,Ouvert du mardi au vendredi de 14h à 18h et du samedi au dimanche de 11h à 18h,"1er janvier, 1er mai, 25 décembre",label-date:26/03/2007,label:musee de france;type:musee,
9201202,624715219,Musée-Jardin Paul Landowski,,Rue Max Blondat,92100,Boulogne-Billancourt,France,fr,open,48.8445428,2.2475611282111294,http://www.boulognebillancourt.com/,0146058269,,"Ouvert les mercredi, samedi et dimanche de 10h à 12h et de 14h à 17h","1er janvier, 1er mai, 25 décembre - Août",label-date:01/02/2003,label:musee de france;type:musee,
7511502,1212876,Musée Bourdelle,16,Rue Antoine Bourdelle,75015,Paris,France,fr,open,48.843215,2.318663236817872,http://www.bourdelle.paris.fr/,0149547373,0145442165,Ouvert du mardi au dimanche de 10h à 18h,,label-date:08/07/2004,label:musee de france;type:musee,
0105301,93592377,Musée du Brou,,Esplanade de la Grenette,01000,Bourg-en-Bresse,France,fr,open,46.206649150000004,5.224214836347308,http://www.bourgenbresse.fr/Vie-municipale/,0474228383,0474247670,"Ouvert tous les jours du 1er octobre au 31 mars de 9h à 12h et de 14h à 17h, du 1er avril au 30 juin de 9h à 12h30 et de 14h à 18h, du 1er juillet au 30 septembre de 9h à 18h","1er janvier, 1er mai, 1er et 11 novembre, 25 décembre",label-date:01/02/2003,label:musee de france;type:musee,
3805301,120266165,Musée de Bourgoin-Jallieu,17,Rue Victor Hugo,38300,Bourgoin-Jallieu,France,fr,open,45.586719,5.279306259049774,http://www.bourgoinjallieu.fr/culture/musee,0474281974,0474939358,"Ouvert du mardi au vendredi de 10h à 12h et de 14h à 18h, le samedi et dimanche de 14h à 18h",Jours fériés,label-date:01/02/2003,label:musee de france;type:musee,
3403901,281458331,Musée de l'Etang de Thau,,Chemin du Belvédère,34140,Bouzigues,France,fr,open,43.44685265,3.6607317090396263,http://www.bouzigues.fr/musee,0467783357,0467785156,"Ouvert du lundi au dimanche en juillet-août de 10h à 12h30 et de 14h30 à 19h, de novembre à février de 10h à 12h et de 14h à 17h, de mars à Juin et de septembre à octobre de 10h à 12h et de 14h à 18h","1er Janvier, 25 Décembre",label-date:01/02/2003,label:musee de france;type:musee,
9111401,48359053,Musée Municipal Robert Dubois-Corneau,,Rue de la Glacière,91800,Brunoy,France,fr,open,48.7003494,2.5007316063279736,http://www.brunoy.fr/,0160463360,0160472920,Ouvert du mercredi au dimanche de 14h à 18h du 1er mai au 31 octobre et de 14h à 17h du 1er novembre au 30 avril,Août et jours fériés et du 25 décembre 2010 au 4 janvier 2011,label-date:01/02/2003,label:musee de france;type:musee,
9401501,7035367308,Musée Adrien Mentienne,1,Grande Rue Charles de Gaulle,94360,Bry-sur-Marne,France,fr,open,48.835224,2.519827,http://www.bry94.fr/bry/71.htm,0145166833,0145166848,"Ouverture lors d'expositions Images de la grande guerre du 20 septembre au 16 novembre 2014, mercredi au vendredi de 15h à 18h le samedi et dimanche de 10h à 13h et de 15h à 18h",,label-date:01/02/2003,label:musee de france;type:musee,
1411825,257610055,Musée de la Poste et des Techniques de communication,,Rue Saint-Pierre,14000,Caen,France,fr,open,49.1834775,-0.36371200522182934,http://www.caen.fr/museedelaposte/,0231501210,0231863338,Ouvert toute l'année du mardi au samedi,Jours fériés,label-date:06/01/2002;unlabel-date:2012-01-16 00:00:00,label:musee de france;type:musee technique et industriel,
0602702,23223092,Musée Renoir,,Chemin des Collettes,06800,Cagnes-sur-Mer,France,fr,open,43.67446314527075,7.155433254779269,http://www.cagnes-tourisme.com/renoir ou http://www.chez.com/renoir/cagnes.htm,0493206107,0492024739,"Ouvert d'octobre à mars du mercredi au lundi de 10h à 12h et de 14h à 17h, d'avril à mai de 10h à 12h et de 14h à 18h, de juin à septembre de 10h à 13h et de 14h à 18h","1er janvier, 1er mai, 25 décembre et une semaine en décembre",label-date:01/02/2003,label:musee de france;type:musee,
4401001,225253774,Musée des Marais Salant,,Route des Marais,44740,Batz-sur-Mer,France,fr,open,47.2821938976594,-2.472254256588812,http://www.cap-atlantique.fr/tourisme-loisirs/Musee/,0240238279,0240237151,"Ouvert du mardi au dimanche hors vacances scolaires de 10h à 12h30 et de 14h à 17h, durant les vacances scolaires toutes zones confondue du mardi au dimanche en juin et septembre de 10h à 12h30 et de 14h à 18h, en juillet-août tous les jours de 10h à 19h","1er janvier, 1er mai, 1er novembre, 25 décembre et 15 jours après les vacances de Noël",label-date:24/01/2006,label:musee de france;type:musee,
3306301,2491324819,CAPC Musée d'Art Contemporain de Bordeaux,144,Rue Barreyre,33300,Bordeaux,France,fr,open,44.8580561,-0.5732667,http://www.capc-bordeaux.fr/ ou http://www.bordeaux.fr/,0556008150,0556441207,Ouvert du mardi au dimanche de 11h à 18h. Le mercredi de 11h à 20h,Jours fériés sauf 14 juillet et 15 août,label-date:01/02/2003,label:musee de france;type:musee,
8302301,1675174695,Musée du Pays Brignolais,6,Place des Comtes de Provence,83170,Brignoles,France,fr,open,43.4042845,6.0613159,http://www.caprovenceverte.fr/ ou http://www.museebrignolais.com/infos-pratiques,0494694518,0494694518,"Ouverture d'octobre à avril les mercredis, samedis et dimanches de 14h à 17h, vacances scolaires toutes zones du mercredi au dimanche de 14h à 17h, et de mai à septembre les mercredis, samedis, dimanches et jours fériés de 14h à 18h, vacances scolaires to","1er mai, 1er et 11 novembre, du 23/12 au 09/02",label-date:01/02/2003,label:musee de france;type:musee,
7510307,717532640,Musée Carnavalet-Histoire de Paris,44,Rue de Sévigné,75004,Paris,France,fr,open,48.8575555,2.3633663,http://www.carnavalet.paris.fr/,0144595858,0144595810,Ouvert du mardi au dimanche de 10h à 18h,Jours fériés,label-date:08/07/2004,label:musee de france;type:musee historique,
3018906,,Carré d'Art Musée d'Art Contemporain de Nîmes,,Place de la Maison Carrée,30031,NIMES,France,fr,open,,,http://www.carreartmusee.com/,0466763570,0466763585,Ouvert du mardi au dimanche de 10h à 18h,"1er mai, 1er novembre, 25 décembre et 1er janvier",label-date:01/02/2003,label:musee de france;type:musee,
7511402,79633974,Les Catacombes,,Avenue du Maine,75014,Paris,France,fr,open,48.82928285,2.3266426353935694,http://www.catacombes.paris.fr/,0143224763,0143224817,Ouvert du mardi au dimanche de 10h à 20h,"Jours fériés, dimanche de Pâques et de Pentecôtes",label-date:08/07/2004,label:musee de france;type:a classer,
8403502,28500167,Musée de l'Hôtel Dieu,,Route d'Avignon,84300,Cavaillon,France,fr,open,43.86019626380295,5.008566420839061,http://www.cavaillon.org/,0490760034,0490714706,"Ouvert du 2 mai au 30 septembre de 14h à 18h, et uniquement sur rendez-vous d'octobre à avril",Fermé de novembre au 1er mai,label-date:01/02/2003,label:musee de france;type:musee,
8403501,156852965,Synagogue Musée Juif Comtadin,,Rue Hébraïque,84300,Cavaillon,France,fr,open,43.83691322676085,5.038533487205202,http://www.cavaillon.org/,0490760034,0490714706,"Ouvert du 2 mai au 30 septembre de 9h30 à 12h30 et de 14h à 18h, d'octobre à avril de 10h à 12h et de 14h à 17h.","1er janvier, 1er mai, 25 décembre",label-date:01/02/2003,label:musee de france;type:musee,
8403503,305491358,Musée Jouve,,Place Castil Blaze,84300,Cavaillon,France,fr,open,43.83694997256772,5.0379232888392105,http://www.cavaillon.org/,0490760034,0490714706,La chapelle du Grand Couvert a ouvert en 2015 du 4 juillet au 14 novembre de 13h30 à 18h30,,label-date:01/02/2003,label:musee de france;type:musee,
0701001,2481877311,Musée Vivarois César Filhol,15,Rue Jean-Baptiste Bechetoille,07100,Annonay,France,fr,open,45.2407964,4.6681248,http://www.cc-bassin-annonay.fr/-Le-Musee-Cesar-Filhol-.html,0475676793,0475693275,Visite sur rendez-vous en raison de la fermeture pour récolement,Jours fériés,label-date:01/02/2003,label:musee de france;type:musee,
3707201,62479846,"Le Carroi, Musée d’Arts et d’Histoire",44,Rue Haute Saint-Maurice,37500,Chinon,France,fr,open,47.167262,0.23765183503836318,http://www.cc-cvl.fr/,0247931812,0247934090,"Ouvert du mercredi au lundi du 30 avril au 18 septembre de 14h30 à 18h30, et du 19 septembre au 13 novembre du vendredi au dimanche de 14h à 18h",,label-date:01/02/2003,label:musee de france;type:musee historique,
7405601,97313427,Musée Alpin,,Rue de la Tournette,74400,Chamonix-Mont-Blanc,France,fr,open,45.924025099999994,6.871257449784508,http://www.cc-valleedechamonixmontblanc.fr/,0450532593,0450539614,"Ouvert du mercredi au lundi de 14h à 18h, et pendant les vacances scolaires du mercredi au lundi de 10h à 12h et de 14h à 18h, et en juillet-août tous les jours de 10h à 13h et de 14h à 18h","1er janvier, 1er mai, 25 décembre",label-date:01/02/2003,label:musee de france;type:musee,
1476201,,Musée Municipal,2,Place Sainte-Anne B.P. 10043,14502,VIRE NORMANDIE,France,fr,open,,,http://www.cc-vire.fr/web/le_musee.html,0231681049,0231090566,Ouvert du mecredi au dimanche de 10h à 12h30 et de 14h à 18h de fin avril au 1er novembre,de novembre à fin avril,label-date:01/02/2003,label:musee de france;type:musee,
8508701,620726971,Centre Minier de Faymoreau,,Rue de la Cour,85240,Faymoreau,France,fr,open,46.55511285,-0.6311954483215672,http://www.centreminier-vendee.fr/,0251004848,0251005096,"Ouvert en février-juin et septembre du mercredi au dimanche de 14h à 18h30, en juillet-août tous les jours de 10h à 19h","Janvier, 24 et 31 décembre",label-date:01/02/2003,label:musee de france;type:a classer,
7510402,,Centre National d'Art et de Culture Georges Pompidou,,Place Georges Pompidou,75004,PARIS,France,fr,open,,,http://www.centrepompidou.fr/,0144781233,,Ouvert du mercredi au lundi de 11h à 22h (musée et expositions),1er mai,label-date:06/01/2002,label:musee de france;type:a classer,
5746303,,Centre Pompidou-Metz,1,Parvis des Droits-de-l'Homme CS 90490,57020,METZ,France,fr,open,,,http://www.centrepompidou-metz.fr/,0387155277,0387153940,"Ouvert du 1er avril au 31 octobre, lundi, mercredi et jeudi de 10h à 18h, vendredi au dimanche 10h à 19h, du 1er novembre au 31 mars, du mercredi au lundi de 10h à 18h",,,label:musee de france;type:a classer,
7510807,68353920,"Musée Cernuschi, Musée des Arts de l'Asie de la ville de Paris",7,Avenue Vélasquez,75008,Paris,France,fr,open,48.87943045,2.312564143354611,http://www.cernuschi.paris.fr/,0153962150,0153962196,Ouvert du mardi au dimanche de 10h à 18h,,label-date:08/07/2004,label:musee de france;type:musee,
4811601,133480920,Ecomusée du Mont Lozère,,,48220,Florac,France,fr,open,44.36508156079572,3.7458806974676038,http://www.cevennes-parcnational.fr/,0466458073,0466458073,"Ouvert en avril et octobre le lundi, du mercredi au samedi de 15h à 18h, en mai et juin du mercredi au lundi de 10h à 12h30 et de 15h à 18h30, en juillet, août, septembre tous les jours et jours fériés de 10h à 12h30 et de 15h à 18h30",Autres mois,label-date:01/02/2003,label:musee de france;type:ecomusee,
2923202,3740496941,Musée Départemental Breton,8,Rue du Docteur Bablet,29000,Quimper,France,fr,open,47.9961524,-4.0913284,,0298952160,0298958969,"Ouvert de janvier à juin, de mi-septembre à fin décembre du mardi au samedi de 9h à 12h30 et de 13h30 à 17h, le dimanche de 14h à 17h, et de juillet à mi- septembre tous les jours de 9h à 18h",Jours fériés,label-date:01/02/2003,label:musee de france;type:musee,
5546701,3319877883,Musée Départemental Raymond Poincaré,25,Rue Raymond Poincaré,55300,Sampigny,France,fr,open,48.8242031,5.5107528,http://www.cg55.fr/,0329907050,0329907514,"Ouvert du 15 mai au 15 octobre le lundi et du mercredi au vendredi de 10h à 12h et de 14h à 17h30, le week-end de 14h à 18h et week-end exceptionnel de 10h à 12h30 et de 13h30 à 18h",,label-date:01/02/2003,label:musee de france;type:musee,
5771201,239966663,Musée Départemental Georges de la Tour,,Rue de Thionville,57630,Vic-sur-Seille,France,fr,open,48.782004696706366,6.5314926430563425,http://www.cg57.fr/culture/1-8-delatour.asp,0387780530,0387780669,Ouvert du mardi au dimanche de 10h00 à 18h du 28 mars au 1er novembre,"1er mai, 23 décembre au 7 janvier inclus",label-date:01/02/2003,label:musee de france;type:musee,
5806201,7350062278,Musée du Septennat,6,Rue du Château,58120,Château-Chinon (Ville),France,fr,open,47.0672058,3.9343151,http://www.cg58.fr/,0386606762,0386606753,"Ouvert des vacances de février au 30 avril et du 1er octobre au 31 décembre de 10 à 12h et de 14 à 18h,du 1er mai au 30 juin et en septembre de 10 à 13h et de 14 à 18h - Juillet/août tlj de 10 à 13h et de 14 à 19h","Du 1er janvier jusqu'aux vacances de février, le 25 décembre",label-date:01/02/2003,label:musee de france;type:musee,
5822701,73850150,Musée du Grès de Puisaye,,Route de Saint-Fargeau,58310,Saint-Amand-en-Puisaye,France,fr,open,47.5358582783199,3.068260528676131,http://www.cg58.fr/,0386397497,0386396497,Ouvert du 15 mars au 15 novembre du mercredi au lundi de 9h à 12h et de 14h à 17h et du 2 mai au 30 septembre de 9h à 12h et de 14h à 18h,De novembre à mars,label-date:01/02/2003,label:musee de france;type:musee,
5830401,120947897,Musée Auguste Grasset,,Rue de la Severie,58210,Varzy,France,fr,open,47.35741844184445,3.386086532015215,http://www.cg58.fr/ ou http://www.musees-bourgogne.org/,0386297203,0386297273,"Ouvert en avril et en octobre le samedi et dimanche de 13h30 à 18h30, de début mai à fin septembre du mercredi au lundi de 13h30 à 18h30",Musée fermé de fin octobre à début avril,label-date:01/02/2003,label:musee de france;type:musee,
5806202,7350086201,Musée du Costume,7,Rue Saint-Christophe,58120,Château-Chinon (Ville),France,fr,open,47.0667298,3.9336593,http://www.cg58.fr/patrimoi/costu.htm,0386851855,0386850100,"Ouvert des vacances de février au 30 avril et du 1er octobre au 31 décembre de 10 à 12h et de 14 à 18h,du 1er mai au 30 juin et en septembre de 10 à 13h et de 14 à 18h - Juillet/août tlj de 10 à 13h et de 14 à 19h","Du 1er janvier jusqu'aux vacances de février, le 25 décembre",label-date:01/02/2003,label:musee de france;type:musee,
5913601,203416942,Musée Départemental Matisse,,,59360,Bazuel,France,fr,open,50.08437508185039,3.582770174321836,http://www.cg59.fr/ ou http://www.tourisme-lecateau.fr/museematisse,0359733800,0359733801,Ouvert du mercredi au lundi de 10h à 18h,"1er janvier, 1er novembre, 25 décembre",label-date:01/02/2003,label:musee de france;type:musee,
9711701,93649508,Musée Précolombien Edgar Clerc,,,97160,Le Moule,France,fr,open,16.340150788301823,-61.38239657266205,http://www.cg971.fr/musees/clerc/index_edgar.htm,0590235757,0590238967,Ouvert du lundi au vendredi de 9h à 17h,Jours fériés,label-date:01/02/2003,label:musee de france;type:musee,
9712002,65833169,Musée Départemental Victor Schoelcher,,Rue Peynier,97110,Pointe-à-Pitre,France,fr,open,16.23755385,-61.53773128700739,http://www.cg971.fr/musees/schoelcher/index_schoecher.htm,0590820804,0590837839,Ouvert du lundi au vendredi de 9h à 17h,Jours fériés,label-date:01/02/2003,label:musee de france;type:musee,
9741101,4581528707,Musée Départemental de la Réunion - Musée Léon Dierx,,Rue de Paris,97400,Saint-Denis,France,fr,open,-20.8835584,55.4501769,http://www.cg974.fr/culture:leon-dierx,0262202482,0262218287,Ouvert du mardi au dimanche 9h30 à 17h30,,label-date:01/02/2003,label:musee de france;type:musee,
9741102,189811780,Muséum d'Histoire Naturelle,,Rue Poivre,97400,Saint-Denis,France,fr,open,-20.8877595,55.451819084390365,http://www.cg974.fr/museum,0262200219,0262213393,Ouvert du mardi au dimanche et jours fériés de 9h30 à 17h30,1er mai,label-date:06/01/2002,label:musee de france;type:musee historique,
5110801,204761698,Musée Municipal,,Place Godart,51000,Châlons-en-Champagne,France,fr,open,48.95682535,4.363630404779476,http://www.chalonsenchampagne.fr/culture/musees,0326693853,0326693842,"Ouvert du lundi au vendredi de 14h à 18h, samedi de 10h à 12h et de 14h à 18h, dimanche de 10h à 12h et de 14h30 à 18h30","1er janvier, 1er mai, 1er & 11 novembre, 25 décembre",label-date:01/02/2003,label:musee de france;type:musee,
7306501,2918272519,Musée des Beaux-Arts,,Place du Palais de Justice,73000,Chambéry,France,fr,open,45.5681608,5.919182,http://www.chambery.fr/206-musee-des-beaux-arts.htm,0479337503,0479852037,Ouvert du mardi au dimanche de 10h à 18h,Jours fériés,label-date:06/01/2002,label:musee de france;type:musee de beaux-arts,
7306503,5077705314,Musée des Charmettes,,Avenue du Comte Vert,73000,Chambéry,France,fr,open,45.5703097,5.9149649,http://www.chambery.fr/302-les-charmettes-maison-de-jean-jacques-rousseau.htm,0479333944,0479602388,Ouvert du mardi au dimanche de 10h à 18h,Jours fériés,label-date:06/01/2002,label:musee de france;type:musee,
6730001,729696864,Musée de la Chartreuse,3,Cour des Chartreux,67120,Molsheim,France,fr,open,48.5427297,7.4903139,http://www.chartreuse-molsheim.info,0388495938,0388478185,"Ouvert du 2 mai au 14 juin de 14h à 17h et du 15 juin au 14 septembre de 10h à 12h et de 14h à à 18h du mercredi au lundi, du 15 septembre au 15 octobre de 14h à 17h du mercredi au lundi",,label-date:01/02/2003,label:musee de france;type:musee,
7510301,156973373,Musée de la Chasse et de la Nature,62,Rue des Archives,75003,Paris,France,fr,open,48.86125555,2.358782698354484,http://www.chassenature.org/,0153019240,0142774570,Ouvert du mardi au dimanche de 11h à 18h et le mercredi de 11h à 21h30,Jours fériés,label-date:01/02/2003,label:musee de france;type:musee,
3601001,1782433934,Château Musée,,Rue Hersent Luzarche,36290,Azay-le-Ferron,France,fr,open,46.851353,1.0691606,http://www.château-azay-le-ferron.com/,0254392006,0254392006,"Ouvert du 30 au 31 mars, d'avril à juin, septembre tous les jours de 10h à 12h et de 14h à 18h, en juillet-août tous les jours de 10h à 18h30, d'octobre au 11 novembre de 10h à 12h et de 14h à 17h30",Fermé du 12 novembre au 29 mars,label-date:01/02/2003,label:musee de france;type:musee,
4101801,2988288434,Château Musées de Blois,,Rue de la Voûte du Château,41000,Blois,France,fr,open,47.5862363,1.3320852,http://www.chateaudeblois.fr/,0254903333,0254903330,"Ouvert tous les jours de janvier à mars de 9h à 12h30 et de 13h30 à 17h30. Du 1er avril au 30 juin et en septembre de 9h à 18h30, du 1er juillet à août de 9h à 19h, et octobre de 9h à 18h.",1er janvier et 25 décembre,label-date:01/02/2003,label:musee de france;type:musee,
7718601,39428833,Musée du Château de Fontainebleau,,Allée Davon,77300,Fontainebleau,France,fr,open,48.40097005,2.7039908292726063,http://www.châteaudefontainebleau.fr/,0160715070,0160715071,Ouvert de 9h30 à 17h d'octobre à mars et de 9h30 à 18h d'avril à septembre,"1er janvier, 1er mai, 25 décembre",label-date:06/01/2002,label:musee de france;type:musee,
7641201,252161734,Musée des Traditions et Arts Normands,,Impasse de l'Église,76116,Martainville-Épreville,France,fr,open,49.458238050000006,1.292196406746032,http://www.chateaudemartainville.fr/,0235234470,0235231684,"Ouvert lundi, mercredi au samedi de 10h à 12h30 et de 14h à 17h (18h du 1er avril au 1er octobre), dimanche de 14h à 17h30 (18h30 du 1er avril au 1er octobre)","1er janvier, 1er mai, 1er et 11 novembre, 25 décembre",label-date:01/02/2003,label:musee de france;type:musee,
6530601,266119481,Musée-château Gaston Phébus,,Rue du Canton,65130,Mauvezin,France,fr,open,43.11605322092965,0.278716262120365,http://www.chateaudemauvezin.com/,0562391027,0562391027,Ouvert tous les jours du 15 octobre au 14 avril de 13h30 à 17h30 et du 15 avril au 14 octobre de 10h à 19h,,label-date:01/02/2003,label:musee de france;type:musee,
7415201,372312298,Musée Léon Marès,,Chemin de St Martin,74330,La Balme-de-Sillingy,France,fr,open,45.95786474819068,6.045735757311761,http://www.chateaudemontrottier.com/,0450462302,0450461148,Ouvert du 15 mars au 15 octobre de 9h30 à 12h et de 14h à 18h,Du 15 octobre au 15 mars,label-date:01/02/2003,label:musee de france;type:musee,
6528601,4714891107,Musée Pyrénéen,19,Rue du Fort,65100,Lourdes,France,fr,open,43.0956697,-0.0484464,http://www.chateaufort-lourdes.fr/,0562423737,0562423744,"Ouvert de janvier à mi-avril de 10h à 18h, le lundi de 10h à 17h, de mi-avril à mi-octobre de 10h à 19h et de mi-octobre à fin décembre de 10h à 18h et le lundi de 10h à 17h","1er janvier, 1er & 11 novembre, 25 décembre",label-date:01/02/2003,label:musee de france;type:musee,
0840901,,Musée du Château-Fort,,Cour du château,08208,SEDAN,France,fr,open,,,http://www.chateau-fort-sedan.fr/,0324299880,0324292562,Ouvert tous les jours de 10h à 17h et en juillet-août de 10h à 18h,25 décembre et 1er janvier,label-date:01/02/2003,label:musee de france;type:musee,
4515501,,Château de Gien,,Château de Gien B.P. 99,45503,GIEN,France,fr,open,,,http://www.château-gien.com/,0238676969,0238380732,"Ouvert du 1er février au 31 mars et du 1er octobre au 31 décembre de 14h à 17h et du 1er avril au 30 juin et du 1er au 30 septembre de 13h30 à 18h, en juillet/août tous les jours de 13h30 à 18h",25 décembre et en janvier,label-date:01/02/2003,label:musee de france;type:a classer,
5432901,26838912,Musée du Château de Lunéville,,Place Stanislas,54300,Lunéville,France,fr,open,48.5945542,6.492202969999999,http://www.chateauluneville.meurthe-et-moselle.fr/,0383760475,0383730312,Ouvert du mercredi au lundi de 10h à 12h et de 14h à 18h Le parc est ouvert du 1er octobre au 30 avril de 6h à 19h et du 1er mai au 30 septembre de 6h à 22h,,label-date:01/02/2003,label:musee de france;type:musee,
9206301,6125575841,Musée National des Châteaux de Malmaison et de Bois-Préau,10,Avenue du Château de la Malmaison,92500,Rueil-Malmaison,France,fr,open,48.8727477,2.169057,http://www.chateau-malmaison.fr/,0141290555,0141290556,"Ouvert du mercredi au lundi du 1er octobre au 31 mars de 10h à 12h30 et de 13h30 à 17h15, week-end 17h45, du 1er avril au 30 septembre de 10h à 12h30 et de 13h30 à 17h45, week-end 18h15. Ouverture du parc du 1er octobre au 31 mars de 10h à 18h et du 1er a","25 décembre, 1er janvier",label-date:06/01/2002,label:musee de france;type:musee,
0732401,1210846630,Musée du Rhône,11,Place Auguste Faure,07300,Tournon-sur-Rhône,France,fr,open,45.0678174,4.831808,http://www.chateaumusee-tournon.com/,0475081030,0475078398,"Ouvert du 20 mars au 23 décembre tous les jours de 14h à 18h, en juillet-août tous les jours de 10h à 19h, et de novembre au 23 décembre, du jeudi au mardi de 14h à 17h30","du 21 décembre au 19 mars, 1er mai",label-date:01/02/2003,label:musee de france;type:musee,
4410904,3936868682,Musée du Château des Ducs de Bretagne,,Cour du Château des Ducs de Bretagne,44000,Nantes,France,fr,open,47.2161294,-1.54896,http://www.château-nantes.fr/,0811464644,0240486281,"Ouvert du 2 janvier au 30 juin et du 1er septembre au 31 décembre de 10h30 à 18h du mardi au dimanche, et en juillet-août tous les jours de 10h à 19h","1er janvier, 1er mai, 1er novembre et 25 décembre",label-date:01/02/2003,label:musee de france;type:musee,
4508201,108931051,Musée de la Marine de Loire,,Chemin du Petit Climat,45110,Saint-Martin-d'Abbat,France,fr,open,47.872629996933156,2.266057112491482,http://www.chateauneuf-sur-loire.com/,0238468446,0238464101,Ouvert du mercredi au lundi du 1er avril au 31 octobre de 10h à 18h et du 1er novembre au 31 mars de 14h à 18h,"1er janvier, 1er mai, 25 décembre",label-date:01/02/2003,label:musee de france;type:musee,
3604401,187950059,Musées de Châteauroux - Hôtel Bertrand,,Rue Bretine,36000,Châteauroux,France,fr,open,46.813587999999996,1.6940388212915622,http://www.chateauroux-metropole.fr/,0254611230,0254611231,"Ouvert du mardi au dimanche d'octobre à mai de 14h à 18h et de juin à septembre de 10h à 12h et de 14h à 18h, le week-end de 10h à 12h30 et de 14h à 18h. Le Couvent des Cordeliers est ouvert lors des manifestations ou expositions et la maison des ATP sur","Janvier et jours fériés sauf 14 juillet, 15 août et 1er novembre. D'octobre à décembre pour le couvent des cordeliers et sur rdv toute l'année pour la maison des ATP",label-date:01/02/2003,label:musee de france;type:musee,
4932802,1245614606,Château-Musée,,Passage de la Porte d'Orléans,49400,Saumur,France,fr,open,47.258393,-0.0788732,http://www.chateau-saumur.com/,0241402440,0241402449,Ouvert du mardi au dimanche et les lundis fériés du 1er avril au 14 juin et du 16 septembre au 2 novembre de 10h à 13h et de 14h à 17h30 et du 15 juin au 15 septembre tous les jours de 10h à 18h30,,label-date:01/02/2003,label:musee de france;type:musee,
7864602,1148845,Etablissement Public du Musée et du Domaine National de Versailles,,Rue Saint-Julien,78000,Versailles,France,fr,open,48.803007449999996,2.1225137615201817,http://www.chateauversailles.fr/,0130837588,0130837721,Ouvert du 1er novembre au 31 mars du mardi au dimanche de 9h à 17h30 et du 1er avril au 31 octobre de 9h à18h30,Certains jours fériés,label-date:06/01/2002,label:musee de france;type:musee,
2619801,74558928,Musée du Château des Adhémars,,D 540a,26200,Montélimar,France,fr,open,44.5552725,4.74776047887538,http://www.chateaux-ladrome.fr/fr/chateau-des-adhemar-montelimar,0475006230,0475002508,Ouvert de mai à octobre pour les visiteurs individuels / le reste de l'année ouverture réservée aux groupes <<<,,label-date:30/01/2003,label:musee de france;type:musee,
8607001,243120138,Musée des Traditions Populaires et d'Archéologie,,,86300,Villeneuve,France,fr,open,46.546441885839464,0.6881116655364795,http://www.chauvigny-patrimoine.fr/,0549463545,0549463545,"Ouvert de novembre à mars samedi et dimanche et jours fériés de 14h à 18h, du 1er avril au 14 juin et 1er septembre au 31 octobre tous les jours 14h à 18h, du 15 juin au 31 août du lundi au vendredi de 10h à 12h30 et de 14h30 à 18h30, le samedi de 14h30 à",20 décembre au 3 janvier,label-date:01/02/2003,label:musee de france;type:musee d'arts populaires,
7710801,565071706,Musée Municipal de Chelles Alfred Bonno,,Rue Sainte-Bathilde,77500,Chelles,France,fr,open,48.87776040875681,2.5917900692934603,http://www.chelles.fr/Culture/Musee-Alfred-Bonno,0164726580,0164728520,"Ouvert jusqu'au 31 août 2016 le mercredi de 10h à 12H et de 14h à 18h, et le dimanche de 14h à 17h depuis le 1er septembre 2016 ouvert le mercredi de 14h à 18h et le 3ème dimanche du mois avec atelier de 15h à 18h",Août et congés de Noël,label-date:01/02/2003,label:musee de france;type:musee,
5934501,597099828,"Centre Historique Minier, Musée de la Mine, Centre d'Archives, Centre de Culture Scientifique de l'Energie",,Rue Pasteur,59287,Guesnain,France,fr,open,50.3430694598861,3.1577967866548136,http://www.chm-lewarde.com/,0327958282,0327958283,"Ouvert de novembre à février du lundi au samedi de 13h à 19h, dimanche, vacances scolaires et jours fériés de 10h à 19h, de mars à mi-novembre tous les jours de 9h à 19h30. Accueil des groupes à partir de 8h sur réservation.","Janvier, 1er mai, 25 décembre",label-date:01/02/2003,label:musee de france;type:musee historique,
6938701,700244365,Centre d'Histoire de la Résistance et de la Déportation,,Rue de Marseille,69007,Lyon,France,fr,open,45.74648205,4.835763170247112,http://www.chrd.lyon.fr/,0472739900,0472733298,Ouvert du mercredi au dimanche de 10h à 18h,,label-date:01/02/2003,label:musee de france;type:musee historique,
7511403,21001145,Musée d'Art et d'Histoire de l'Hôpital Sainte-Anne,1,Rue Cabanis,75014,Paris,France,fr,open,48.8283176,2.3390754735607198,http://www.ch-sainte-anne.fr/,0145658541,,Ouvert du mercredi au dimanche de 14h à 19h lors des expositions uniquement,,label-date:26/05/2016,label:musee de france;type:musee historique,
6938201,35143415,Musée des Hospices Civils de Lyon,,Cours de Verdun Rambaud,69002,Lyon,France,fr,open,45.7484551,4.8258147473711634,http://www.chu-lyon.fr/internet/chu/musee/presentation_musee.htm,0472413042,0472413142,Fermé pour travaux,,label-date:01/02/2003,label:musee de france;type:musee,
2505604,2439700918,Musée Comtois,19,Rue du Tunnel,25000,Besançon,France,fr,open,47.2551112,6.0194444,http://www.citadelle.com/,0381878316,0381878306,Ouvert de novembre à mars de 10h à 16h45 et d'avril à octobre de 9h à 17h45 (18 h 45 en juillet et août),"1er janvier, 25 décembre",label-date:01/02/2003,label:musee de france;type:musee,
2505607,2439700918,Muséum de Besançon,19,Rue du Tunnel,25000,Besançon,France,fr,open,47.2551112,6.0194444,http://www.citadelle.com/,0381878305,0381878306,"Ouverture de la Citadelle du mercredi au lundi du 2 janvier au 29 mars de 10h à 17h, du 30 mars au 4 juillet tlj de 9h à 18h, du 5 juillet au 24 août tlj de 9h à 19h, du 25 août au 25 octobre tlj de 9h à 18h, du 26 octobre au 5 novembre tlj de 10h à 17h30","25 décembre, 1er janvier",label-date:01/02/2003,label:musee de france;type:museum,
2505605,2439700918,Musée de la résistance et de la Déportation,19,Rue du Tunnel,25000,Besançon,France,fr,open,47.2551112,6.0194444,http://www.citadelle.com/,0381878312,0381878313,"Ouvert de novembre à mars du mercredi au lundi de 10h à 16h45, d'avril à mai et de septembre à octobre tous les jours de 9h à 17h45 et en juillet août tous les jours de 9h à 18h45","1er janvier, 25 décembre",label-date:01/02/2003,label:musee de france;type:musee,
1601504,,Cité International de la Bande Dessinée et de l'Image - Musée de la Bande Dessinée,121,Rue de Bordeaux B.P. 72308,16023,ANGOULEME,France,fr,open,,,http://www.citebd.org/,0545386565,0545386551,"Ouvert de septembre à juin du mardi au vendredi de 10h à 18h, samedi, dimanche et jours fériés de 14h à 18h, en juillet-août de 10h à 19h, samedi, dimanche, 14 juillet et 15 août de 14h à 19h","1er janvier, 1er mai, 25 décembre",label-date:01/02/2003,label:musee de france;type:musee,
7511606,32469403,Musée des Monuments Français,,Allée des Dames,75016,Paris,France,fr,open,48.86049645161148,2.2620093068164895,http://www.citechaillot.fr/fr/musee/,0158515200,0158515220,"Ouvert le mercredi, vendredi, samedi et dimanche de 11h à 19h, le jeudi de 11h à 21h","1er janvier, 1er mai, 25 décembre",label-date:09/07/2004,label:musee de france;type:musee,
6822403,,Cité de l'Automobile,192,Avenue de Colmar CS 91096,68051,MULHOUSE,France,fr,open,,,http://www.citedelautomobile.com/,0389332323,0389320809,"Ouvert du 1er au 4 janvier de 10h à 17h du 5 janvier au 5 février de 14h à 17h le week-end de 10h à 17h, du 6 février au 2 avril de 10h à 17h, du 3 avril au 29 octobre de 10h à 17h, du 30 octobre au 31 décembre de 10h à 17h",25 décembre,label-date:01/02/2003,label:musee de france;type:a classer,
6219302,1154917891,Cité Internationale de la Dentelle et de la Mode de Calais,,Quai du Commerce,62100,Calais,France,fr,open,50.9507308,1.8598383,http://www.cite-dentelle.fr/,0321004230,,"Ouvert du 1er avril au 31 octobre du mercredi au lundi de 10h à 18h, et du 1er novembre au 31 mars du mercredi au lundi de 10h à 17h","Du 1er au 15 janvier inclus, 1er mai, 25 décembre",label-date:16/11/2015,label:musee de france;type:a classer,
6822405,34853202,Cité du Train,,Rue Alfred Werner,68200,Mulhouse,France,fr,open,47.73058815,7.310971459558962,http://www.citedutrain.com/,0389428333,0389424182,"Ouvert tous les jours du 1er janvier au 11 avril de 10h à 17h, du 12 avril au 11 novembre de 10h à 18h et du 12 novembre au 31 décembre de 10h à 17h",25 décembre,label-date:18/11/2002,label:musee de france;type:a classer,
2300801,135178242,Musée Départemental de la Tapisserie,,,23200,Aubusson,France,fr,open,45.96072211739671,2.188825011881534,http://www.cite-tapisserie.fr/,0555830830,0555830839,"Ouvert du mercredi au lundi de 9h30 à 12h et de 14h à 18h de septembre à juin, en juillet-août de 10h à 18h sauf mardi matin","25 décembre, 1er janvier",label-date:17/06/2002,label:musee de france;type:musee,
6311303,67552132,Muséum d'Histoire Naturelle Henri-Lecoq,15,Rue Bardoux,63000,Clermont-Ferrand,France,fr,open,45.774145950000005,3.0884366874758022,http://www.clermont-ferrand.fr/-Museum-Henri-Lecoq-.html,0473423200,0473423201,"Ouvert d'octobre à avril du mardi au samedi de 10h à 12h et de 14h à 17h dimanche de 14h à 17h, du 1er mai au 30 septembre de 10h à 12h et de 14h à 18h",Jours fériés,label-date:06/01/2002,label:musee de france;type:musee historique,
6311301,4502686830,Musée d'Archéologie Bargoin,,Rue Ballainvilliers,63000,Clermont-Ferrand,France,fr,open,45.7749853,3.0870516,http://www.clermontmetropole.eu/-Musee-Bargoin-.html,0473426970,0473929010,"Ouvert du mardi au samedi de 10h à 12h et de 13h à 17h, le dimanche de 14h à 19h","1er janvier, 1er mai, 1er novembre, 25 décembre",label-date:01/02/2003,label:musee de france;type:musee,
0319002,588992387,Centre National du Costume de Scène et de la Scénographie,,Route de Saint-Menoux,03000,Neuvy,France,fr,open,46.57061934923299,3.2797191073009078,http://www.cncs.fr/,0470207620,0470342304,"Ouvert tous les jours de 10h à 18h, en juillet-août de 10h à 18h30","25 décembre, 1erjanvier, 1er mai et lors du montage des expositions",label-date:19/11/2009,label:musee de france;type:a classer,
9730101,1663803,Ecomusée Municipal d'Approuague-Kaw,,,97390,Régina,France,fr,open,4.3125906,-52.1324061,http://www.coeurdeforet.fr/guyane/regina-guyane-amazonie/ecomusee-regina,0594370944,0594370944,"Ouvert mercredi, vendredi, samedi et dimanche de 9h30 à 17h30. Accueil à la carte et sur rendez-vous pour les groupes. Ouvert lors des vacances scolaires de 9h30 à 17h30 sauf le mardi",,label-date:01/02/2003,label:musee de france;type:ecomusee,
9720901,94921928,Musée Départemental d'Archéologie Précolombienne et de Préhistoire de la Martinique,,Rue de la Liberté,97200,Fort-de-France,France,fr,open,14.60334315,-61.06874704826464,http://www.collectivitedemartinique.mq,0596715705,0596730380,"Ouvert le lundi de 13h à 17h, du mardi au vendredi de 8h à 17h, le samedi de 9h à 17h",,label-date:01/02/2003,label:musee de france;type:musee archeologique;art:prehistoire,
9720904,5564641162,Musée du Père Pinchon,,Rue du Professeur Raymond Garcin,97200,Fort-de-France,France,fr,open,14.615759,-61.0783002,http://www.collectivitedemartinique.mq/le-musee-du-pere-pinchon/,0596598046,,,,label-date:16/11/2015,label:musee de france;type:musee,
6605301,72981759,Musée d'Art Moderne - Fonds Peskè,,Chemin de Collioure à Consolation,66190,Collioure,France,fr,open,42.513280477847765,3.072781088904624,http://www.collioure.mobi/museedartmoderne/,0468821019,0468821019,Ouvert tous les jours du 1er juin au 30 septembre de 10h à 12h et de 14h à 18h et du mercredi au lundi de 10h à 12h et de 14h à 18h du 1er octobre au 31 mai,"1er janvier, 1er mai, 1er novembre, 25 décembre",label-date:01/02/2003,label:musee de france;type:musee,
1451201,158277560,Musée du Château,,La Ferme du Chateau,14110,Pontécoulant,France,fr,open,48.8967195,-0.5874912,http://www.condeintercom.fr/,0231696254,0231696254,Ouvert de la mi-mars à la mi-novembre tous les jours de 10h à 12h30 et de 14h à 18h,Mi-novembre à mi-mars,label-date:01/02/2003,label:musee de france;type:musee,
7647401,5559429857,Musée Industriel de la Corderie Vallois,,Route de Dieppe,76960,Notre-Dame-de-Bondeville,France,fr,open,49.4948189,1.0487001,http://www.corderievallois.fr/,0235743535,0235745845,Ouvert tous les jours de 13h30 à 18h,"1er janvier, 1er mai, 1er et 11 novembre, 25 décembre",label-date:01/02/2003,label:musee de france;type:musee technique et industriel,
2A14201,841642700,Musée de l'Alta Rocca,,D 59,20170,Levie,France,fr,open,41.7044539,9.1252197,http://www.corsedusud.fr/nos-competences/patrimoine-et-culture/musee-departemental-de-laltarocca/,0495780078,0495784160,Ouvert du mardi au samedi d'octobre à mai de 10h à 17h et de juin à septembre tous les jours de 10h à 18h,"1er janvier, 1er mai, 14 juillet, 15 août, 25 décembre",label-date:01/02/2003,label:musee de france;type:musee,
2A27201,5708259714,Musée de Préhistoire Corse,,D 65,20100,Sartène,France,fr,open,41.6207798,8.9736651,http://www.corsedusud.fr/nos-competences/patrimoine-et-culture/musee-departemental-de-sartene/,0495770109,0495770109,Ouvert tous les jours de juin à septembre de 10h à 18h et du lundi au vendredi d'octobre à mai de 10h à 17h,Jours fériés,label-date:01/02/2003,label:musee de france;type:musee archeologique;art:prehistoire,
7857501,340665060,Collections de la Fondation de Coubertin,,Chemin de Coubertin,78470,Saint-Rémy-lès-Chevreuse,France,fr,open,48.7020515,2.0600293823529414,http://www.coubertin.fr/,0130856960,0130856999,Musée et parc ouverts pour tous pendant la période d'exposition et le JEP et le reste de l'année sur RDV pour les groupes (visites scolaires et visites-conférences). Exposition 2010 ouverte du vendredi au dimanche de 13h à 18h30,,label-date:01/02/2003,label:musee de france;type:a classer,
7713201,373767052,Maison Natale de Louis Braille,,Rue Louis Braille,77700,Coupvray,France,fr,open,48.894502700000004,2.792033637344032,http://www.coupvray.fr/coupvray/acces_direct/louis_braille,0160048280,0160048280,"Ouvert du 1er avril au 30 septembre du mardi au dimanche de 10h à 12h et 14h à 18h - visite guidée toute les heures et du 1er octobre au 31 mars de 14h à 17h, le vendredi sur rendez-vous",,label-date:01/02/2003,label:musee de france;type:a classer,
6017501,80653438,Musée Gallé-Juillet,,Place François Mitterrand,60100,Creil,France,fr,open,49.26062905,2.4727162686254953,http://www.creil.fr/,0344295150,0344295276,"Ouvert du mercredi au samedi 14h à 17h avec des visites guidées obligatoires à 14h, 15h et 16h, le dimanche à 14h30 à 17h30. Pour les groupes le mardi, et mercredi, jeudi, vendredi et samedi le matin sur rendez-vous",Jours fériés,label-date:01/02/2003,label:musee de france;type:musee,
9720902,51921935,Musée Régional d'Histoire et d'Ethnologie,,Boulevard du Général de Gaulle,97200,Fort-de-France,France,fr,open,14.606081311282669,-61.065633110210335,http://www.cr-martinique.fr/francais/institution/serv-region/musees/histoire_ethno.htm,0596728187,0596637411,"Ouvert le lundi, mercredi à vendredi de 8h à 17h, le mardi de 14h à 17h, le samedi de 8h à 12h",,label-date:01/02/2003,label:musee de france;type:musee historique,
