id,osm_id,name,number,street,postal_code,city,country,country_code,status,lat,lon,website,phone,fax,email,year,stats,tags,description,wikidata,museofile,mhs
0126901,441572672,"Soieries Bonnet, Musée de l'Industrie de la Soie",12,Cote Levet,01640,Jujurieux,France,fr,open,46.042453949999995,5.408558981807003,,,,,2016,payant:786;gratuit:244;total:1030;label-date:01/02/2003,label:musee de france;label:monuments-historiques;type:monument-historique,,Q3591598,,PA01000011
0113701,700244363,Musée du Revermont,,Rue Principale,01370,Bourg-en-Bresse,France,fr,open,46.30032775,5.389046761156977,patrimoines.ain.fr/n/musee-du-revermont/n:811,+33 4 74 51 32 42,,,2016,payant:1704;gratuit:7946;total:9650;label-date:01/02/2003,label:musee de france,,,M0975,
0733401,5766476644,Musée des Vans,,Rue du Couvent,07140,Les Vans,France,fr,open,44.4044775,4.1345103,,,,,2016,payant:453;gratuit:912;total:1365;label-date:01/02/2003,label:musee de france,,,,
0732401,2793855499,Musée du Rhône,,,07270,Lamastre,France,fr,open,44.9980175,4.6108622,,,,,2016,payant:14892;gratuit:11091;total:25983;label-date:01/02/2003,label:musee de france,,,,
1516801,6838400485,La Prade Haute,,,15320,Ruynes-en-Margeride,France,fr,open,44.9961982,3.207524,,,,,2016,payant:9065;gratuit:249;total:9314;label-date:01/02/2003,label:musee de france,,,,
1518701,982070993,Musée de la Haute Auvergne,,Place d'Armes,15100,Saint-Flour,France,fr,open,45.0330738,3.0948739,,,,,2016,payant:1700;gratuit:3564;total:5264;label-date:01/02/2003,label:musee de france,,,,
2611301,145189774,Musée d'Histoire et d'Archéologie,2,Rue Noé,56000,Vannes,France,fr,open,47.6568685,-2.7579838224637703,,,,,2016,payant:579;gratuit:4843;total:5422;label-date:01/02/2003,label:musee de france,,,,
2628101,61078917,Musée International de la Chaussure,,Rue Saint-Just,26100,Romans-sur-Isère,France,fr,open,45.04446045,5.054248261970345,,,,,2016,payant:15977;gratuit:13073;total:29050;label-date:01/02/2003,label:musee de france,,,,
2636201,,Musée des Beaux-Arts,,,,VALENCE,France,fr,open,,,,,,,2016,payant:9997;gratuit:31458;total:41455;label-date:01/02/2003,label:musee de france,,,,
7428102,5537445278,Musée du Chablais,2,Rue Michaud,74200,Thonon-les-Bains,France,fr,open,46.3735929,6.4782107,,,,,2016,payant:2045;gratuit:2851;total:4896;label-date:01/02/2003,label:musee de france,,,,
3800601,291316822,Musée Jadis Allevard,,Musée Jadis Allevard,38580,Allevard,France,fr,open,45.3924546,6.0758962,,,,,2016,payant:1532;gratuit:1787;total:3319;label-date:20/12/2005,label:musee de france,,,,
3801201,875500989,Musée Gallo-Romain,16,Kielenstraat,3700,Tongeren,België / Belgique / Belgien,be,open,50.7814543,5.465715540741746,,,,,2016,payant:4939;gratuit:1983;total:6922;label-date:01/02/2003,label:musee de france,,,,
3826901,1654912102,Musée Matheysin,,Rue Colonel Escallon,38350,La Mure,France,fr,open,44.9046933,5.7845917,,,,,2016,payant:615;gratuit:1621;total:2236;label-date:01/02/2003,label:musee de france,,,,
3854401,3034478021,Musée de la minéralogie et pétrographie,,Avenue de la Libération,87240,Ambazac,France,fr,open,45.9575558,1.4001491,,,,,2016,payant:3568;gratuit:3788;total:7356;label-date:01/02/2003,label:musee de france,,,,
3854402,135880564,Musée Lapidaire Saint-Pierre,,Rue Delorme,38200,Vienne,France,fr,open,45.522842999999995,4.871060720000006,,,,,2016,payant:3162;gratuit:6416;total:9578;label-date:01/02/2003,label:musee de france,,,,
3856201,1249592087,Musée de la Révolution,,Parvis du Château,38220,Vizille,France,fr,open,45.0757435,5.7735647,https://musees.isere.fr/musee/domaine-de-vizille-musee-de-la-revolution-francaise,+33 4 76 00 38 38,,,2016,payant:4748;gratuit:53268;total:58016;label-date:01/02/2003,label:musee de france,,Q2389498,,
4200301,3667424925,Musée Alice Taverne,89,Rue de la Grye,42820,Ambierle,France,fr,open,46.1054907,3.8958563,,,,,2016,payant:3493;gratuit:741;total:4234;label-date:01/02/2003,label:musee de france,,,,
4205901,6050847032,Atelier - Musée du Chapeau,31,Rue Martouret,42140,Chazelles-sur-Lyon,France,fr,open,45.6386575,4.395141,,,,,2016,payant:15683;gratuit:6700;total:22383;label-date:01/02/2003,label:musee de france,,,,
6301001,4008056943,Musée de la Dentelle,,Ancienne Route Nationale,63220,Arlanc,France,fr,open,45.4143324,3.7244768,,,,,2016,payant:1096;gratuit:73;total:1169;label-date:01/02/2003,label:musee de france,,,,
6311303,67552132,Muséum d'Histoire Naturelle Henri-Lecoq,15,Rue Bardoux,63000,Clermont-Ferrand,France,fr,open,45.774145950000005,3.0884366874758022,,,,,2016,payant:4595;gratuit:26750;total:31345;label-date:06/01/2002,label:musee de france,,,,
6901801,1788408922,Musée des Traditions Populaires Marius Audin,62,Place de l'Hôtel de Ville,69430,Beaujeu,France,fr,open,46.154402,4.5870811,,+33 4 74 69 22 88,,,2016,payant:2717;gratuit:435;total:3152;label-date:01/02/2003,label:musee de france,,,M1030,
6938201,6575800693,Musée des Hospices Civils de Lyon,,Rue du Port du Temple,69002,Lyon,France,fr,closed,45.7608407,4.8315116,,,,,2016,payant:0;gratuit:0;total:;label-date:01/02/2003,label:musee de france,,,,
6938701,26131828,Centre d'Histoire de la Résistance et de la Déportation,,Rue Étienne Rognon,69007,Lyon,France,fr,open,45.7464306,4.8359519,,,,,2016,payant:25889;gratuit:34046;total:59935;label-date:01/02/2003,label:musee de france,,,,
7305401,5858569185,Musée des Minéraux Alpins,,Rue des Vergers,73700,Bourg-Saint-Maurice,France,fr,closed,45.6178322,6.7704898,,,,,2016,payant:0;gratuit:0;total:;label-date:01/02/2003,label:musee de france,,,,
7318101,,Musée de l'Académie de La Val d'Isère,,,,MOÛTIERS,France,fr,open,,,,,,,2016,payant:57;gratuit:305;total:362;label-date:01/02/2003,label:musee de france,,,,
2123101,2482864557,Musée Rude,,Rue Vaillant,21000,Dijon,France,fr,open,47.321005,5.0442148,https://beaux-arts.dijon.fr/,+33 3 80 74 52 09,,,2016,payant:0;gratuit:82965;total:82965;label-date:01/02/2003,label:musee de france,,Q3329333,M0140,
2123103,2751550494,Musée Magnin,,Rue des Bons Enfants,21000,Dijon,France,fr,open,47.3209486,5.0422275,,,,,2016,payant:7459;gratuit:10629;total:18088;label-date:06/01/2002,label:musee de france,,,,
2123104,175641505,Musée des Beaux-Arts,,Place de la Libération,21000,Dijon,France,fr,open,47.32163075,5.042364361722523,,,,,2016,payant:0;gratuit:155692;total:155692;label-date:06/01/2002,label:musee de france,,,,
2123106,23363257,Musée de la vie bourguignonne Perrin de Puycousin,,Rue du Chaignot,21000,Dijon,France,fr,open,47.31745415,5.0380257629051215,http://www.dijon.fr/decouvrir/les-musees.0.2.php,+33 3 80 48 80 90,,,2016,payant:0;gratuit:40741;total:40741;label-date:01/02/2003,label:musee de france,,Q3329974,M0139,
2505607,7345774337,Muséum de Besançon,,Chemin de Ronde de la Citadelle,25000,Besançon,France,fr,open,47.2285217,6.034794,,,,,2016,payant:236458;gratuit:33606;total:270064;label-date:01/02/2003,label:musee de france,,,,
2505605,6354947603,Musée de la résistance et de la Déportation,,Chemin de Ronde de la Citadelle,25000,Besançon,France,fr,open,47.2290324,6.0349109,,,,,2016,payant:33998;gratuit:11332;total:45330;label-date:01/02/2003,label:musee de france,,,,
2538802,7372375792,Musée du Château des Ducs de Wurtemberg,,Square Beurnier,25200,Montbéliard,France,fr,open,47.5098603,6.79769,,,,,2016,payant:6874;gratuit:10843;total:17717;label-date:01/02/2003,label:musee de france,,,,
2541801,33921375,Musée de Plein Air des Maisons Comtoises,,Rue du Musée,25360,Nancray,France,fr,open,47.23771675,6.184408422290256,,,,,2016,payant:31663;gratuit:8994;total:40657;label-date:01/02/2003,label:musee de france,,,,
2543401,87617807,Musée Courbet,1,Rue de la Froidière,25290,Ornans,France,fr,open,47.1050435,6.147763179625452,http://musee-courbet.doubs.fr/,+33 3 81 86 22 88,,,2016,payant:39929;gratuit:12046;total:51975;label-date:01/02/2003,label:musee de france,,Q3329121,M0339,
7012201,87526037,Musée départemental d'Arts et Traditions Populaires,,Place de la Mairie,70600,Champlitte,France,fr,open,47.61684495,5.514228248646819,http://www.cg70.fr/decouvertes/musee/,+33 3 84 67 82 00,,,2016,payant:3737;gratuit:7526;total:11263;label-date:01/02/2003,label:musee de france;label:monuments-historiques;type:monument-historique,,Q15950769,M0354,PA00102130
7027901,7508378482,Musée Baron Martin,,Tertre du Château,70100,Gray,France,fr,open,47.4464565,5.5938421,,,,,2016,payant:2301;gratuit:2242;total:4543;label-date:01/02/2003,label:musee de france,,,,
5819403,339392015,Musée du Palais Ducal,,Rue des Ouches,58000,Nevers,France,fr,closed,46.9882494,3.1580768,,,,,2016,payant:0;gratuit:0;total:;label-date:01/02/2003,label:musee de france,,,,
5821501,,Musée Ernest Guédon,,,,POUILLY-SUR-LOIRE,France,fr,closed,,,,,,,2016,payant:0;gratuit:0;total:;label-date:01/02/2003,label:musee de france,,,,
7101401,7419064532,Musée Verger Tarin,,Rue des Marbres,71400,Autun,France,fr,closed,46.9490737,4.3029239,,,,,2016,payant:0;gratuit:0;total:;label-date:01/02/2003,label:musee de france,,,,
7107601,,Musée Denon,,,,CHALON-SUR-SAONE,France,fr,open,,,,,,,2016,payant:81;gratuit:11336;total:11417;label-date:01/02/2003,label:musee de france,,,,
7110602,2239784876,Musée du Prieuré de Charolles,4,Rue du Prieuré,71120,Charolles,France,fr,open,46.4323423,4.2799145,,,,,2016,payant:872;gratuit:1248;total:2120;label-date:01/02/2003,label:musee de france,,,,
7154302,7419064526,Musée Bourguignon -  Perrin de Puycousin,,Rue de l'Hôpital,71700,Tournus,France,fr,closed,46.562054,4.9109128,,,,,2016,payant:0;gratuit:0;total:;label-date:01/02/2003,label:musee de france,,,,
8902401,62627118,La Maison,,Rue Jeanne d'Arc,89000,Auxerre,France,fr,open,47.7970869,3.5618150624042473,,+33386729060,+33386513780,,2016,payant:0;gratuit:14605;total:14605;label-date:01/02/2003,label:musee de france,,,,
8934401,2909216095,Musée de l'Aventure du Son,,Place de l'Hôtel de Ville,89170,Saint-Fargeau,France,fr,open,47.6414558,3.0709553,,,,,2016,payant:3127;gratuit:269;total:3396;label-date:18/04/2008,label:musee de france,,,,
2205001,95903744,Musée du Château de Dinan,,Promenade des Petits Fossés,22100,Dinan,France,fr,closed,48.450287599999996,-2.0449255728476867,,,,,2016,payant:0;gratuit:0;total:;label-date:01/02/2003,label:musee de france,,,,
2227801,78123314,Musée d'Art et d'Histoire,,Cour Francis Renaud,22000,Saint-Brieuc,France,fr,open,48.51234775,-2.7619036982498804,,,,,2016,payant:0;gratuit:16339;total:16339;label-date:01/02/2003,label:musee de france,,,,
2922001,,Musée Bigouden,,,,PONT-L'ABBE,France,fr,open,,,,,,,2016,payant:11370;gratuit:3269;total:14639;label-date:01/02/2003,label:musee de france,,,,
2923202,94312010,Musée Départemental Breton,1,Rue du Roi Gradlon,29000,Quimper,France,fr,open,47.9953725,-4.1025369543379,,,,,2016,payant:13086;gratuit:14561;total:27647;label-date:01/02/2003,label:musee de france,,,,
3523801,7422696,Musée de Bretagne,,Boulevard Magenta,35000|35700|35200,Rennes,France,fr,open,48.105132049999995,-1.6741388704016005,,,,,2016,payant:15364;gratuit:46388;total:61752;label-date:01/02/2003,label:musee de france,,,,
3523802,30437810,Musée des Beaux-Arts,20,Quai Émile Zola,35000,Rennes,France,fr,open,48.1096227,-1.6749412386363636,,,,,2016,payant:20926;gratuit:63573;total:84499;label-date:06/01/2002,label:musee de france,,,,
3536001,92884430,Musée Saint-Nicolas,,Rue du Rachapt,35500,Vitré,France,fr,closed,48.1260135,-1.2166992529105425,,,,,2016,payant:0;gratuit:0;total:;label-date:01/02/2003,label:musee de france,,,,
3536002,92884430,Musée du Château de Vitré,,Rue du Rachapt,35500,Vitré,France,fr,open,48.1260135,-1.2166992529105425,,,,,2016,payant:15495;gratuit:6961;total:22456;label-date:01/02/2003,label:musee de france,,,,
5609001,2210062014,Ecomusée des Forges,,Mail François Giovannelli,56650,Inzinzac-Lochrist,France,fr,open,47.8238742,-3.2535283,http://www.inzinzac-lochrist.fr/Ecomusee-des-Forges.6681.0.html,+33 2 97 36 98 21,,,2016,payant:1606;gratuit:1995;total:3601;label-date:01/02/2003,label:musee de france,,,M0223,
1803301,3639383770,Musée Estève,,Rue Édouard Branly,18000,Bourges,France,fr,open,47.0861911,2.396213,,,,,2016,payant:0;gratuit:14181;total:14181;label-date:01/02/2003,label:musee de france,,,,
1827901,622149606,Musée Laumônier de la locomotive à vapeur,,Rue de la Société Française,18100,Vierzon,France,fr,open,47.2249147,2.0602204,,,,,2016,payant:1449;gratuit:6603;total:8052;label-date:01/02/2003,label:musee de france,,,,
2808502,276905,Chartres,,,28000,Chartres,France,fr,open,48.4438601,1.4881434,https://www.ville-chartres.fr/,,,,2016,payant:0;gratuit:10000;total:10000;label-date:01/02/2003,label:musee de france,,Q130272,,
2813401,182675003,Musée d'Art et d'Histoire Marcel Dessal,,Place du Musée,28100,Dreux,France,fr,open,48.733925,1.3680411794478526,,,,,2016,payant:1081;gratuit:8971;total:10052;label-date:01/02/2003,label:musee de france,,,,
2819601,2288529939,Musée Marcel Proust,,Rue des Trois Maries,28120,Illiers-Combray,France,fr,open,48.2996594,1.2430508,,,,,2016,payant:3915;gratuit:286;total:4201;label-date:01/02/2003,label:musee de france,,,,
2828001,,Musée du Château Saint-Jean,,,,NOGENT-LE-ROTROU,France,fr,open,,,,,,,2016,payant:9202;gratuit:10818;total:20020;label-date:01/02/2003,label:musee de france,,,,
3601001,,Château Musée,,,,AZAY-LE-FERRON,France,fr,open,,,,,,,2016,payant:13847;gratuit:4010;total:17857;label-date:01/02/2003,label:musee de france,,,,
3604601,,Musée George Sand et de la Vallée Noire,,,,LA CHATRE,France,fr,open,,,,,,,2016,payant:5742;gratuit:6978;total:12720;label-date:01/02/2003,label:musee de france,,,,
3601801,214892,Château de Fontainebleau,,Cour du Cheval Blanc,77300,Fontainebleau,France,fr,open,48.4023346,2.7005387366907625,http://www.musee-chateau-fontainebleau.fr,+33 1 60 71 50 70,,,2016,payant:2190;gratuit:1576;total:3766;label-date:01/02/2003,label:musee de france,,Q201428,M5013,
3700301,,Musée - Hôtel Morin,,,,AMBOISE,France,fr,open,,,,,,,2016,payant:0;gratuit:8098;total:8098;label-date:01/02/2003,label:musee de france,,,,
3707201,,"Le Carroi, Musée d’Arts et d’Histoire",,,,CHINON,France,fr,open,,,,,,,2016,payant:1160;gratuit:2043;total:3203;label-date:01/02/2003,label:musee de france,,,,
3724801,1935506460,"Musée Rabelais, Maison La Devinière",,Rue de La Devinière,37500,Seuilly,France,fr,open,47.1405133,0.1784807,http://www.monuments-touraine.fr,+33 2 47 95 91 18,,,2016,payant:9788;gratuit:2032;total:11820;label-date:30/04/2002,label:musee de france,,Q3329324,M0264,
3726103,38546705,Hôtel Goüin,25,Rue du Commerce,37000,Tours,France,fr,closed,47.3953091,0.6846798555262408,,,,,2016,payant:0;gratuit:0;total:;label-date:01/02/2003,label:musee de france;label:monuments-historiques;type:monument-historique,,Q1094425,,PA00098170
3726105,40514601,Musée du Compagnonnage,2,Place Anatole France,37000,Tours,France,fr,open,47.39641815,0.6869935971502714,,,,,2016,payant:22874;gratuit:8346;total:31220;label-date:01/02/2003,label:musee de france,,,,
4101801,7170311044,Château Musées de Blois,,Petits Degrés du Château,41000,Blois,France,fr,open,47.5857788,1.3313739,,,,,2016,payant:220317;gratuit:32326;total:252643;label-date:01/02/2003,label:musee de france,,,,
4126901,541957843,Musée de Vendôme,,Allée de Yorktown,41100,Vendôme,France,fr,open,47.7907832,1.0689238,,,,,2016,payant:0;gratuit:14943;total:14943;label-date:01/02/2003,label:musee de france,,,,
4525201,224039110,Tramway de Pithiviers à Toury,,Rue Carnot,45300,Pithiviers,France,fr,closed,48.17477735,2.2434493018304966,,,,,2016,payant:0;gratuit:0;total:;label-date:01/02/2003,label:musee de france,,,,
2B03301,590087366,Musée Mariana,,,20290,Lucciana,France,fr,open,42.54204815,9.496920951519154,,,,,2016,payant:12499;gratuit:12235;total:24734;label-date:01/02/2003,label:musee de france,,,,
0810503,1765207774,Musée de l'Ardenne,,Les Arcades,08000,Charleville-Mézières,France,fr,open,49.77272,4.7214458,,,,,2016,payant:5527;gratuit:30974;total:36501;label-date:01/02/2003,label:musee de france,,,,
0840901,1874188907,Maison de la derniere Cartouche,,Avenue de la Dernière Cartouche,08140,Bazeilles,France,fr,open,49.6817859,4.9754729,http:///www.culture.gouv.fr/champagne-ardenne/2culture/musee_france/musee_bazeilles.html,+33 3 24 27 15 86,,,2016,payant:55930;gratuit:2846;total:58776;label-date:01/02/2003,label:musee de france,,Q3279770,M0290,
1026801,3817901518,Musée Camille Claudel,,Rue Gustave Flaubert,10400,Nogent-sur-Seine,France,fr,closed,48.4943857,3.5006636,,,,,2016,payant:0;gratuit:0;total:;label-date:01/02/2003,label:musee de france,,,,
6718002,606195509,Musée Alsacien,,Place Joseph Thierry,67500,Haguenau,France,fr,open,48.8147979,7.7893977,,,,,2016,payant:828;gratuit:1260;total:2088;label-date:01/02/2003,label:musee de france,,,,
6730001,58887086,Musée de la Chartreuse,,Rue des Étudiants,67120,Molsheim,France,fr,open,48.5428428,7.490422123361975,,,,,2016,payant:4199;gratuit:2239;total:6438;label-date:01/02/2003,label:musee de france,,,,
6738801,,Musée du Fer,,,,REICHSHOFFEN,France,fr,open,,,,,,,2016,payant:878;gratuit:1836;total:2714;label-date:01/02/2003,label:musee de france,,,,
6754401,167263621,Musée Westercamp,,Rue du Musée,67160,Wissembourg,France,fr,open,49.0389525,7.944872205882353,,,,,2016,payant:0;gratuit:669;total:669;label-date:01/02/2003,label:musee de france,,,,
5212101,,Musée des Beaux-Arts et d'Archéologie,,,,CHAUMONT,France,fr,open,,,,,,,2016,payant:688;gratuit:2866;total:3554;label-date:01/02/2003,label:musee de france,,,,
5226902,489598272,Musée d'Art et d'Histoire Guy Baillet,,Rue de la Coutellerie,52200,Langres,France,fr,open,47.8646223,5.333331557244431,http://www.musees-langres.fr,+33 3 25 86 86 86,,,2016,payant:3666;gratuit:5643;total:9309;label-date:01/02/2003,label:musee de france;label:monuments-historiques;type:monument-historique,,Q22985193,M0321,PA00079095
5235301,5915925232,Musée de la Coutellerie,,Place Charles de Gaulle,52800,Nogent,France,fr,open,48.0275986,5.3411994,,,,,2016,payant:3920;gratuit:1402;total:5322;label-date:18/04/2002,label:musee de france,,,,
5244801,65662699,Musée,,Allée Jean-François Lescuyer,52100,Saint-Dizier,France,fr,open,48.63793305,4.948117698073352,,,,,2016,payant:0;gratuit:5298;total:5298;label-date:01/02/2003,label:musee de france,,,,
6814901,,Musée Historique et Militaire de Huningue,,,,HUNINGE,France,fr,open,,,,,,,2016,payant:105;gratuit:220;total:325;label-date:01/02/2003,label:musee de france,,,,
6822404,449007880,Cité de l’Automobile,,Autodrome du Musée de l'Automobile,68100,Mulhouse,France,fr,open,47.7612848,7.327971551196445,https://www.citedelautomobile.com/,+33 3 89 33 23 23,,message@collection-schlumpf.com,2016,payant:31601;gratuit:11904;total:43505;label-date:01/02/2003,label:musee de france,,Q867719,,
6827702,1138681,Musée du Dolder,16,Rue du Général de Gaulle,68340,Riquewihr,France,fr,open,48.166885,7.298560434089087,,,,,2016,payant:1821;gratuit:524;total:2345;label-date:01/02/2003,label:musee de france,,,,
6833401,218472174,Ecomusée Textile,,Rue du Parc,68470,Husseren-Wesserling,France,fr,open,47.885102,6.996263986308496,,,,,2016,payant:485;gratuit:1222;total:1707;label-date:01/02/2003,label:musee de france,,,,
5110804,156704708,Musée du Cloître,4,Rue Nicolas Durand,51000,Châlons-en-Champagne,France,fr,open,48.958076,4.3631782370533925,,,,,2016,payant:911;gratuit:2098;total:3009;label-date:23/02/2012,label:musee de france,,,,
5145401,733881096,Musée des Beaux-Arts de Saint-Denis,,,51100,Reims,France,fr,open,49.252981500000004,4.030427080857688,,,,,2016,payant:22947;gratuit:21704;total:44651;label-date:06/01/2002,label:musee de france,,,,
5145405,7030744259,Musée Hôtel le Vergeur,36,Place du Forum,51100,Reims,France,fr,open,49.2571018,4.0341284,,,,,2016,payant:2046;gratuit:1926;total:3972;label-date:01/02/2003,label:musee de france,,,,
5415401,113033,Deneuvre,,,54120,Deneuvre,France,fr,open,48.4443122,6.7356749,,,,,2016,payant:2897;gratuit:1695;total:4592;label-date:01/02/2003,label:musee de france,,Q929010,,
5439501,49791497,Musée de l'Ecole de Nancy,,Rue du Sergent Blandan,54100,Nancy,France,fr,open,48.680552000000006,6.166075819038056,,,,,2016,payant:25122;gratuit:15243;total:40365;label-date:01/02/2003,label:musee de france,,,,
5535101,,Musée Jules Bastien-Lepage - Musée de la Fortification,,,,MONTMEDY,France,fr,open,,,,,,,2016,payant:10744;gratuit:2937;total:13681;label-date:01/02/2003,label:musee de france,,,,
5550202,134231670,Musée de la Bière et du Pays de Stenay,17,Rue du Moulin,55700,Stenay,France,fr,open,49.488918999999996,5.186675922267025,,,,,2016,payant:7101;gratuit:13172;total:20273;label-date:24/02/2003,label:musee de france,,,,
5725601,309445273,Musée de la guerre de 1870,11,Rue de Metz,57130,Gravelotte,France,fr,open,49.114021050000005,6.029759781346406,http://www.mosellepassion.fr/index.php/les-sites-moselle-passion/musee-de-la-guerre-de-1870,+33 3 87 33 69 40,,,2016,payant:8380;gratuit:6192;total:14572;label-date:01/02/2003,label:musee de france,,,M0526,
5753701,823312790,Musée de la Mine - Carreau Wendel,,Rue Saint-Charles,57540,Petite-Rosselle,France,fr,open,49.2039277,6.8630557,,,,,2016,payant:41608;gratuit:4456;total:46064;label-date:01/02/2003,label:musee de france,,,,
5754001,,Musée Militaire et Erckmann-Chatrian,,,,PHALSBOURG,France,fr,open,,,,,,,2016,payant:608;gratuit:676;total:1284;label-date:01/02/2003,label:musee de france,,,,
8816001,100809875,Musée Départemental d'Art Ancien et Contemporain,1,Place Lagarde,88000,Épinal,France,fr,open,48.1727635,6.446326185692797,,,,,2016,payant:3056;gratuit:10728;total:13784;label-date:01/02/2003,label:musee de france,,,,
9711201,6042462812,Ecomusée de Marie-Galante,,Route de Grand-Bourg à Capesterre,97140,Grand-Bourg,France,fr,open,15.8784483,-61.2995603,,,,,2016,payant:0;gratuit:37777;total:37777;label-date:01/02/2003,label:musee de france,,,,
9711701,1965845057,Musée Précolombien Edgar Clerc,,Route de la Plante,97160,Le Moule,France,fr,open,16.3396546,-61.3771244,,,,,2016,payant:0;gratuit:10695;total:10695;label-date:01/02/2003,label:musee de france,,,,
9712002,,Musée Départemental Victor Schoelcher,,,,POINTE-A-PITRE,France,fr,open,,,,,,,2016,payant:1584;gratuit:7903;total:9487;label-date:01/02/2003,label:musee de france,,,,
9712003,65839623,Musée l'Herminier,,Rue Sadi Carnot,97110,Pointe-à-Pitre,France,fr,closed,16.238335,-61.537012293084736,,,,,2016,payant:0;gratuit:0;total:;label-date:01/02/2003,label:musee de france,,,,
0238101,4239502337,Musée Alfred Desmasure,,Impasse du Château,02500,Hirson,France,fr,closed,49.9260179,4.0792224,,,,,2016,payant:0;gratuit:0;total:;label-date:01/02/2003,label:musee de france,,,,
0240802,202812175,Musée des Temps Barbares,,Rue des Moulins,02250,Marle,France,fr,open,49.7417279,3.771423276198486,https://www.museedestempsbarbares.fr/,,,,2016,payant:1285;gratuit:3175;total:4460;label-date:01/02/2003,label:musee de france,,Q18578032,,
0257401,236808363,Rue du Musée,,Rue du Musée,02550,Origny-en-Thiérache,France,fr,closed,49.8961405,4.022224,,,,,2016,payant:0;gratuit:0;total:;label-date:01/02/2003,label:musee de france,,,,
5920501,1719221067,Musée Municipal d'Escaudain,,Rue Paul Bert,59124,Escaudain,France,fr,open,50.3330601,3.3443559,,,,,2016,payant:0;gratuit:600;total:600;label-date:01/02/2003,label:musee de france,,,,
5937501,,Musée d'Histoire Locale de Marchiennes,,,,MARCHIENNES,France,fr,open,,,,,,,2016,payant:175;gratuit:382;total:557;label-date:01/02/2003,label:musee de france,,,,
5952601,2060779461,Musée de la Tour Abbatiale,,Grand'Place,59230,Saint-Amand-les-Eaux,France,fr,open,50.4489646,3.4287208,,,,,2016,payant:0;gratuit:17683;total:17683;label-date:01/02/2003,label:musee de france,,,,
6005701,556458814,MUDO - Musée de l'Oise,,Rue Saint-Pierre,60000,Beauvais,France,fr,open,49.4329907,2.0796036241134193,,,,,2016,payant:0;gratuit:57977;total:57977;label-date:01/02/2003,label:musee de france,,,,
6014301,6253491677,Musée Pillon,45,Rue de l'Hôtel de Ville,60240,Chaumont-en-Vexin,France,fr,open,49.2623827,1.882077,,,,,2016,payant:0;gratuit:508;total:508;label-date:01/02/2003,label:musee de france,,,,
6015905,5339422294,Musée de la Figurine Historique,"1,3,5,7",Rue Jean Legendre,60200,Compiègne,France,fr,open,49.4176885,2.8264396,,,,,2016,payant:2586;gratuit:5306;total:7892;label-date:01/02/2003,label:musee de france,,,,
6061203,5357724995,Musée de la Vénerie,,Place Saint-Maurice,60300,Senlis,France,fr,open,49.2072693,2.5833865,,,,,2016,payant:1483;gratuit:4754;total:6237;label-date:01/02/2003,label:musee de france,,,,
6210801,,Musée Communautaire Opale-Sud,,,,BERCK-SUR-MER,France,fr,open,,,,,,,2016,payant:1968;gratuit:5201;total:7169;label-date:05/04/2002,label:musee de france,,,,
6226801,244679581,Musée de la Céramique de Desvres,,Rue Jean Macé,62240,Desvres,France,fr,open,50.666714,1.842068159820283,https://www.musee-ceramique-desvres.com/,+33 3 21 83 23 23,,,2016,payant:6908;gratuit:1194;total:8102;label-date:01/02/2003,label:musee de france,,,M0645,
6241301,110215831,Rue du Musée,,Rue du Musée,62440,Harnes,France,fr,open,50.447528,2.9107465,,,,,2016,payant:0;gratuit:824;total:824;label-date:01/02/2003,label:musee de france,,,,
6276701,204398267,Musée Bruno Danvin,,Rue Oscar Ricque,62130,Saint-Pol-sur-Ternoise,France,fr,open,50.381508,2.337263799999996,,,,,2016,payant:0;gratuit:4144;total:4144;label-date:01/02/2003,label:musee de france;label:monuments-historiques;type:monument-historique,,Q22962052,M0652,PA00108425
8071601,,Musée Départemental de l'Abbaye de Saint-Riquier,,,,ABBEVILLE,France,fr,closed,,,,,,,2016,payant:0;gratuit:0;total:;label-date:01/02/2003,label:musee de france,,,,
8002103,114347,Amiens,,,,Amiens,France,fr,closed,49.8941708,2.2956951,http://www.amiens.fr/,,,,2016,payant:0;gratuit:0;total:;label-date:01/02/2003,label:musee de france,,Q41604,,
9111401,48359053,Musée Robert Dubois-Corneau,,Rue de la Glacière,91800,Brunoy,France,fr,open,48.7003494,2.5007316063279736,http://www.ville-brunoy.fr/Brunoy.asp?idpage=3503,,,,2016,payant:65;gratuit:4059;total:4124;label-date:01/02/2003,label:musee de france,,Q3329327,,
9120001,2650356282,Château-Musée de Dourdan,,Rue du Marché aux Grains,91410,Dourdan,France,fr,open,48.5298686,2.0111955,,,,,2016,payant:11067;gratuit:9054;total:20121;label-date:01/02/2003,label:musee de france,,,,
9201203,,"Albert-Kahn, Musée et Jardin Départementaux",,,,BOULOGNE-BILLANCOURT,France,fr,open,,,,,,,2016,payant:40220;gratuit:26801;total:67021;label-date:01/02/2003,label:musee de france,,,,
9202601,82241201,Musée Roybet Fould,178,Boulevard Saint-Denis,92400,Courbevoie,France,fr,open,48.90043675,2.2718533501517357,,,,,2016,payant:374;gratuit:10571;total:10945;label-date:01/02/2003,label:musee de france,,,,
9204801,137829073,Musée d'Art et d'Histoire,11,Rue des Pierres,92190,Meudon,France,fr,open,48.806285,2.2350911702464784,,,,,2016,payant:2536;gratuit:8939;total:11475;label-date:01/02/2003,label:musee de france,,,,
9207301,70961327,MUS - Musée d'Histoire Urbaine et Sociale,1,Rue Merlin de Thionville,92150,Suresnes,France,fr,open,48.868207600000005,2.221619823857867,,,,,2016,payant:3850;gratuit:4793;total:8643;label-date:01/02/2003,label:musee de france,,,,
7510603,,Etablissement public du musée d'Orsay et de l'Orangerie - Musée Hébert,,,,PARIS,France,fr,closed,,,,,,,2016,payant:0;gratuit:0;total:;label-date:06/01/2002,label:musee de france,,,,
7510602,395785603,Musée National Eugène Delacroix,,Rue Jacob,75006,Paris,France,fr,open,48.85464155,2.335393670592886,,,,,2016,payant:28362;gratuit:29786;total:58148;label-date:06/01/2002,label:musee de france,,,,
7510301,156973373,Musée de la Chasse et de la Nature,62,Rue des Archives,75003,Paris,France,fr,open,48.86125555,2.358782698354484,,,,,2016,payant:30529;gratuit:40042;total:70571;label-date:01/02/2003,label:musee de france,,,,
7510502,7444,Paris,,,,Paris,France,fr,open,48.8566969,2.3514616,http://www.paris.fr,,,,2016,payant:46278;gratuit:16514;total:62792;label-date:06/01/2002,label:musee de france,,Q90,,
7510503,83913793,Grande Galerie de l'Evolution (Muséum National d'Histoire Naturelle),,Rue Geoffroy Saint-Hilaire,75005,Paris,France,fr,open,48.8421055,2.356243821803625,,,,,2016,payant:313742;gratuit:293110;total:606852;label-date:06/01/2002,label:musee de france,,,,
7510802,5304864568,Musée de la Musique,221,Avenue Jean Jaurès,75019,Paris,France,fr,open,48.8901928,2.393712,,,,,2016,payant:182877;gratuit:91282;total:274159;label-date:06/01/2002,label:musee de france,,,,
7511202,,Établissement Public de la Porte Dorée - Musée de National de l’Histoire de l’Immigration,,,,PARIS,France,fr,open,,,,,,,2016,payant:51678;gratuit:55302;total:106980;label-date:16/11/2006,label:musee de france,,,,
7511618,4828705432,Boutique du Musée de la Poste,,Villa Marie Vassilieff,75015,Paris,France,fr,open,48.8434128,2.320792,museedelaposte.fr,+33 1 53 719849,,,2016,payant:51247;gratuit:35719;total:86966;label-date:06/01/2002,label:musee de france,,Q2445818,,
7511701,84326105,Musée National Jean-Jacques Henner,,Rue Fortuny,75017,Paris,France,fr,open,48.88297625,2.3076796906695947,,,,,2016,payant:9140;gratuit:7370;total:16510;label-date:06/01/2002,label:musee de france,,,,
7510402,5918699678,Le Musée,,Rue Joliot-Curie,91190,Le Moulon,France,fr,open,48.7094092,2.1666145,,,,,2016,payant:2461390;gratuit:967298;total:3428688;label-date:06/01/2002,label:musee de france,,,,
7718601,214892,Musée du Château de Fontainebleau,,Cour du Cheval Blanc,77300,Fontainebleau,France,fr,open,48.4023346,2.7005387366907625,,,,,2016,payant:185548;gratuit:237317;total:422865;label-date:06/01/2002,label:musee de france,,,,
7728402,,Musée de la Grande Guerre du Pays de Meaux,,,,MEAUX,France,fr,open,,,,,,,2016,payant:73846;gratuit:15154;total:89000;label-date:15/03/2007,label:musee de france,,,,
7728803,112363959,Musée de la Gendarmerie Nationale,1-3,Rue Émile Leclerc,77000,Melun,France,fr,open,48.54554555,2.6529119346368715,,,,,2016,payant:11055;gratuit:11822;total:22877;label-date:14/01/2011,label:musee de france,,,,
7744501,4895409053,Ecomusée,,Rue de la Libération,77176,Savigny-le-Temple,France,fr,closed,48.5745236,2.5833427,,,,,2016,payant:0;gratuit:0;total:;label-date:01/02/2003,label:musee de france,,,,
9304601,145134117,Musée technique des Poudres de l'Armement René Amiable,,Rue du Docteur Roux,93190,Livry-Gargan,France,fr,closed,48.934633649999995,2.5517116365355736,,,,,2016,payant:0;gratuit:0;total:;label-date:01/02/2003,label:musee de france,,,,
9501801,80773777,Château de Rubelles,,Rue de Rubelles,95390,Saint-Prix,France,fr,open,49.01175795,2.264040737016648,,,,,2016,payant:0;gratuit:672;total:672;label-date:01/02/2003,label:musee de france,,,,
7817201,,Musée de la Batellerie et des Voies Navigables,,,,CONFLANS-SAINTE-HONORINE,France,fr,open,,,,,,,2016,payant:9631;gratuit:2803;total:12434;label-date:01/02/2003,label:musee de france,,,,
7836101,1733134564,Musée de l'Hôtel-Dieu,1,Rue Thiers,78200,Mantes-la-Jolie,France,fr,open,48.9901391,1.7194536,,,,,2016,payant:3099;gratuit:1360;total:4459;label-date:01/02/2003,label:musee de france,,,,
7838401,182753888,Musée Zola-Dreyfus,,Rue Pasteur,78670,Médan,France,fr,closed,48.9556992,1.9955895638705745,,,,,2016,payant:0;gratuit:0;total:;label-date:23/10/2009,label:musee de france,,,,
7820801,1290290099,Musée de la Ville,,Quai François Truffaut,78180,Montigny-le-Bretonneux,France,fr,open,48.7831521,2.042426,,,,,2016,payant:2298;gratuit:2239;total:4537;label-date:01/02/2003,label:musee de france,,,,
7849801,,Musée du Jouet Pierre Pinel,,,,POISSY,France,fr,open,,,,,,,2016,payant:5860;gratuit:3752;total:9612;label-date:01/02/2003,label:musee de france,,,,
7855103,,Musée d'Archéologie Nationale (des origines à l'an mille) - Château de st-Germain-en-Laye,,,,SAINT-GERMAIN-EN-LAYE,France,fr,open,,,,,,,2016,payant:19769;gratuit:86642;total:106411;label-date:06/01/2002,label:musee de france,,,,
7857501,951328,Saint-Rémy-lès-Chevreuse,,,78470,Saint-Rémy-lès-Chevreuse,France,fr,open,48.7054888,2.071109,,,,,2016,payant:59;gratuit:0;total:59;label-date:01/02/2003,label:musee de france,,Q794124,,
7864601,1482437177,Musée Lambinet,,Boulevard de la Reine,78000,Versailles,France,fr,open,48.8087784,2.1305005,,,,,2016,payant:8449;gratuit:6555;total:15004;label-date:01/02/2003,label:musee de france,,,,
7864602,,Etablissement Public du Musée et du Domaine National de Versailles,,,,VERSAILLES,France,fr,open,,,,,,,2016,payant:5177020;gratuit:1524173;total:6701193;label-date:06/01/2002,label:musee de france,,,,
9741101,146919869,Musée Léon Dierx,,Rue Sainte Marie,97400,Saint-Denis,France,fr,open,-20.883840050000003,55.450058317623416,,,,,2016,payant:3327;gratuit:11503;total:14830;label-date:01/02/2003,label:musee de france,,Q3329255,,
9720903,290031,Fort-de-France,,,,Fort-de-France,France,fr,closed,14.6027962,-61.0676724,http://www.fortdefrance.fr/,,,,2016,payant:0;gratuit:0;total:;label-date:01/02/2003,label:musee de france,,Q81621,,
1404701,2578288672,Musée Baron Gérard,37,Rue du Bienvenu,14400,Bayeux,France,fr,open,49.2761648,-0.7036632,,,,,2016,payant:31424;gratuit:5245;total:36669;label-date:01/02/2003,label:musee de france,,,,
1411801,315032925,Musée des Beaux-Arts,,Chemin des Fossés du Château,14000,Caen,France,fr,open,49.1862879,-0.3615817,,,,,2016,payant:51458;gratuit:73927;total:125385;label-date:06/01/2002,label:musee de france,,,,
1433301,7179675885,Musée d'Ethnographie et d'Arts Populaires et Musée de la Marine,,Rue de la Prison,14600,Honfleur,France,fr,open,49.4196131,0.233695,,,,,2016,payant:14228;gratuit:1002;total:15230;label-date:01/02/2003,label:musee de france,,,,
1475401,367285600,Paléospace,,Avenue Jean Moulin,14640,Villers-sur-Mer,France,fr,open,49.32785775000001,0.013359593768197942,http://www.paleospace-villers.fr,+33 2 31 81 77 60,,,2016,payant:44452;gratuit:6328;total:50780;label-date:01/02/2003,label:musee de france,,Q3361743,M7063,
2737501,1281576361,Musée,,Place Ernest Thorel,27400,Louviers,France,fr,open,49.214913,1.1684299,,,,,2016,payant:0;gratuit:11486;total:11486;label-date:01/02/2003,label:musee de france,,,,
5008201,,Musée du Vieux Château,,,,BRICQUEBEC-EN-COTENTIN,France,fr,open,,,,,,,2016,payant:351;gratuit:0;total:351;label-date:01/02/2003,label:musee de france,,,,
5012901,1932681880,Muséum Emmanuel Liais,,Rue de l'Abbaye,50100,Cherbourg-en-Cotentin,France,fr,open,49.6429877,-1.6294662,,,,,2016,payant:1842;gratuit:7607;total:9449;label-date:01/02/2003,label:musee de france,,,,
5052501,,Musée du Granit,,,,SAINT-MICHEL-DE-MONTJOIE,France,fr,open,,,,,,,2016,payant:37;gratuit:1763;total:1800;label-date:01/02/2003,label:musee de france,,,,
5055101,,Musée Barbey d'Aurevilly,,,,SAINT-SAUVEUR-LE-VICOMTE,France,fr,open,,,,,,,2016,payant:629;gratuit:372;total:1001;label-date:01/02/2003,label:musee de france,,,,
6137901,4317391883,Musée Départemental des Arts et Traditions Populaires du Perche,,D 277,61130,Saint-Cyr-la-Rosière,France,fr,open,48.3249849,0.6549988,,,,,2016,payant:10068;gratuit:12013;total:22081;label-date:01/02/2003,label:musee de france,,,,
7621701,387891590,Château-Musée de Dieppe,,Rue de Sygogne,76200,Dieppe,France,fr,open,49.924208899999996,1.0707435133141803,,,,,2016,payant:18197;gratuit:14343;total:32540;label-date:25/05/2002,label:musee de france,,,,
7625901,,Musée des Terres-Neuvas et de la Pêche,,,,FECAMP,France,fr,open,,,,,,,2016,payant:3544;gratuit:648;total:4192;label-date:01/02/2003,label:musee de france,,,,
7625902,,Musée des Arts & de l'Enfance,,,,FECAMP,France,fr,closed,,,,,,,2016,payant:0;gratuit:0;total:;label-date:01/02/2003,label:musee de france,,,,
7635101,69981531,Musée d'Art Moderne André Malraux - MuMa,2,Boulevard Clemenceau,76600,Le Havre,France,fr,open,49.48501735,0.10265666643901614,,,,,2016,payant:53464;gratuit:46059;total:99523;label-date:01/02/2003,label:musee de france,,,,
7654003,64181527,Musée des Beaux-Arts,,Esplanade Marcel Duchamp,76000,Rouen,France,fr,open,49.44473675,1.0945818804156213,http://mbarouen.fr,+33 2 35 71 28 40,,,2016,payant:2775;gratuit:4260;total:7035;label-date:01/02/2003,label:musee de france,,Q3086934,,
7654004,64180958,Musée des Antiquités de la Seine-Maritime,198,Rue Beauvoisine,76000,Rouen,France,fr,open,49.4469796,1.0994713257847062,,,,,2016,payant:157;gratuit:27607;total:27764;label-date:01/02/2003,label:musee de france,,,,
1610201,65523448,Musée d'art et d'histoire,48,Boulevard Denfert-Rochereau,16100,Cognac,France,fr,open,45.695926150000005,-0.32557439625392126,http://www.musees-cognac.fr/,,,,2016,payant:2945;gratuit:2953;total:5898;label-date:01/02/2003,label:musee de france,,,,
1729905,,Ancienne École de médecine navale - Musée national de la Marine,,,,ROCHEFORT,France,fr,open,,,,,,,2016,payant:4934;gratuit:6645;total:11579;label-date:06/01/2020,label:musee de france,,,,
1741504,136636772,Musée Dupuy-Mestreau,,Rue Monconseil,17100,Saintes,France,fr,open,45.74313975,-0.6340019161865896,,,,,2016,payant:359;gratuit:689;total:1048;label-date:01/02/2003,label:musee de france,,,,
1738501,1846520665,Musée de l'Ile d'Oléron,,Rue Aliénor d'Aquitaine,17310,Saint-Pierre-d'Oléron,France,fr,open,45.9428107,-1.3066515,,,,,2016,payant:8892;gratuit:3413;total:12305;label-date:01/02/2003,label:musee de france,,,,
7919104,795257552,Musée Bernard d’Agesci,26,Avenue de Limoges,79000,Niort,France,fr,open,46.3210536,-0.454416,,,,,2016,payant:4064;gratuit:9136;total:13200;label-date:01/02/2003,label:musee de france,,,,
7932901,64211578,Musée Henri Barré,,Rue du Bac,79100,Thouars,France,fr,open,46.97362875,-0.21811853555865957,,,,,2016,payant:427;gratuit:1839;total:2266;label-date:01/02/2003,label:musee de france,,,,
2452001,,Musée-Aquarium,,,,CREYSSE,France,fr,closed,,,,,,,2016,payant:0;gratuit:0;total:;label-date:01/02/2003,label:musee de france,,,,
2429901,3136128949,Musée des Arts et Traditions Populaires du Périgord,1,Rue Raoul Grassin,24400,Mussidan,France,fr,open,45.0375278,0.362942,,,,,2016,payant:942;gratuit:1212;total:2154;label-date:01/02/2003,label:musee de france,,,,
3306310,6912095875,Musée Goupil,,Cours Pasteur,33000,Bordeaux,France,fr,closed,44.8358149,-0.5749304,,,,,2016,payant:0;gratuit:0;total:;label-date:01/02/2003,label:musee de france,,,,
3354701,161041079,Musée Municipal,,Impasse Dupeyron,33730,Villandraut,France,fr,open,44.457179,-0.372994201515152,,,,,2016,payant:182;gratuit:100;total:282;label-date:01/02/2003,label:musee de france,,,,
4729201,5827779554,SauveTerre Musée de Préhistoire,,D 68,47500,Sauveterre-la-Lémance,France,fr,open,44.5904194,1.0137463,https://www.sauveterre-prehistoire.fr/,,,,2016,payant:2222;gratuit:379;total:2601;label-date:01/02/2003,label:musee de france,,,,
6410201,631661850,Musée Basque et de l'Histoire de Bayonne,37,Quai des Corsaires,64100,Bayonne,France,fr,open,43.4910854,-1.473799,,,,,2016,payant:26348;gratuit:34927;total:61275;label-date:01/02/2003,label:musee de france,,,,
6444501,,Musée Municipal des Beaux-Arts,,,,PAU,France,fr,open,,,,,,,2016,payant:7596;gratuit:10671;total:18267;label-date:01/02/2003,label:musee de france,,,,
8606603,,"Musée de la Moto, de l'Automobile et du Vélo",,,,CHATELLERAULT,France,fr,open,,,,,,,2016,payant:5263;gratuit:5731;total:10994;label-date:01/02/2003,label:musee de france,,,,
8619402,40140547,Musée Sainte-Croix,,Rue Paschal le Coq,86000,Poitiers,France,fr,open,46.57912245,0.34775441471496493,,,,,2016,payant:6476;gratuit:25150;total:31626;label-date:06/01/2002,label:musee de france,,,,
8619404,40140547,Musée du baptistère Saint-Jean,,Rue Paschal le Coq,86000,Poitiers,France,fr,open,46.57912245,0.34775441471496493,,,,,2016,payant:11974;gratuit:1462;total:13436;label-date:01/02/2003,label:musee de france,,,,
8619406,132348,Poitiers,,,86000,Poitiers,France,fr,open,46.5802596,0.340196,https://www.poitiers.fr/,,,,2016,payant:17430;gratuit:38336;total:55766;label-date:01/02/2003,label:musee de france,,Q6616,,
0918101,3127357651,Musée de la Préhistoire,,Place de l'Église,09290,Le Mas-d'Azil,France,fr,open,43.0800307,1.3600366,,,,,2016,payant:12666;gratuit:546;total:13212;label-date:01/02/2003,label:musee de france,,,,
1120601,799714487,Musée Petiet,,Avenue Fabre d'Églantine,11300,Limoux,France,fr,open,43.0534043,2.2144622,,,,,2016,payant:467;gratuit:2549;total:3016;label-date:01/02/2003,label:musee de france,,,,
1136901,758324962,Amphoralis,,Chemin de Halage,11590,Sallèles-d'Aude,France,fr,open,43.273517,2.9369963132911447,,,,,2016,payant:6111;gratuit:4761;total:10872;label-date:01/02/2003,label:musee de france,,Q23640596,,
1209601,152864630,Musée du Rouergue,,Place Pierre Frontin,12500,Espalion,France,fr,open,44.5211405,2.7606325085458474,http://musees.aveyron.fr,+33 5 65 44 19 91,,,2016,payant:34;gratuit:962;total:996;label-date:01/02/2003,label:musee de france,,,M0547,
1214501,187705210,Musée mémoire de la vie rurale,,Rue de la Madeleine,12620,Saint-Beauzély,France,fr,open,44.164187,2.9579286798418973,http://www.saint-beauzely.fr/Musee-des-metiers-et-de-la-pierre.aspx,,,,2016,payant:3303;gratuit:13380;total:16683;label-date:01/02/2003,label:musee de france;label:monuments-historiques;type:monument-historique,,Q2970494,,PA12000013
1220301,2242124020,Caves Roquefort Société,2,Avenue François Galtier,12250,Roquefort-sur-Soulzon,France,fr,closed,43.9745977,2.9927119,http://www.visite-roquefort-societe.com,+33 5 65 58 54 38,,visitedescaves@roquefort-societe.com,2016,payant:0;gratuit:0;total:;label-date:01/02/2003,label:musee de france,,,,
3018906,249023783,Carré d'Art,16,Place de la Maison Carrée,30000,Nîmes,France,fr,open,43.8379778,4.3550651390627815,,+33466763530,,bibliotheque@ville-nimes.fr,2016,payant:10267;gratuit:36924;total:47191;label-date:01/02/2003,label:musee de france,,Q1045385,,
3018905,41832267,Musée des Beaux-Arts,,Rue de la Cité Foulc,30033,Nîmes,France,fr,open,43.83194295,4.360586484823399,,,,,2016,payant:146;gratuit:14759;total:14905;label-date:01/02/2003,label:musee de france,,,,
3210701,395394221,Musée de l'Armagnac,,Rue Jules Ferry,32100,Condom,France,fr,open,43.9587501,0.3720146,,,,,2016,payant:1422;gratuit:290;total:1712;label-date:01/02/2003,label:musee de france,,,,
3104201,,Musée du Pays de Luchon,,,,BAGNERES-DE-LUCHON,France,fr,open,,,,,,,2016,payant:987;gratuit:490;total:1477;label-date:01/02/2003,label:musee de france,,,,
3147201,3509638044,Musée Archéologique Départemental,,Rue du Musée,31510,Saint-Bertrand-de-Comminges,France,fr,open,43.027071,0.569798,,,,,2016,payant:0;gratuit:10347;total:10347;label-date:01/02/2003,label:musee de france,,,,
3155506,247081244,Musée du Vieux Toulouse,,Rue du May,31000,Toulouse,France,fr,open,43.6023148,1.4431296,,,,,2016,payant:6130;gratuit:1317;total:7447;label-date:01/02/2003,label:musee de france,,,,
3400301,4134270080,Musée Agathois,5,Rue de la Fraternité,34300,Agde,France,fr,open,43.3118294,3.4686196,,,,,2016,payant:1702;gratuit:1643;total:3345;label-date:01/02/2003,label:musee de france,,,,
3430101,2244412926,Musée Paul Valéry,,Rue François Desnoyer,34200,Sète,France,fr,open,43.3953827,3.6906637,,,,,2016,payant:39884;gratuit:10520;total:50404;label-date:01/02/2003,label:musee de france,,,,
6605301,,Musée d'Art Moderne - Fonds Peskè,,,,COLLIOURE,France,fr,open,,,,,,,2016,payant:6184;gratuit:2212;total:8396;label-date:01/02/2003,label:musee de france,,,,
6614801,,Musée d'Archéologie Sous-Marine,,,,PORT-VENDRES,France,fr,closed,,,,,,,2016,payant:0;gratuit:0;total:;label-date:01/02/2003,label:musee de france,,,,
8106901,5168791210,Musée Charles Portal - Histoire et Patrimoine,,Rue Saint-Michel,81170,Cordes-sur-Ciel,France,fr,open,44.0637595,1.9490171,,,,,2016,payant:688;gratuit:425;total:1113;label-date:01/02/2003,label:musee de france,,,,
8109902,60929966,Rue Philadelphe Thomas,,Rue Philadelphe Thomas,81600,Gaillac,France,fr,open,43.8993239,1.8943379,,,,,2016,payant:968;gratuit:3756;total:4724;label-date:01/02/2003,label:musee de france,,,,
8211202,59127408,Accueil Abbaye de Moissac,1,Rue de l'Abbaye,82200,Moissac,France,fr,closed,44.10574095,1.0849678812128933,,,,,2016,payant:0;gratuit:0;total:;label-date:01/02/2003,label:musee de france,,,,
4401501,,"Musée de la Fève, Crèches et Traditions Populaires",,,,BLAIN,France,fr,open,,,,,,,2016,payant:829;gratuit:221;total:1050;label-date:01/02/2003,label:musee de france,,,,
4416801,,Musées du Parc Naturel Régional de Brière,,,,SAINT-JOACHIM,France,fr,closed,,,,,,,2016,payant:0;gratuit:0;total:;label-date:01/02/2003,label:musee de france,,,,
4909901,1782756206,Musée d'Art et d'Histoire,,Avenue de l’Abreuvoir,49300,Cholet,France,fr,open,47.0583944,-0.8807128,,,,,2016,payant:1796;gratuit:14977;total:16773;label-date:06/04/2002,label:musee de france,,,,
5313001,3773677487,Musée du Vieux Château,,Rue du Val de Mayenne,53000,Laval,France,fr,open,48.068577,-0.7707286,,,,,2016,payant:9986;gratuit:23638;total:33624;label-date:01/02/2003,label:musee de france,,,,
7218102,2088806259,Musée de la Reine Bérengère,7,Rue de la Reine Bérengère,72000,Le Mans,France,fr,open,48.0089768,0.1976955,,,,,2016,payant:1551;gratuit:10322;total:11873;label-date:06/01/2002,label:musee de france,,,,
8514601,76083845,Pavillon des Nourrices,,Place de l'Hôtel de Ville,85600,Montaigu,France,fr,open,46.974196,-1.3132451686989501,,,,,2016,payant:0;gratuit:100;total:100;label-date:01/02/2003,label:musee de france,,,,
0407001,570290612,Musée Gassendi,64,Boulevard Gassendi,04000,Digne-les-Bains,France,fr,open,44.09366125,6.238406603731345,,,,,2016,payant:2206;gratuit:16493;total:18699;label-date:01/02/2003,label:musee de france,,,,
0600402,68051130,Musée Picasso,,Place Mariejol,06600,Antibes,France,fr,open,43.58070895,7.128259617884984,http://www.antibes-juanlespins.com,+33 4 92 90 54 26,+33 4 92 90 54 21,musee.picasso@ville-antibes.fr,2016,payant:4996;gratuit:5571;total:10567;label-date:01/02/2003,label:musee de france;label:monuments-historiques;type:monument-historique,,Q1368360,M0867,PA00080651
0601801,1416739719,Musée Fernand Léger,,Chemin du Val de Pome,06410,Biot,France,fr,open,43.6212652,7.1123586,,,,,2016,payant:13238;gratuit:15244;total:28482;label-date:06/01/2002,label:musee de france,,,,
0602701,63863191,Musée-Château de Cagnes,,Chemin des Collettes,06800,Cagnes-sur-Mer,France,fr,open,43.667673699999995,7.156948252321393,,,,,2016,payant:14179;gratuit:9451;total:23630;label-date:01/02/2003,label:musee de france,,,,
0602901,64917198,Musée de la Castre,,Place de la Castre,,Cannes,France,fr,open,43.5501472,7.010204428560124,,,,,2016,payant:12271;gratuit:11424;total:23695;label-date:01/02/2003,label:musee de france,,,,
0603001,67152119,Musée Bonnard,,Rue des Prés,06110,Le Cannet,France,fr,open,43.576493400000004,7.019928487377124,,,,,2016,payant:22613;gratuit:8794;total:31407;label-date:06/12/2006,label:musee de france,,,,
0608805,,Musée Archéologique - Site de  Cimiez,,,,NICE,France,fr,open,,,,,,,2016,payant:3959;gratuit:24729;total:28688;label-date:01/02/2003,label:musee de france,,,,
0608808,578023554,Musée du Palais Lascaris,15,Rue Droite,06300,Nice,France,fr,open,43.6974774,7.2772468,,,,,2016,payant:15825;gratuit:15399;total:31224;label-date:01/02/2003,label:musee de france,,,,
1301103,446697908,Musée des Santons,,Place Louis Jou,13520,Les Baux-de-Provence,France,fr,open,43.74474145,4.794991401666666,,,,,2016,payant:286086;gratuit:0;total:286086;label-date:01/02/2003,label:musee de france,,Q47486159,,
1305502,,Musée du Vieux Marseille,,,,MARSEILLE,France,fr,closed,,,,,,,2016,payant:0;gratuit:0;total:;label-date:01/02/2003,label:musee de france,,,,
1310001,6214739885,Musée des Alpilles,,Rue du Parage,13210,Saint-Rémy-de-Provence,France,fr,open,43.7894582,4.8308012,,,,,2016,payant:3195;gratuit:7072;total:10267;label-date:01/02/2003,label:musee de france,,,,
0500301,,Musée du Vieux Queyras,,,,AIGUILLES,France,fr,closed,,,,,,,2016,payant:0;gratuit:0;total:;label-date:01/02/2003,label:musee de france,,,,
0506101,1255767096,Musée Départemental des Hautes-Alpes,,Avenue du Maréchal Foch,05000,Gap,France,fr,open,44.5622653,6.0858366,,,,,2016,payant:0;gratuit:17986;total:17986;label-date:01/02/2003,label:musee de france,,,,
8305002,,Musée de la Société d’Etudes Scientifiques et Achéologiques,,,,DRAGUIGNAN,France,fr,closed,,,,,,,2016,payant:0;gratuit:0;total:;label-date:01/02/2003,label:musee de france,,,,
8305004,2391557653,Musée de l'Artillerie,,Avenue des Ecoles Militaires,83300,Draguignan,France,fr,open,43.5269481,6.497204,,,,,2016,payant:0;gratuit:21124;total:21124;label-date:05/07/2006,label:musee de france,,,,
8313703,2196651226,Musée d'Art,113,Boulevard Général Leclerc,83000,Toulon,France,fr,open,43.1263031,5.9272107,https://toulon.fr/envie-bouger/article/musee-d-art-de-toulon-mat,+33 4 94 36 81 01,,,2016,payant:0;gratuit:31411;total:31411;label-date:01/02/2003,label:musee de france,,Q3329600,M0943,
8400702,309712990,Musée du Petit Palais,,Rue Ferruce,84000,Avignon,France,fr,open,43.9527473,4.8063438,,,,,2016,payant:13691;gratuit:15567;total:29258;label-date:01/02/2003,label:musee de france,,,,
8403105,1802571381,Musée Sobirats,,Rue du Collège,84200,Carpentras,France,fr,open,44.054376,5.046289,,,,,2016,payant:296;gratuit:661;total:957;label-date:01/02/2003,label:musee de france,,,,
8406801,,Musée Philippe de Girard,,,,LOUMARIN - CADENET,France,fr,closed,,,,,,,2016,payant:0;gratuit:0;total:;label-date:01/02/2003,label:musee de france,,,,
8412301,749483617,Musée Municipal,,Rue du Musée,84390,Sault,France,fr,open,44.0911406,5.4084718,,,,,2016,payant:0;gratuit:757;total:757;label-date:01/02/2003,label:musee de france,,,,
8413801,1936611150,Musée du Cartonnage et de l'Imprimerie,,Avenue Maréchal Foch,84600,Valréas,France,fr,open,44.382611,4.987426,http://www.vaucluse.fr/culture-et-patrimoine/les-musees-departementaux/le-musee-du-cartonnage-et-de-limprimerie-a-valreas-867.html,+33 4 90 35 58 75,,,2016,payant:3656;gratuit:940;total:4596;label-date:01/02/2003,label:musee de france,,Q21541701,M0962,
9750202,,Musée de l'Arche,,,,SAINT-PIERRE ET MIQUELON,France,fr,open,,,,,,,2016,payant:2609;gratuit:1629;total:4238;label-date:01/02/2003,label:musee de france,,,,
0119201,1357668479,Musée Archéologique,,Place de l'Église,01580,Izernore,France,fr,open,46.220134,5.5548124,,,,,2016,payant:1164;gratuit:1952;total:3116;label-date:01/02/2003,label:musee de france,,,,
0140701,3215575817,Musée du Bois,,Allée Serullaz,01420,Seyssel,France,fr,closed,45.9591932,5.8316942,,,,,2016,payant:0;gratuit:0;total:;label-date:01/02/2003,label:musee de france,,,,
0304801,,Musée Charles-Louis Philippe,,,,CERILLY,France,fr,open,,,,,,,2016,payant:104;gratuit:81;total:185;label-date:01/02/2003,label:musee de france,,,,
0311801,387245355,Musée Yves-Machelon,,Esplanade Pierre-Roch-Jurien-de-la-Gravière,03800,Gannat,France,fr,open,46.10151045,3.1965522151680728,,,,,2016,payant:610;gratuit:2093;total:2703;label-date:01/02/2003,label:musee de france,,,,
0327501,38196164,Maison du braconnage,,Rue de Vouzon,41600,Chaon,France,fr,open,47.609893150000005,2.165856899999999,,,,,2016,payant:6221;gratuit:649;total:6870;label-date:01/02/2003,label:musee de france,,,,
0331002,90587179,Musée des Arts D'Afrique et D'Asie,16,Avenue Thermale,03200,Vichy,France,fr,open,46.128228,3.419954892380618,,,,,2016,payant:1394;gratuit:0;total:1394;label-date:01/02/2003,label:musee de france,,,,
0700501,,MuséAL - Musée Archéologique d'Alba,,,,ALBA-LA-ROMAINE,France,fr,open,,,,,,,2016,payant:12758;gratuit:2983;total:15741;label-date:17/02/2014,label:musee de france,,,,
0731601,68332777,Musée Archéologique,,Rue des Ruines,07130,Soyons,France,fr,open,44.8879269,4.850776295600438,https://www.soyons.fr/le-musee,,,,2016,payant:10591;gratuit:1726;total:12317;label-date:01/02/2003,label:musee de france,,,,
1501402,6580283562,Musée d'Art et d'Archéologie,,Rue des Carmes,15000,Aurillac,France,fr,open,44.9253069,2.4420708,,,,,2016,payant:961;gratuit:19394;total:20355;label-date:01/02/2003,label:musee de france,,,,
2632401,75706507,Maison de la Truffe et du Tricastin,,Passage Fanjoux,26130,Saint-Paul-Trois-Châteaux,France,fr,open,44.34948825,4.768113979626141,,,,,2016,payant:3132;gratuit:4789;total:7921;label-date:01/02/2003,label:musee de france,,,,
7405601,97313427,Musée Alpin,,Rue de la Tournette,74400,Chamonix-Mont-Blanc,France,fr,open,45.924025099999994,6.871257449784508,,,,,2016,payant:22485;gratuit:13262;total:35747;label-date:01/02/2003,label:musee de france,,,,
7415201,7049144505,Musée Léon Marès,,Allée du Château,74330,Lovagny,France,fr,open,45.8988203,6.0391237,,,,,2016,payant:19259;gratuit:0;total:19259;label-date:01/02/2003,label:musee de france,,,,
3805301,120266165,Musée de Bourgoin-Jallieu,17,Rue Victor Hugo,38300,Bourgoin-Jallieu,France,fr,open,45.586719,5.279306259049774,https://www.bourgoinjallieu.fr/culture/musee,+33 4 74 28 19 74,,,2016,payant:566;gratuit:7533;total:8099;label-date:01/02/2003,label:musee de france,,Q26678177,M0991,
3818501,2323051603,Musée,,Quai Jongkind,38000,Grenoble,France,fr,open,45.1953352,5.7315819,,,,,2016,payant:0;gratuit:45005;total:45005;label-date:01/02/2003,label:musee de france,,,,
3819001,1869973658,Musée-Maison du Patrimoine,,Montée de la Cure,38118,Hières-sur-Amby,France,fr,open,45.7970511,5.2932086,http://www.musee-larina-hieres.com/,+33 4 74 95 19 10,,,2016,payant:6907;gratuit:2306;total:9213;label-date:01/02/2003,label:musee de france,,,M0999,
3851601,192104327,Musée Hébert,,Musée Hébert,38700,La Tronche,France,fr,open,45.2057094,5.7489167,,,,,2016,payant:0;gratuit:36092;total:36092;label-date:01/02/2003,label:musee de france,,,,
3813001,615739719,Musée Hector Berlioz,69,Rue de la République,38260,La Côte-Saint-André,France,fr,open,45.3933564,5.2612214,,,,,2016,payant:0;gratuit:12694;total:12694;label-date:01/02/2003,label:musee de france,,,,
3844203,4323986447,Musée de la Grande Chartreuse,,D 103,38380,Saint-Pierre-de-Chartreuse,France,fr,open,45.3499104,5.7915302,,,,,2016,payant:35311;gratuit:1873;total:37184;label-date:01/02/2003,label:musee de france,,,,
3854403,2675390826,Musée des Beaux-Arts et d'Archéologie,,Place Miremont,38200,Vienne,France,fr,open,45.5239956,4.8748576,,,,,2016,payant:2227;gratuit:3212;total:5439;label-date:01/02/2003,label:musee de france,,,,
3856301,,Musée Lucien Mainssieux,,,,VOIRON,France,fr,open,,,,,,,2016,payant:0;gratuit:5303;total:5303;label-date:28/07/2004,label:musee de france,,,,
4210601,,Musée Historial,,,,GREZOLLES,France,fr,closed,,,,,,,2016,payant:0;gratuit:0;total:;label-date:01/02/2003,label:musee de france,,,,
4221802,63340891,Musée d'Art et d'Industrie,2,Place Louis Comte,42000,Saint-Étienne,France,fr,open,45.4314634,4.386849541030928,,,,,2016,payant:21911;gratuit:19505;total:41416;label-date:01/02/2003,label:musee de france,,,,
6311301,67015490,Musée d'Art Roger Quilliot,,Place Louis Deteix,63100,Clermont-Ferrand,France,fr,open,45.79392705,3.1162223146769588,https://www.clermontmetropole.eu/bouger-se-divertir/le-dynamisme-culturel/les-musees-de-clermont-auvergne-metropole/marq-musee-dart-roger-quilliot/,+33 4 43 76 25 25,,,2016,payant:4741;gratuit:13295;total:18036;label-date:01/02/2003,label:musee de france,,Q1495869,M0121,
6311305,67015490,Musée d'Art Roger Quilliot,,Place Louis Deteix,63100,Clermont-Ferrand,France,fr,open,45.79392705,3.1162223146769588,https://www.clermontmetropole.eu/bouger-se-divertir/le-dynamisme-culturel/les-musees-de-clermont-auvergne-metropole/marq-musee-dart-roger-quilliot/,+33 4 43 76 25 25,,,2016,payant:29705;gratuit:48681;total:78386;label-date:01/02/2003,label:musee de france,,Q1495869,M0121,
6321101,798314887,Musée des Pénitents Blancs,,Place de l'Église,63940,Marsac-en-Livradois,France,fr,open,45.4787455,3.7287661,,,,,2016,payant:108;gratuit:6;total:114;label-date:01/02/2003,label:musee de france,,,,
6322301,7638286185,Arboretum de la forêt de Brosse,,D 508,63560,Neuf-Église,France,fr,open,46.1202255,2.8584098,,,,,2016,payant:374;gratuit:76;total:450;label-date:01/02/2003,label:musee de france,,,,
6330002,700609622,Musée Francisque Mandet,14,Rue de l'Hôtel de Ville,63200,Riom,France,fr,open,45.8935237,3.116637906648638,,,,,2016,payant:4687;gratuit:11292;total:15979;label-date:01/02/2003,label:musee de france,,,,
6330003,700609623,Musée Régional d'Auvergne,,Rue Delille,63200,Riom,France,fr,open,45.8949948,3.116100670697047,,,,,2016,payant:0;gratuit:2610;total:2610;label-date:01/02/2003,label:musee de france,,,,
6343001,161471210,Musée Municipal de la Coutellerie,,Rue de la Coutellerie,63300,Thiers,France,fr,open,45.852432,3.54815385,,,,,2016,payant:19019;gratuit:3896;total:22915;label-date:01/02/2003,label:musee de france,,,,
6900601,312877023,Musée Barthélemy-Thimonnier,,Rue du Nord,69550,Amplepuis,France,fr,open,45.9729166,4.3306812,,,,,2016,payant:2012;gratuit:2048;total:4060;label-date:10/05/2005,label:musee de france,,,,
6912301,188157107,Musée des Tissus et des Arts décoratifs,,Rue de la Charité,69002,Lyon,France,fr,open,45.7533945,4.831325634804587,https://www.museedestissus.fr/,+33 4 78 38 42 07,,,2016,payant:40980;gratuit:19411;total:60391;label-date:01/02/2003,label:musee de france,,Q3330146,M1038,
6912302,440270631,Musée des Confluences,,Autoroute du Soleil,69002,Lyon,France,fr,open,45.732677800000005,4.818160692638674,http://www.museedesconfluences.fr/,+33 4 28 38 12 12,,,2016,payant:0;gratuit:0;total:;label-date:2003-02-01 00:00:00,label:musee de france,,Q8352,M7042,
6938101,62277312,Musée d'Art Contemporain de Lyon,,Allée Achille Lignon,69006,Lyon,France,fr,open,45.7842186,4.852469746082954,,,,,2016,payant:59265;gratuit:75735;total:135000;label-date:01/02/2003,label:musee de france,,,,
7300601,,Musée archéologique et minéralogique Pierre Borrione,,,,AIME-EN-TARENTAISE,France,fr,open,,,,,,,2016,payant:391;gratuit:145;total:536;label-date:01/02/2003,label:musee de france,,,,
7306502,55112807,Musée Savoisien,,Place Métropole,73000,Chambéry,France,fr,open,45.56549205,5.922931048911965,,,,,2016,payant:1187;gratuit:30537;total:31724;label-date:06/01/2002,label:musee de france,,,,
7306504,51263801,Muséum d'histoire naturelle,,Avenue de Lyon,73000,Chambéry,France,fr,closed,45.564102399999996,5.916291852044658,,,,,2016,payant:0;gratuit:0;total:;label-date:01/02/2003,label:musee de france,,,,
2105402,371712800,Musée des Beaux-Arts,,Rempart Madeleine,21200,Beaune,France,fr,open,47.0214963,4.8398035,,,,,2016,payant:2972;gratuit:2095;total:5067;label-date:01/02/2003,label:musee de france,,,,
2123107,5141876795,Musée d'Art Sacré,,Rue Sainte-Anne,21000,Dijon,France,fr,open,47.3177794,5.0379087,,,,,2016,payant:0;gratuit:8323;total:8323;label-date:01/02/2003,label:musee de france,,,,
2505604,7345774098,Musée Comtois,,Chemin de Ronde de la Citadelle,25000,Besançon,France,fr,open,47.2298091,6.034391,,,,,2016,payant:0;gratuit:0;total:;label-date:01/02/2003,label:musee de france,,,,
7024501,192995465,Ecomusée du Pays de la Cerise,,Le Petit Fahys,70220,Lure,France,fr,open,47.90680895,6.4023357809508346,,,,,2016,payant:6116;gratuit:2048;total:8164;label-date:01/02/2003,label:musee de france,,,,
7031101,6330861575,Musée de la Tour des Echevins,,Rue de la Tour,70300,Luxeuil-les-Bains,France,fr,open,47.8178096,6.3803395,,,,,2016,payant:2238;gratuit:935;total:3173;label-date:01/02/2003,label:musee de france,,,,
5806202,3618004518,Musée du Septennat de François Mitterrand,,Place du Château,58120,Château-Chinon (Ville),France,fr,open,47.0672537,3.9351818,http://www.mitterrand.org/Chateau-Chinon-Musee-du-Septennat.html,+33 3 86 85 19 23,,,2016,payant:2934;gratuit:1021;total:3955;label-date:01/02/2003,label:musee de france,,Q979000,M0149,
5807901,2627307760,Musée d'Art et d'Histoire Romain Rolland,,Avenue de la République,58500,Clamecy,France,fr,open,47.4603634,3.5204872,,,,,2016,payant:2095;gratuit:2698;total:4793;label-date:01/02/2003,label:musee de france,,,,
7110601,7419064524,Musée René Davoine,32,Rue René Davoine,71120,Charolles,France,fr,open,46.4312242,4.2732669,,,,,2016,payant:0;gratuit:101;total:101;label-date:01/02/2003,label:musee de france,,,,
7135101,3617522815,Pierre-de-Bresse,,Rue du Château,71270,Pierre-de-Bresse,France,fr,open,46.8828547,5.2614005,,3631,,,2016,payant:24665;gratuit:13508;total:38173;label-date:01/02/2003,label:musee de france,,,,
7127201,6575800688,Musée Départemental du Compagnonnage,,Rue Pierre François Guillon,71570,Romanèche-Thorins,France,fr,open,46.1880514,4.733891,,,,,2016,payant:1835;gratuit:2378;total:4213;label-date:01/02/2003,label:musee de france,,,,
9001001,34588114,Musée d'Art et d'Histoire,,Allée de l'Option Française,90000,Belfort,France,fr,open,47.63662965,6.864735068130328,,,,,2016,payant:3952;gratuit:18798;total:22750;label-date:01/02/2003,label:musee de france,,,,
9001002,79763460,Donation Maurice Jardot,8,Rue de Mulhouse,90000,Belfort,France,fr,open,47.6427099,6.8557239777834384,,,,,2016,payant:1007;gratuit:6216;total:7223;label-date:01/02/2003,label:musee de france,,,,
8927901,,Musée des Arts Naïfs et Populaires de Noyers sur Serein,,,,NOYERS-SUR-SEREIN,France,fr,open,,,,,,,2016,payant:1882;gratuit:778;total:2660;label-date:01/02/2003,label:musee de france,,,,
2209301,123094895,Musée Mathurin Meheut,,Rue du Docteur Calmette,22400,Saint-Brieuc,France,fr,open,48.469658,-2.5154268059467917,,,,,2016,payant:6119;gratuit:1072;total:7191;label-date:02/05/2002,label:musee de france,,,,
2901901,730880579,Musée des Beaux-Arts de Brest,24,Rue Traverse,29200,Brest,France,fr,open,48.38506775,-4.4901760751918545,,,,,2016,payant:4660;gratuit:14323;total:18983;label-date:01/02/2003,label:musee de france,,,,
2903901,3986935,Musée de la Pêche,,Rue Militaire,29900,Concarneau,France,fr,open,47.87218475,-3.916013041508858,,,,,2016,payant:18654;gratuit:16301;total:34955;label-date:01/02/2003,label:musee de france,,,,
2915101,2628944132,Musée de Morlaix,,Hameau des Rochers,29410,Le Cloître-Saint-Thégonnec,France,fr,open,48.4797924,-3.7964981,,,,,2016,payant:14283;gratuit:12132;total:26415;label-date:01/02/2003,label:musee de france,,,,
2921701,84081121,Musée de Pont-Aven,,Rue Louis Lomenech,29930,Pont-Aven,France,fr,open,47.8550965,-3.746406090032833,,,,,2016,payant:90363;gratuit:32181;total:122544;label-date:01/02/2003,label:musee de france,,,,
2923201,1162498487,Musée des Beaux-Arts,,Place Saint-Corentin,29000,Quimper,France,fr,open,47.996236,-4.102342,,,,,2016,payant:60916;gratuit:6131;total:67047;label-date:01/02/2003,label:musee de france,,,,
5603401,93998149,Musée de la Préhistoire,10,Place de la Chapelle,56340,Carnac,France,fr,open,47.584818999999996,-3.0782984382775096,https://www.museedecarnac.com,+33 2 97 52 22 04,,,2016,payant:28306;gratuit:6199;total:34505;label-date:01/02/2003,label:musee de france,,Q3330102,M0221,
5622801,,Musée de la Résistance Bretonne,,,,SAINT-MARCEL - MALESTROIT,France,fr,open,,,,,,,2016,payant:11984;gratuit:1662;total:13646;label-date:01/02/2003,label:musee de france,,,,
5626003,,"La Cohue, Musée des Beaux-Arts de vannes",,,,VANNES,France,fr,open,,,,,,,2016,payant:6660;gratuit:112518;total:119178;label-date:01/02/2003,label:musee de france,,,,
1803305,219021603,Musée des tramways à vapeur et des chemins de fer secondaires français,,Rue Leonide Bourges,95430,Butry-sur-Oise,France,fr,open,49.09024075,2.200912995103998,https://musee-mtvs.com/,,,,2016,payant:12290;gratuit:22016;total:34306;label-date:01/02/2003,label:musee de france,,Q3330295,,
1803306,6604772585,Musée des Meilleurs Ouvriers de France,,Place Étienne Dolet,18000,Bourges,France,fr,open,47.0814193,2.3993842,,,,,2016,payant:0;gratuit:19174;total:19174;label-date:01/02/2003,label:musee de france,,,,
1805701,5602450107,Musée Emile Chénon,,Rue de la Victoire,18370,Châteaumeillant,France,fr,open,46.5613145,2.1964279,,,,,2016,payant:1204;gratuit:873;total:2077;label-date:01/02/2003,label:musee de france,,,,
2808503,,Musée des Beaux-Arts,,,,CHARTRES,France,fr,open,,,,,,,2016,payant:3875;gratuit:3712;total:7587;label-date:01/02/2003,label:musee de france,,,,
2808504,255603,Mainvilliers,,,28300,Mainvilliers,France,fr,open,48.4489382,1.4580047,,,,,2016,payant:7083;gratuit:22877;total:29960;label-date:01/02/2003,label:musee de france,,Q1081448,,
3609201,149263965,Musée L,3,Place des Sciences,1348,Ottignies-Louvain-la-Neuve,België / Belgique / Belgien,be,closed,50.6682538,4.620109526811595,http://www.museel.be,+32 10 47 48 41,,info@museel.be,2016,payant:0;gratuit:0;total:;label-date:01/02/2003,label:musee de france,,Q48773771,,
3713202,65229447,Maison Musée René Descartes,29,Rue Descartes,37160,Descartes,France,fr,closed,46.972620899999995,0.6999355493597434,https://museedescartes.wixsite.com/museedescartes,+33 2 47 59 79 19,,,2016,payant:0;gratuit:0;total:;label-date:01/02/2003,label:musee de france;label:monuments-historiques;type:monument-historique,,,M0257,PA00097739
3726101,38576800,Muséum d'Histoire Naturelle,3,Rue du Président Merville,37000,Tours,France,fr,open,47.39461145,0.6836901302839116,,,,,2016,payant:7999;gratuit:21310;total:29309;label-date:01/02/2003,label:musee de france,,,,
4113601,86513731,Musée de la villa Montebello,,Rue du Général Leclerc,14360,Trouville-sur-Mer,France,fr,open,49.3713839,0.08430517462516637,https://www.trouville.fr/MuseeVillaMontebello/,+33 2 31 88 51 33,,,2016,payant:0;gratuit:3188;total:3188;label-date:01/02/2003,label:musee de france;label:monuments-historiques;type:monument-historique,,Q3329757,M0671,PA00111769
4520301,,Musée Gaston Couté,,,,MEUNG-SUR-LOIRE,France,fr,open,,,,,,,2016,payant:0;gratuit:2136;total:2136;label-date:01/02/2003,label:musee de france,,,,
4520801,95074878,Musée Girodet,2,Rue du Faubourg de la Chaussée,45200,Montargis,France,fr,closed,47.997254999999996,2.7365194242424016,http://www.musee-girodet.fr,+33 2 38 98 07 81,,,2016,payant:0;gratuit:0;total:;label-date:27/12/2002,label:musee de france,,Q3329176,M0284,
4523402,367781410,French Cable Station Museum,41,South Orleans Road,02653,Orleans,United States,us,open,41.7878404,-69.987513,,,,,2016,payant:1371;gratuit:10058;total:11429;label-date:01/02/2003,label:musee de france,,Q5501700,,
2B00901,,Musée d'archéologie d'Aleria - Jérôme Carcopino,,,,ALERIA,France,fr,open,,,,,,,2016,payant:30167;gratuit:1609;total:31776;label-date:01/02/2003,label:musee de france,,,,
0810501,91146071,Musée Arthur Rimbaud,,Passerelle du Mont Olympe,08000,Charleville-Mézières,France,fr,open,49.775734650000004,4.7220587026654695,,,,,2016,payant:7873;gratuit:10951;total:18824;label-date:01/02/2003,label:musee de france,,,,
0836201,115500287,Musée Guerre et Paix en Ardennes,,Impasse du Musée,08270,Novion-Porcien,France,fr,closed,49.6002819,4.415982189901115,http://www.novion-porcien.com/Wiki!Musee_Guerre_Paix,,,,2016,payant:0;gratuit:0;total:;label-date:01/02/2003,label:musee de france,,Q3329185,,
1038705,,Maison de l'Outil  et de la Pensée Ouvrière,,,,TROYES,France,fr,open,,,,,,,2016,payant:12205;gratuit:5169;total:17374;label-date:01/02/2003,label:musee de france,,,,
1038704,,Musée des Beaux-Arts (Musée Pic Saint-Loup),,,,TROYES,France,fr,open,,,,,,,2016,payant:5803;gratuit:22674;total:28477;label-date:01/02/2003,label:musee de france,,,,
1038706,73124719,Musée d'Art Moderne,,Rue de la Crosse,10000,Troyes,France,fr,open,48.29995,4.082291342005172,,,,,2016,payant:10276;gratuit:21176;total:31452;label-date:01/02/2003,label:musee de france,,,,
6706101,2399054638,Musée du Pays de Hanau - Histoire et Vies d’un Territoire,,Rue du Canal,67330,Bouxwiller,France,fr,open,48.8249535,7.4835103,,,,,2016,payant:2124;gratuit:4065;total:6189;label-date:01/02/2003,label:musee de france,,,,
6732401,,Maison de l'Archéologie des Vosges du Nord,,,,NIEDERBRONN-LES-BAINS,France,fr,open,,,,,,,2016,payant:2008;gratuit:1037;total:3045;label-date:01/02/2003,label:musee de france,,,,
6743701,1801327289,Musée du Château des Rohan,,Place du Général de Gaulle,67700,Saverne,France,fr,open,48.7418466,7.3639083,,,,,2016,payant:3501;gratuit:3963;total:7464;label-date:01/02/2003,label:musee de france,,,,
6800401,5144762817,Musee de Sapeur-Pompier d'Alsace,38,Rue de Luppach,68480,Vieux-Ferrette,France,fr,open,47.5040397,7.3041592,http://www.musee-sapeur-pompier.fr,+33 6 11 68 75 13,,info@sundgau-sudalsace.fr,2016,payant:562;gratuit:1615;total:2177;label-date:01/02/2003,label:musee de france,,,M0038,
6806602,47577843,Musée d'Histoire Naturelle et d'Ethnographie de Colmar,,Cour,68000,Colmar,France,fr,open,48.07362435,7.358821938150863,,,,,2016,payant:7789;gratuit:5110;total:12899;label-date:01/02/2003,label:musee de france,,,,
6816201,,Musée d'Histoire Local,,,,KAYSERSBERG,France,fr,open,,,,,,,2016,payant:0;gratuit:3122;total:3122;label-date:01/02/2003,label:musee de france,,,,
6822402,45841480,Musée de l'Impression sur Etoffes,,Rue des Bonnes Gens,68100,Mulhouse,France,fr,open,47.7447923,7.344778561009134,,,,,2016,payant:18473;gratuit:13718;total:32191;label-date:01/02/2003,label:musee de france,,,,
6822405,4551159534,Cité du Train,,Rue Alfred de Glehn,68200,Mulhouse,France,fr,open,47.7500026,7.2938678,,,,,2016,payant:64390;gratuit:18062;total:82452;label-date:18/11/2002,label:musee de france,,,,
6824801,,Maison du Sundgau - Musée Paysan,,,,OLTINGUE,France,fr,open,,,,,,,2016,payant:962;gratuit:308;total:1270;label-date:01/02/2003,label:musee de france,,,,
6834301,261857352,Ecomusée d'Alsace,,Chemin des Remparts,68190,Ungersheim,France,fr,open,47.85306625,7.2871333354354615,,,,,2016,payant:176974;gratuit:17391;total:194365;label-date:01/02/2003,label:musee de france,,,,
5123001,183978059,Musée de l'Ours des Cavernes,,D 45,73670,Entremont-le-Vieux,France,fr,closed,45.451615000000004,5.882174889178614,,,,,2016,payant:0;gratuit:0;total:;label-date:01/02/2003,label:musee de france,,,,
5145407,90739087,Musé Automobile Reims Champagne,,Rue Pepersack,51100,Reims,France,fr,open,49.2501522,4.0502149537009995,,,,,2016,payant:24639;gratuit:18563;total:43202;label-date:01/02/2003,label:musee de france,,Q15971985,,
5439504,,Palais des ducs de Lorraine - Musée Historique Lorrain,,,,NANCY,France,fr,open,,,,,,,2016,payant:16585;gratuit:44507;total:61092;label-date:01/02/2003,label:musee de france,,,,
5554501,1369481,Musée de la Princerie,,Impasse de la Magdeleine,55100,Verdun,France,fr,open,49.161075,5.382631625025933,,,,,2016,payant:1845;gratuit:3116;total:4961;label-date:01/02/2003,label:musee de france,,,,
5744801,253993536,Musée Départemental du Sel,,D 38A,57630,Marsal,France,fr,closed,48.788486,6.6057743,,,,,2016,payant:0;gratuit:0;total:;label-date:01/02/2003,label:musee de france,,,,
5746303,2548561598,Centre,,Rue de Metz,68100,Mulhouse,France,fr,open,47.7492151,7.3421852,,,,,2016,payant:148792;gratuit:151797;total:300589,label:musee de france,,,,
5730601,743473900,Musée des Mines de fer de Lorraine,,Rue du Musée,57700,Neufchef,France,fr,open,49.325366,6.0281510102739695,,,,,2016,payant:16237;gratuit:1884;total:18121;label-date:01/02/2003,label:musee de france,,,,
5763102,,Moulin de la Blies - Musée des Techniques Faïencières,,,,SARREGUEMINES,France,fr,open,,,,,,,2016,payant:11615;gratuit:12090;total:23705;label-date:01/02/2003,label:musee de france,,,,
8838302,2582715284,Musée Charles Friry,12,Rue du Général Humbert,88200,Remiremont,France,fr,open,48.0151071,6.5897788,,,,,2016,payant:397;gratuit:2077;total:2474;label-date:11/08/2002,label:musee de france,,,,
9730201,1024331366,Musée départemental Alexandre Franconie,1,Avenue du Général de Gaulle,97300,Cayenne,France,fr,open,4.9382912,-52.3344262,,+594 594 29 59 13,,,2016,payant:594;gratuit:9284;total:9878;label-date:01/02/2003,label:musee de france,,Q15260096,M1063,
9730901,9598387,Musée des Cultures Guyanaises,54,Rue Madame Payé,97300,Cayenne,France,fr,open,4.9412531,-52.32960007270078,,,,,2016,payant:1440;gratuit:6662;total:8102;label-date:01/02/2003,label:musee de france,,,,
0230401,4200402074,Musée Jeanne d'Abboville,,Rue du Général de Gaulle,02800,La Fère,France,fr,open,49.6618629,3.3677694,,,,,2016,payant:342;gratuit:1348;total:1690;label-date:01/02/2003,label:musee de france,,,,
0269101,447567433,Musée Antoine Lécuyer,,Rue Antoine Lécuyer,02100,Saint-Quentin,France,fr,open,49.8499358,3.2849588,,,,,2016,payant:0;gratuit:22896;total:22896;label-date:01/02/2003,label:musee de france,,Q2854179,,
0269102,,Musée des Beaux-Arts Antoine Lecuyer,,,,SAINT-QUENTIN,France,fr,closed,,,,,,,2016,payant:0;gratuit:0;total:;label-date:01/02/2003,label:musee de france,,,,
5905301,54367331,Forum Antique de Bavay,,Sentier Promenade du Rempart,59570,Bavay,France,fr,open,50.29911105,3.79156153828687,,,,,2016,payant:23659;gratuit:6694;total:30353;label-date:01/02/2003,label:musee de france,,,,
5912202,626582331,Musée des Beaux-Arts,,Rue des Incas,59300,Valenciennes,France,fr,closed,50.3575723,3.5306353,https://valenciennesmusee.valenciennes.fr/,+33 3 27 22 57 20,,,2016,payant:0;gratuit:0;total:;label-date:01/02/2003,label:musee de france,,,M0638,
5913901,,Musée des Dentelles et Broderies,,,,CAUDRY,France,fr,open,,,,,,,2016,payant:7353;gratuit:4708;total:12061;label-date:31/03/2016,label:musee de france,,,,
5917801,83720907,Musée de la Chartreuse,,Rue des Chartreux,59500,Douai,France,fr,open,50.3746382,3.075940072347347,,,,,2016,payant:2203;gratuit:30451;total:32654;label-date:01/02/2003,label:musee de france,,,,
5935002,152835085,Palais des Beaux-Arts de Lille,,Place de la République,59000,Lille,France,fr,open,50.630458149999995,3.0628110944444478,,,,,2016,payant:109940;gratuit:141750;total:251690;label-date:06/01/2002,label:musee de france,,,,
5939201,,Musée Henri Boez,,,,MAUBEUGE,France,fr,closed,,,,,,,2016,payant:0;gratuit:0;total:;label-date:01/02/2003,label:musee de france,,,,
5955501,72886174,Ancien musée du verre,1,Rue du Général de Gaulle,59216,Sars-Poteries,France,fr,open,50.1641293,4.0237244496073945,,,,,2016,payant:3260;gratuit:43743;total:47003;label-date:01/02/2003,label:musee de france,,,,
6002901,7846097625,Auneuil – Musée,,Avenue du Maréchal Foch,60390,Auneuil,France,fr,closed,49.3719838,1.9903065,,,,,2016,payant:0;gratuit:0;total:;label-date:01/02/2003,label:musee de france,,,,
6015903,105680987,Musée d'art et d'histoire Antoine Vivenel,,Rue de la Baguette,60200,Compiègne,France,fr,open,49.417504449999996,2.8211998626844323,,,,,2016,payant:0;gratuit:0;total:;label-date:06/01/2002,label:musee de france,,Q3329058,,
6015904,105680987,Musée Antoine Vivenel,,Rue de la Baguette,60200,Compiègne,France,fr,open,49.417504449999996,2.8211998626844323,,,,,2016,payant:2079;gratuit:12095;total:14174;label-date:01/02/2003,label:musee de france,,,,
6017601,,Musée de l'Archerie et de l'Art Sacré,,,,CREPY-EN-VALOIS,France,fr,open,,,,,,,2016,payant:3226;gratuit:3882;total:7108;label-date:01/02/2003,label:musee de france,,,,
6039501,147861398,Musée de la Nacre et de la Tabletterie,51,Rue Roger Salengro,60110,Méru,France,fr,open,49.2384518,2.138434984239656,,,,,2016,payant:13669;gratuit:4437;total:18106;label-date:18/04/2008,label:musee de france,,,,
6047103,476735511,Musée Jean Calvin,,Rue du Porcelet,60400,Noyon,France,fr,open,49.5817505,2.9984424,,,,,2016,payant:1929;gratuit:647;total:2576;label-date:01/02/2003,label:musee de france,,,,
6061202,142255492,Musée d'Art et d'Archéologie,,Place Notre-Dame,60300,Senlis,France,fr,open,49.2064225,2.5866285006288354,,,,,2016,payant:4375;gratuit:8648;total:13023;label-date:01/02/2003,label:musee de france,,,,
6211901,8264025342,Musée de la Mine,457,Cours Promenade Kennedy,62700,Bruay-la-Buissière,France,fr,open,50.4787367,2.5372076,,,,,2016,payant:0;gratuit:3999;total:3999;label-date:01/02/2003,label:musee de france,,,,
6277301,,Musée Jean-Charles Cazin,,,,SAMER,France,fr,open,,,,,,,2016,payant:0;gratuit:652;total:652;label-date:01/02/2003,label:musee de france,,,,
8000101,638296084,Musée Boucher-de-Perthes,,Rue Gontier Patin,80100,Abbeville,France,fr,open,50.1071737,1.8333893,,,,,2016,payant:1578;gratuit:10436;total:12014;label-date:01/02/2003,label:musee de france,,,,
8002102,3057397279,Musée de l'Hôtel de Berny,36,Rue Victor Hugo,80000,Amiens,France,fr,closed,49.8927739,2.3029603,,,,,2016,payant:0;gratuit:0;total:;label-date:01/02/2003,label:musee de france,,,,
8062001,193012404,Historial de la Grande Guerre,,Rue de la Résistance,80200,Péronne,France,fr,open,49.929138,2.9306000138110875,,,,,2016,payant:0;gratuit:3903;total:3903;label-date:01/02/2003,label:musee de france,,Q1620783,,
9202602,82241201,Musée Roybet Fould,178,Boulevard Saint-Denis,92400,Courbevoie,France,fr,closed,48.90043675,2.2718533501517357,,+33 1 71 05 77 92,,,2016,payant:0;gratuit:0;total:;label-date:06/01/2002,label:musee de france;label:monuments-historiques;type:monument-historique,,Q22924332,,PA00088106
9204802,,Musée - Atelier Rodin (Annexe du musée de Paris),,,,MEUDON,France,fr,open,,,,,,,2016,payant:5674;gratuit:7328;total:13002;label-date:06/01/2002,label:musee de france,,,,
9206401,,Musée des Avelines - Musée d'Art et d'Histoire,,,,SAINT-CLOUD,France,fr,open,,,,,,,2016,payant:1225;gratuit:19386;total:20611;label-date:01/02/2003,label:musee de france,,,,
7510107,,Musée de la Mode et du Textile (Union Centrale des Arts Décoratifs),,,,PARIS,France,fr,open,,,,,,,2016,payant:0;gratuit:0;total:;label-date:06/01/2002,label:musee de france,,,,
7510801,,Musée Nissim de Camondo (Union Centrale des Arts Décoratifs),,,,PARIS,France,fr,open,,,,,,,2016,payant:31235;gratuit:13876;total:45111;label-date:06/01/2002,label:musee de france,,,,
7511605,247618453,Musée des Arts et Métiers,,Rue Réaumur,75003,Paris,France,fr,closed,48.8660977,2.3554138,http://www.arts-et-metiers.net,+33 1 53 01 82 20,+33 1 53 01 82 01,,2016,payant:0;gratuit:0;total:;label-date:06/01/2002,label:musee de france,,Q1538826,M5065,
7510106,7515426,Musée du Louvre,,Rue Croix des Petits Champs,75001,Paris,France,fr,open,48.8611473,2.33802768704666,,,,,2016,payant:4557028;gratuit:2481376;total:7038404;label-date:06/01/2002,label:musee de france,,,,
7510508,7444,Paris,,,,Paris,France,fr,open,48.8566969,2.3514616,http://www.paris.fr,,,,2016,payant:113003;gratuit:172357;total:285360;label-date:06/01/2002,label:musee de france,,Q90,,
7510512,7444,Paris,,,,Paris,France,fr,closed,48.8566969,2.3514616,http://www.paris.fr,,,,2016,payant:0;gratuit:0;total:;label-date:06/01/2002,label:musee de france,,Q90,,
7511609,4580960201,Musée du Parfum Fragonard,,Impasse Sandrié,75009,Paris,France,fr,open,48.8718005,2.3292337,https://fragonard.com,+33140061009,,,2016,payant:177994;gratuit:106154;total:284148;label-date:06/01/2002,label:musee de france,,Q4820646,,
7511502,1212876,Musée Bourdelle,16,Rue Antoine Bourdelle,75015,Paris,France,fr,open,48.843215,2.318663236817872,,,,,2016,payant:2720;gratuit:36657;total:39377;label-date:08/07/2004,label:musee de france,,,,
7511601,80848762,Musée d'Ennery,,Avenue Foch,75116,Paris,France,fr,open,48.8714924,2.2814348372921613,,,,,2016,payant:0;gratuit:777;total:777;label-date:06/01/2002,label:musee de france,,,,
7511603,,Etablissement Public du Musée des Arts Asiatiques Guimet,,,,PARIS,France,fr,open,,,,,,,2016,payant:156169;gratuit:119065;total:275234;label-date:06/01/2002,label:musee de france,,,,
7511606,5918699678,Le Musée,,Rue Joliot-Curie,91190,Le Moulon,France,fr,open,48.7094092,2.1666145,,,,,2016,payant:80096;gratuit:74906;total:155002;label-date:09/07/2004,label:musee de france,,,,
7511617,1191057,Palais Galliera - Musée de la Mode de la ville de Paris,10,Avenue Pierre 1er de Serbie,75116,Paris,France,fr,open,48.8657028,2.2965064253978102,,,,,2016,payant:107948;gratuit:46313;total:154261;label-date:08/07/2004,label:musee de france,,,,
7511504,993828548,L'Adresse Musée de la Poste,,Boulevard de Vaugirard,75015,Paris,France,fr,open,48.8414574,2.3172246,,,,,2016,payant:12745;gratuit:27182;total:39927;label-date:06/01/2002,label:musee de france,,,,
7713201,373767052,Maison Natale de Louis Braille,,Rue Louis Braille,77700,Coupvray,France,fr,open,48.894502700000004,2.792033637344032,,,,,2016,payant:4406;gratuit:1417;total:5823;label-date:01/02/2003,label:musee de france,,,,
7740501,,Musée des Pays de Seine-et-Marne,,,,SAINT-CYR-SUR-MORIN,France,fr,open,,,,,,,2016,payant:3858;gratuit:5860;total:9718;label-date:01/02/2003,label:musee de france,,,,
9304801,4247776290,Musée de l'Histoire Vivante,31,Boulevard Théophile Sueur,93100,Bobigny,France,fr,open,48.8660128,2.4718198,,,,,2016,payant:978;gratuit:4954;total:5932;label-date:01/02/2003,label:musee de france,,,,
9401501,7127961384,Musée Adrien Mentienne,,Rue Jules Benoît,94360,Bry-sur-Marne,France,fr,open,48.8359758,2.5206622,,,,,2016,payant:0;gratuit:889;total:889;label-date:01/02/2003,label:musee de france,,,,
9531301,2584777625,Musée d'Art et d'Histoire Louis Senlecq,,Grande Rue,95290,L'Isle-Adam,France,fr,open,49.1125448,2.2159284,,,,,2016,payant:819;gratuit:4222;total:5041;label-date:01/02/2003,label:musee de france,,,,
7835001,111722627,Musée du Domaine royal de Marly,1,Route de la Grille Royale,78160,Marly-le-Roi,France,fr,open,48.85892685,2.1055024916555407,https://musee-domaine-marly.fr/,+33139690626,+33130820995,,2016,payant:6931;gratuit:2365;total:9296;label-date:01/02/2003,label:musee de france,,,,
7851702,130921984,Musée Rambolitrain,,Avenue du Maréchal Foch,78120,Rambouillet,France,fr,open,48.6460441,1.8241725980003551,,,,,2016,payant:16327;gratuit:2265;total:18592;label-date:01/02/2003,label:musee de france,,,,
7855102,,Musée Municipal - Collections Paul et André Véra,,,,SAINT-GERMAIN-EN-LAYE,France,fr,open,,,,,,,2016,payant:0;gratuit:2816;total:2816;label-date:01/02/2003,label:musee de france,,,,
9741301,,Muséum Agricole et Industriel Stella Matutina,,,,PITON-SAINT-LEU,France,fr,open,,,,,,,2016,payant:88481;gratuit:46615;total:135096;label-date:01/02/2003,label:musee de france,,,,
9741401,2338401230,Musée des Arts Décoratifs de l’Océan indien (MADOI),,Chemin Maison Rouge,97450,Plateau Goyaves,France,fr,open,-21.266983,55.4113864,,,,,2016,payant:8155;gratuit:1118;total:9273;label-date:01/02/2003,label:musee de france,,,,
9720902,4807601528,Musée Régional d'Histoire et d'Éthnographie,10,Boulevard Général de Gaulle,97200,Fort-de-France,France,fr,open,14.6063988,-61.0657667,,,,,2016,payant:1799;gratuit:3542;total:5341;label-date:01/02/2003,label:musee de france,,Q15818376,M1066,
9722001,1149383903,Ecomusée de la Martinique,,N 5,97211,Rivière-Pilote,France,fr,open,14.460341,-60.9094743,,,,,2016,payant:5043;gratuit:5427;total:10470;label-date:01/02/2003,label:musee de france,,,,
1437001,8193839563,Musée de la Mine,,Rue de la Fosse Frandemiche,14330,Le Molay-Littry,France,fr,open,49.2426092,-0.8788501,,,,,2016,payant:2014;gratuit:731;total:2745;label-date:01/02/2003,label:musee de france,,,,
1451201,7579732101,Musée de l'imprimerie,,Rue des Léopards,14110,Vire,France,fr,open,48.8589438,-0.5682422,,,,,2016,payant:3125;gratuit:1340;total:4465;label-date:01/02/2003,label:musee de france,,,,
2768101,1612275797,Musée Alphonse-Georges Poulain,,Rue du Pont,27200,Vernon,France,fr,open,49.094892,1.4850183,,,,,2016,payant:10301;gratuit:14274;total:24575;label-date:01/02/2003,label:musee de france,,,,
5002501,135528003,Musée Christian Dior,,Rue du Docteur Ollivier,50400,Granville,France,fr,open,48.8429745,-1.592543481481478,,,,,2016,payant:0;gratuit:5487;total:5487;label-date:01/02/2003,label:musee de france,,Q3329113,,
5002901,2420808765,Musée du Poiré,,D 489,50720,Barenton,France,fr,open,48.5876546,-0.8064704,,,,,2016,payant:705;gratuit:3195;total:3900;label-date:01/02/2003,label:musee de france,,,,
5011001,,Musée de l'Abbaye,,,,CERISY-LA-FORET,France,fr,open,,,,,,,2016,payant:4556;gratuit:546;total:5102;label-date:01/02/2003,label:musee de france,,,,
5014701,68664267,Musée Quesnel-Morinière,2,Rue Quesnel-Morinière,50200,Coutances,France,fr,open,49.0472298,-1.4467416238048025,,,,,2016,payant:392;gratuit:7895;total:8287;label-date:01/02/2003,label:musee de france,,,,
5021802,1384094524,Musée d'Art et d'Histoire de Granville,,Rue Cambernon,50400,Granville,France,fr,closed,48.8370798,-1.6026316,,,,,2016,payant:0;gratuit:0;total:;label-date:01/02/2003,label:musee de france,,,,
5052301,2390534012,Ferme-Musée du Cotentin,,Chemin de Beauvais,50480,Sainte-Mère-Église,France,fr,open,49.4148092,-1.3183281,,,,,2016,payant:6749;gratuit:3499;total:10248;label-date:17/02/2014,label:musee de france,,,,
5061501,,Musée Régional du Cidre et du Calvados,,,,VALOGNES,France,fr,open,,,,,,,2016,payant:1187;gratuit:947;total:2134;label-date:01/02/2003,label:musee de france,,,,
6100101,1511784502,Musée des Beaux-Arts et de la Dentelle,,Passage de la Porte de Lancrel,61000,Alençon,France,fr,open,48.4316406,0.0835809,,,,,2016,payant:8852;gratuit:7583;total:16435;label-date:01/02/2003,label:musee de france,,,,
6146401,,Musée Départemental d'Art Sacré,,,,SEES,France,fr,open,,,,,,,2016,payant:453;gratuit:433;total:886;label-date:01/02/2003,label:musee de france,,,,
7635104,630176315,Muséum d'Histoire Naturelle,,Place du Vieux Marché,76600,Le Havre,France,fr,open,49.4877689,0.10907856411138672,,,,,2016,payant:2675;gratuit:40000;total:42675;label-date:01/02/2003,label:musee de france,,,,
7647301,,Ecomusée de la Basse-Seine,,,,NOTRE-DAME-DE-BLIQUETUIT,France,fr,open,,,,,,,2016,payant:26909;gratuit:4381;total:31290;label-date:01/02/2003,label:musee de france,,,,
7654005,64181527,Musée des Beaux-Arts,,Esplanade Marcel Duchamp,76000,Rouen,France,fr,open,49.44473675,1.0945818804156213,,,,,2016,payant:67754;gratuit:110546;total:178300;label-date:06/01/2002,label:musee de france,,,,
7654009,8063434964,Musée-Maison Natale Pierre Corneille,,Rue de la Pie,76000,Rouen,France,fr,open,49.4430989,1.0867988,,,,,2016,payant:0;gratuit:5730;total:5730;label-date:01/02/2003,label:musee de france,,,,
7675801,122011226,Musée des ivoires,8,Place du Maréchal Joffre,76190,Yvetot,France,fr,open,49.6173905,0.7551113568840564,,,,,2016,payant:660;gratuit:327;total:987;label-date:01/02/2003,label:musee de france,,,,
1601503,44840129,Musée de la Bande Dessinée,,Rue des Abras,16000,Saint-Cybard,France,fr,open,45.655498449999996,0.15078206891673795,http://www.citebd.org/,,,,2016,payant:92;gratuit:361;total:453;label-date:01/02/2003,label:musee de france,,,,
1730005,368061866,Musée Protestant,,Siwanoy Trail,10475,New York,United States,us,open,40.8717809,-73.8056401,,,,,2016,payant:1027;gratuit:682;total:1709;label-date:01/02/2003,label:musee de france,,,,
1741501,2400379556,Musée de l'Echevinage,,Place de l'Échevinage,17100,Saintes,France,fr,open,45.7459257,-0.6333715,,,,,2016,payant:859;gratuit:2175;total:3034;label-date:01/02/2003,label:musee de france,,,,
1927201,,Musée du Cloître de Tulle André Mazeyrie,,,,TULLE,France,fr,open,,,,,,,2016,payant:0;gratuit:9868;total:9868;label-date:01/02/2003,label:musee de france,,,,
1927501,1243279,Musée du Pays d'Ussel,,Rue Michelet,19200,Ussel,France,fr,open,45.546807799999996,2.3074353973684123,,,,,2016,payant:477;gratuit:1772;total:2249;label-date:08/08/2002,label:musee de france,,,,
2403701,369318223,Musée du Tabac,,Place du Feu,24100,Bergerac,France,fr,open,44.84971,0.4837602,,,,,2016,payant:3606;gratuit:1187;total:4793;label-date:01/02/2003,label:musee de france,,,,
2415201,4364598320,Musée Paul Reclus,,Rue Paul Reclus,24250,Domme,France,fr,open,44.8028038,1.2138053,,,,,2016,payant:454;gratuit:18403;total:18857;label-date:01/02/2003,label:musee de france,,,,
2429101,,Musée Eugène Le Roy et des Vieux Métiers,,,,MONTIGNAC,France,fr,closed,,,,,,,2016,payant:0;gratuit:0;total:;label-date:01/02/2003,label:musee de france,,,,
2432201,,Musée d'Art et d'Archéologie du Périgord (MAAP),,,,PERIGUEUX,France,fr,open,,,,,,,2016,payant:7085;gratuit:16745;total:23830;label-date:01/02/2003,label:musee de france,,,,
2452002,,Musée de Sarlat et du Périgord Noir,,,,SARLAT-LA-CANEDA,France,fr,closed,,,,,,,2016,payant:0;gratuit:0;total:;label-date:01/02/2003,label:musee de france,,,,
3306303,79979299,Musée des Beaux-Arts,,Rue Dufau,33000,Bordeaux,France,fr,open,44.837340600000005,-0.5806817120198913,,,,,2016,payant:51550;gratuit:57224;total:108774;label-date:06/01/2002,label:musee de france,,,,
3306306,79981701,Musée des Arts Décoratifs et du Design,33,Rue Bouffard,33000,Bordeaux,France,fr,open,44.838875200000004,-0.580228639189566,,,,,2016,payant:15856;gratuit:32407;total:48263;label-date:01/02/2003,label:musee de france,,,,
8704101,,Musée René Baubérot,,,,CHATEAUPONSAC,France,fr,open,,,,,,,2016,payant:1814;gratuit:291;total:2105;label-date:01/02/2003,label:musee de france,,,,
8712601,2861736187,Musée Départemental d'Art Contemporain,,Place du Château,87600,Rochechouart,France,fr,open,45.821447,0.8190893,,,,,2016,payant:7733;gratuit:5711;total:13444;label-date:01/02/2003,label:musee de france,,,,
6444503,6815484814,Musée,,Rue Mathieu Lalanne,64000,Pau,France,fr,open,43.2977315,-0.3645267,,,,,2016,payant:49921;gratuit:43826;total:93747;label-date:06/01/2002,label:musee de france,,,,
8606602,2541482016,Hôtel Sully,,Rue du Vieux Palais,86100,Châtellerault,France,fr,closed,46.8158293,0.5419934,,,,,2016,payant:0;gratuit:0;total:;label-date:01/02/2003,label:musee de france,,,,
8607001,7280016472,Musée des Traditions Populaires et d'Archéologie,,Impasse Saint-Martial,86300,Chauvigny,France,fr,open,46.5705939,0.6481047,,,,,2016,payant:7164;gratuit:2028;total:9192;label-date:01/02/2003,label:musee de france,,,,
8613701,6957982158,Musée Charbonneau-Lassay,,Rue du Martray,86200,Loudun,France,fr,open,47.0100455,0.0757517,,,,,2016,payant:0;gratuit:1020;total:1020;label-date:01/02/2003,label:musee de france,,,,
0926801,2833497965,Musée du Palais des Evêques,,Chemin du Parc,09190,Saint-Lizier,France,fr,open,43.0027248,1.1370459,,,,,2016,payant:8705;gratuit:1459;total:10164;label-date:01/02/2003,label:musee de france,,,,
1107601,321732839,Présidial,,Rampe du Présidial,11400,Castelnaudary,France,fr,open,43.3155934,1.9588475,,,,,2016,payant:546;gratuit:744;total:1290;label-date:01/02/2003,label:musee de france,,,,
1209602,152865476,Musée Joseph Vaylet,,Rue Droite,12500,Espalion,France,fr,open,44.521226,2.7623283513681596,,,,,2016,payant:2452;gratuit:2850;total:5302;label-date:01/02/2003,label:musee de france,,,,
3000702,130822767,Musée du Colombier,,Rue Jean Mayodon,30100,Alès,France,fr,open,44.1284065,4.080311817458588,,,,,2016,payant:733;gratuit:10479;total:11212;label-date:01/02/2003,label:musee de france,,,,
3035001,2363137316,Musée Cévenol,1,Rue des Calquières,30120,Le Vigan,France,fr,open,43.9889631,3.6072627,,,,,2016,payant:1491;gratuit:1721;total:3212;label-date:01/02/2003,label:musee de france,,,,
3018904,39707615,Musée du Vieux Nîmes,,Place Abbé Pierre,,Nîmes,France,fr,open,43.8379184,4.360406598453169,,,,,2016,payant:4463;gratuit:10981;total:15444;label-date:01/02/2003,label:musee de france,,,,
3020202,73758873,Musée Départemental d'Art Sacré du Gard,,Rue Saint-Jacques,30130,Pont-Saint-Esprit,France,fr,open,44.25521465,4.65104364282573,,,,,2016,payant:192;gratuit:9827;total:10019;label-date:01/02/2003,label:musee de france,,,,
3033401,2910313011,Musée George Borias,,Promendade Racine,30700,Uzès,France,fr,open,44.0124548,4.422769,http://uzesmusee.blogspot.fr/,+33 4 66 22 40 23,,,2016,payant:1374;gratuit:972;total:2346;label-date:01/02/2003,label:musee de france,,,,
3035101,908930249,Musée Pierre de Luxembourg,,Rue de la République,30400,Villeneuve-lès-Avignon,France,fr,open,43.9637314,4.7968264,,,,,2016,payant:2306;gratuit:3269;total:5575;label-date:01/02/2003,label:musee de france,,,,
3155503,833971998,Musée Paul Dupuy,,Rue de la Pleau,31000,Toulouse,France,fr,open,43.5969961,1.4469176608344112,,,,,2016,payant:6680;gratuit:13268;total:19948;label-date:01/02/2003,label:musee de france,,,,
3155507,22718219,Musée des Augustins,,Rue Antonin Mercié,31000,Toulouse,France,fr,open,43.6009417,1.4463433320120154,https://www.augustins.org/,+33 5 61 22 21 82,,,2016,payant:0;gratuit:248;total:248;label-date:01/02/2003,label:musee de france;label:monuments-historiques;type:monument-historique,,Q3001664,M0562,PA00094510
6505901,70833199,Musée Saliès,,Place des Thermes,65200,Bagnères-de-Bigorre,France,fr,closed,43.06271375,0.14619557596196836,http://www.ville-bagneresdebigorre.fr/musees,,,,2016,payant:0;gratuit:0;total:;label-date:01/02/2003,label:musee de france;label:monuments-historiques;type:monument-historique,,Q48755371,M0586,PA65000018
6530601,,Musée-château Gaston Phébus,,,,MAUVEZIN,France,fr,open,,,,,,,2016,payant:25230;gratuit:0;total:25230;label-date:01/02/2003,label:musee de france,,,,
6544001,122325318,Musée Massey,,Rue Achille Jubinal,65000,Tarbes,France,fr,open,43.239067000000006,0.07528399186991735,,,,,2016,payant:4971;gratuit:5763;total:10734;label-date:06/10/2002,label:musee de france,,,,
3410801,1964228636,Musée international des Arts modestes,27,Quai du Maréchal de Lattre de Tassigny,34200,Sète,France,fr,closed,43.4060674,3.6961935,https://miam.org/,,,,2016,payant:0;gratuit:0;total:;label-date:01/02/2003,label:musee de france,,Q3330617,,
3411901,425241849,Musée de la Cloche et de la Sonnaille,,Avenue des Treize Vents,34600,Hérépian,France,fr,open,43.59457755,3.112557793850808,,,,,2016,payant:2599;gratuit:1678;total:4277;label-date:01/02/2003,label:musee de france,,,,
3400302,1131132,Musée de l'Ephèbe,,Place du Père Marcel Astruc,34300,Agde,France,fr,open,43.2868906,3.5137320418987343,,,,,2016,payant:8701;gratuit:4483;total:13184;label-date:01/02/2003,label:musee de france,,,,
3415301,,Maison des Consuls - Musée d’Arts et d’Archéologie,,,,LES MATELLES,France,fr,open,,,,,,,2016,payant:2904;gratuit:2360;total:5264;label-date:01/02/2003,label:musee de france,,,,
3414501,742164185,Musée Louis Médard,71,Place des Martyrs de la Résistance,34400,Lunel,France,fr,open,43.67546135,4.134306755355675,,,,,2016,payant:0;gratuit:4939;total:4939;label-date:07/12/2016,label:musee de france,,,,
4604001,,Musée de Préhistoire Amédée Lémozi,,,,CABRERETS,France,fr,open,,,,,,,2016,payant:78800;gratuit:0;total:78800;label-date:01/02/2003,label:musee de france,,,,
4618501,,Musée Gallo-Romain d'Uxellodunum,,,,MARTEL,France,fr,open,,,,,,,2016,payant:295;gratuit:87;total:382;label-date:01/02/2003,label:musee de france,,,,
4629901,,Musée Départemental de Cuzals,,,,SAULIAC-SUR-CELE,France,fr,open,,,,,,,2016,payant:6437;gratuit:3968;total:10405;label-date:01/02/2003,label:musee de france,,,,
4630901,1074571594,Musée de l'Automate,,Place de l'Abbaye,46200,Souillac,France,fr,open,44.8936695,1.4768774,,,,,2016,payant:12335;gratuit:3126;total:15461;label-date:01/02/2003,label:musee de france,,,,
6604902,2004488993,Musée d'Art Moderne,,Boulevard du Maréchal Joffre,66400,Céret,France,fr,open,42.4859058,2.7484863,http://www.musee-ceret.com,+33 4 68 87 27 76,,,2016,payant:50591;gratuit:21301;total:71892;label-date:01/02/2003,label:musee de france,,Q3329642,M0488,
6613605,81599130,Musée Archéologique de Ruscino,,Chemin de Château-Roussillon,66000,Perpignan,France,fr,closed,42.70817275,2.9460336688120714,,,,,2016,payant:0;gratuit:0;total:;label-date:01/02/2003,label:musee de france,,,,
6613601,1227556,Musée d'art Hyacinthe Rigaud,,Rue de l'Ange,66000,Perpignan,France,fr,open,42.6979518,2.8933879010617485,http://www.musee-rigaud.fr/fr,+33 4 68 66 19 83,,,2016,payant:14619;gratuit:14049;total:28668;label-date:01/02/2003,label:musee de france,,Q3329201,M0491,
6620501,188829574,Musée de Tautavel,,Avenue Louis Baixas,66720,Tautavel,France,fr,open,42.815132000000006,2.7501767068631207,,,,,2016,payant:52959;gratuit:11891;total:64850;label-date:01/02/2003,label:musee de france,,,,
8106502,83184155,Musée Jean Jaurès,2,Place Pélisson,81100,Castres,France,fr,open,43.607194,2.240496445775623,,,,,2016,payant:2358;gratuit:4931;total:7289;label-date:06/01/2002,label:musee de france,,,,
8109101,379420307,Musée du Protestantisme de la Réforme à la Laïcité,,D 53,81260,Castres,France,fr,open,43.661023,2.449145648571428,,,,,2016,payant:2011;gratuit:1287;total:3298;label-date:01/02/2003,label:musee de france,,,,
8114001,,Musée du Pays Vaurais,,,,LAVAUR,France,fr,open,,,,,,,2016,payant:1490;gratuit:2731;total:4221;label-date:01/02/2003,label:musee de france,,,,
8212102,127805191,Musée Ingres,,Rue Marie Lafon,82000,Montauban,France,fr,open,44.01688865,1.3514607739557976,,,,,2016,payant:18887;gratuit:24480;total:43367;label-date:06/01/2002,label:musee de france,,,,
4403601,272817005,Musée de la Forge Neuve,,Rue du Grand Conde,44520,Moisdon-la-Rivière,France,fr,closed,47.6048045,-1.3481625114296083,,,,,2016,payant:0;gratuit:0;total:;label-date:01/02/2003,label:musee de france,,,,
8508701,620726971,Centre Minier de Faymoreau,,Rue de la Cour,85240,Faymoreau,France,fr,open,46.55511285,-0.6311954483215672,,,,,2016,payant:14708;gratuit:3869;total:18577;label-date:01/02/2003,label:musee de france,,,,
8515401,,Musée Clemenceau et de Lattre-de-Tassigny,,,,MOUILLERON-EN-PAREDS,France,fr,open,,,,,,,2016,payant:1371;gratuit:2688;total:4059;label-date:06/01/2002,label:musee de france,,,,
8516301,,Musée de la Construction Navale Artisanale,,,,NOIRMOUTIER EN L'ILE,France,fr,closed,,,,,,,2016,payant:0;gratuit:0;total:;label-date:01/02/2003,label:musee de france,,,,
0408801,5921065703,"Salagon, Musée et Jardins",,D 13,04300,Mane,France,fr,open,43.9352027,5.7592489,www.musee-de-salagon.com,+33 4 92 75 70 50,,info-salagon@le04.fr,2016,payant:0;gratuit:1399;total:1399;label-date:01/02/2003,label:musee de france,,Q2400780,,
0415801,88754715,Musée de Préhistoire des Gorges du Verdon,,Route de Montmeyan,04500,Quinson,France,fr,open,43.699704749999995,6.037118344310343,http://www.museeprehistoire.com,+33 4 92 74 09 59,,contact@museeprehistoire.com,2016,payant:58433;gratuit:11552;total:69985;label-date:01/02/2003,label:musee de france,,Q3329743,,
0602902,2824215844,Musée de la Mer,,Allée des Eucalyptus,06407,Cannes,France,fr,open,43.523904,7.0453202,,,,,2016,payant:41654;gratuit:35794;total:77448;label-date:01/02/2003,label:musee de france,,,,
0608304,1837011704,Musée Jean Cocteau Collection Séverin Wunderman,,Quai de Monléon,06500,Menton,France,fr,open,43.7747355,7.5057931,,,,,2016,payant:27314;gratuit:11156;total:38470;label-date:01/02/2003,label:musee de france,,,,
0608802,2264574278,Musée d'Art et d'Histoire,,Fossés de la Citadelle,06230,Villefranche-sur-Mer,France,fr,open,43.701601,7.3106059,,,,,2016,payant:18652;gratuit:31758;total:50410;label-date:01/02/2003,label:musee de france,,,,
0608811,140067117,Musée Marc Chagall,36,Avenue du Docteur Ménard,06000,Nice,France,fr,open,43.709136,7.269527046511632,https://musees-nationaux-alpesmaritimes.fr/chagall/,+33 4 93 53 87 20,+33 4 93 53 87 39,visiteguide-mn06@culture.gouv.fr,2016,payant:92397;gratuit:52906;total:145303;label-date:06/01/2002,label:musee de france,,Q3329265,M5029,
0608812,139931873,Musée Matisse,,Avenue des Arènes de Cimiez,06108,Nice,France,fr,open,43.7194,7.276208509997123,,,,,2016,payant:63981;gratuit:51741;total:115722;label-date:01/02/2003,label:musee de france,,,,
0608810,,Musée Archéologique - Site de Terra Amata,,,,NICE,France,fr,open,,,,,,,2016,payant:1025;gratuit:12394;total:13419;label-date:01/02/2003,label:musee de france,,,,
0615501,88040667,Musée national Picasso « La guerre et la paix »,,Place de la Libération,06220,Vallauris,France,fr,open,43.580016,7.0532145,https://musees-nationaux-alpesmaritimes.fr/picasso,+33 4 93 64 71 83,,,2016,payant:0;gratuit:0;total:;label-date:01/02/2003,label:musee de france,,,M5047,
0615901,1297270381,Musée Volti,,Fossés de la Citadelle,06230,Villefranche-sur-Mer,France,fr,open,43.7017095,7.310623,https://villefranche-sur-mer.fr/volti/,+33 4 93 76 33 27,,,2016,payant:0;gratuit:89493;total:89493;label-date:01/02/2003,label:musee de france,,,M0893,
1300102,88614075,Hôtel d'Estienne de Saint-Jean,,Rue des Bremondis,13626,Aix-en-Provence,France,fr,open,43.530754849999994,5.447239307551794,,+33 4 42 91 89 78,,,2016,payant:0;gratuit:24655;total:24655;label-date:01/02/2003,label:musee de france;label:monuments-historiques;type:monument-historique,,Q3145725,M0898,PA00081031
1300103,34505703,Musée Granet,,Rue Cardinale,13626,Aix-en-Provence,France,fr,open,43.5254678,5.4526102,,,,,2016,payant:3499;gratuit:13869;total:17368;label-date:01/02/2003,label:musee de france,,Q965780,,
