id,osm_id,name,number,street,postal_code,city,country,country_code,status,lat,lon,website,phone,fax,email,year,stats,tags,description,wikidata,museofile,mhs
6738801,,Musée du Fer,,,,REICHSHOFFEN,France,fr,open,,,,,,,2006,payant:797;gratuit:435;total:1232;label-date:01/02/2003,label:musee de france,,,,
6748203,239830896,Musée des Beaux-Arts,,Place du Marché aux Poissons,67065,Strasbourg,France,fr,open,48.5806606,7.7521404,,,,,2006,payant:19560;gratuit:41724;total:61284;label-date:01/02/2003,label:musee de france,,,,
6800401,5144762817,Musee de Sapeur-Pompier d'Alsace,38,Rue de Luppach,68480,Vieux-Ferrette,France,fr,open,47.5040397,7.3041592,http://www.musee-sapeur-pompier.fr,+33 6 11 68 75 13,,info@sundgau-sudalsace.fr,2006,payant:1398;gratuit:10212;total:11610;label-date:01/02/2003,label:musee de france,,,M0038,
6806301,6211249261,Musée de la Porte de Thann,,Rue Haffner,68700,Cernay,France,fr,closed,47.8099726,7.1731847,,,,,2006,payant:0;gratuit:0;total:;label-date:01/02/2003,label:musee de france,,,,
6814901,,Musée Historique et Militaire de Huningue,,,,HUNINGE,France,fr,open,,,,,,,2006,payant:163;gratuit:1753;total:1916;label-date:01/02/2003,label:musee de france,,,,
6822408,2537131567,Musée Historique,,Place de la Réunion,68100,Mulhouse,France,fr,open,47.7465763,7.3392546,,,,,2006,payant:0;gratuit:35018;total:35018;label-date:01/02/2003,label:musee de france,,,,
6822403,449007880,Musée National de l'Automobile - Collection Schlumpf,,Autodrome du Musée de l'Automobile,68100,Mulhouse,France,fr,open,47.7612848,7.327971551196445,,,,,2006,payant:155287;gratuit:31721;total:187008;label-date:01/02/2003,label:musee de france,,,,
6822409,449007880,Cité de l’Automobile,,Autodrome du Musée de l'Automobile,68100,Mulhouse,France,fr,open,47.7612848,7.327971551196445,https://www.citedelautomobile.com/,+33 3 89 33 23 23,,message@collection-schlumpf.com,2006,payant:0;gratuit:130;total:130;label-date:01/02/2003,label:musee de france,,Q867719,,
2431101,,Musée Départemental de la Poupée et du Jouet,,,,NONTRON,France,fr,closed,,,,,,,2006,payant:0;gratuit:0;total:;label-date:01/02/2003,label:musee de france,,,,
2437901,,Musée du Site Médiéval,,,,SAINT-AVIT-SENIEUR,France,fr,open,,,,,,,2006,payant:1169;gratuit:0;total:1169;label-date:01/02/2003,label:musee de france,,,,
2452002,,Musée de Sarlat et du Périgord Noir,,,,SARLAT-LA-CANEDA,France,fr,closed,,,,,,,2006,payant:0;gratuit:0;total:;label-date:01/02/2003,label:musee de france,,,,
3305801,,Musée d'Art et d'Histoire du Pays Blayais,,,,BLAYE,France,fr,closed,,,,,,,2006,payant:0;gratuit:0;total:;label-date:01/02/2003,label:musee de france,,,,
3306310,6912095875,Musée Goupil,,Cours Pasteur,33000,Bordeaux,France,fr,closed,44.8358149,-0.5749304,,,,,2006,payant:0;gratuit:0;total:;label-date:01/02/2003,label:musee de france,,,,
3324302,265021487,Musée Ferroviaire,,Avenue de la Gare,,Guîtres,France,fr,closed,45.038131199999995,-0.19740907772227706,,,,,2006,payant:0;gratuit:0;total:;label-date:01/02/2003,label:musee de france,,,,
4012001,250016053,Abbaye d'Arthous,,Route de l'Abbaye,40300,Hastingues,France,fr,open,43.527247,-1.122068373792949,http://arthous.landes.fr/,+33 5 58 73 03 89,,,2006,payant:4210;gratuit:5840;total:10050;label-date:01/02/2003,label:musee de france;label:monuments-historiques;type:monument-historique,,Q2820503,M0078,PA00083954
4028601,5681725229,Musée de la Faïence,,Route d'Hagetmau,40320,Samadet,France,fr,open,43.6412514,-0.5106808,http://museesamadet.landes.fr,+33 5 58 79 13 00,,,2006,payant:3496;gratuit:3823;total:7319;label-date:01/02/2003,label:musee de france,,Q3330530,M0086,
6406201,4335473543,Musée des Volcans,,Rue du Tennis,64260,Arudy,France,fr,open,43.1016426,-0.4297682,,,,,2006,payant:1079;gratuit:314;total:1393;label-date:01/02/2003,label:musee de france,,,,
6424901,71287357,Musée Saraléguinéa,165,Avenue du Général de Gaulle,64210,Guéthary,France,fr,open,43.4210745,-1.6090083003559483,https://www.musee-de-guethary.fr,+33 5 59 54 86 37,,contact@musee-de-guethary.fr,2006,payant:502;gratuit:1247;total:1749;label-date:01/02/2003,label:musee de france;label:monuments-historiques;type:monument-historique,,Q22975788,,PA00132937
6444503,6815484814,Musée,,Rue Mathieu Lalanne,64000,Pau,France,fr,open,43.2977315,-0.3645267,,,,,2006,payant:62148;gratuit:43823;total:105971;label-date:06/01/2002,label:musee de france,,,,
6444502,62924897,Musée Bernadotte,8,Rue Tran,64000,Pau,France,fr,open,43.2973383,-0.37256092903587607,,,,,2006,payant:3595;gratuit:0;total:3595;label-date:01/02/2003,label:musee de france,,,,
0319001,77184178,Musée Anne de Beaujeu,,Rue des Fausses Braies,03000,Moulins,France,fr,open,46.56717035,3.3300616836759867,,,,,2006,payant:4172;gratuit:4563;total:8735;label-date:01/02/2003,label:musee de france,,,,
0319501,,Musée Rieckotter,,,,NERIS-LES-BAINS,France,fr,open,,,,,,,2006,payant:433;gratuit:170;total:603;label-date:01/02/2003,label:musee de france,,,,
1501401,2085157238,musée du Veinazes,,Rue des Fourmillères,15120,Lacapelle-del-Fraisse,France,fr,open,44.7599649,2.4617902,,,,,2006,payant:4294;gratuit:10272;total:14566;label-date:01/02/2003,label:musee de france,,Q3330396,,
4315701,86361080,Musée Crozatier,2,Rue Antoine Martin,43000,Le Puy-en-Velay,France,fr,open,45.038547949999995,3.8831423625708483,,,,,2006,payant:12094;gratuit:11993;total:24087;label-date:01/02/2003,label:musee de france,,,,
6311301,67015490,Musée d'Art Roger Quilliot,,Place Louis Deteix,63100,Clermont-Ferrand,France,fr,open,45.79392705,3.1162223146769588,https://www.clermontmetropole.eu/bouger-se-divertir/le-dynamisme-culturel/les-musees-de-clermont-auvergne-metropole/marq-musee-dart-roger-quilliot/,+33 4 43 76 25 25,,,2006,payant:3129;gratuit:16843;total:19972;label-date:01/02/2003,label:musee de france,,Q1495869,M0121,
6330003,700609623,Musée Régional d'Auvergne,,Rue Delille,63200,Riom,France,fr,open,45.8949948,3.116100670697047,,,,,2006,payant:2122;gratuit:730;total:2852;label-date:01/02/2003,label:musee de france,,,,
6343001,161471210,Musée Municipal de la Coutellerie,,Rue de la Coutellerie,63300,Thiers,France,fr,open,45.852432,3.54815385,,,,,2006,payant:25003;gratuit:5157;total:30160;label-date:01/02/2003,label:musee de france,,,,
2103801,7419064530,Musée Bonaparte,,Place du Château,21130,Auxonne,France,fr,open,47.1915827,5.3833549,,,,,2006,payant:0;gratuit:3163;total:3163;label-date:01/02/2003,label:musee de france,,,,
2105404,1681385,Hospices de Beaune,,Place des Halles,21200,Beaune,France,fr,closed,47.0221265,4.836843691477009,,+33 3 80 24 56 92,,,2006,payant:0;gratuit:0;total:;label-date:01/02/2003,label:musee de france;label:monuments-historiques;type:monument-historique,,Q1284848,M1206,PA00112112
2126501,480527098,Musée Noisot,,Rue de la Perrière,21220,Fixin,France,fr,open,47.245420300000006,4.9624034254665155,,,,,2006,payant:319;gratuit:455;total:774;label-date:01/02/2003,label:musee de france,,,,
2146401,4737197736,Musée Municipal,,Rue Camille Rodier,21700,Nuits-Saint-Georges,France,fr,open,47.1386701,4.9505695,,,,,2006,payant:1091;gratuit:733;total:1824;label-date:01/02/2003,label:musee de france,,,,
5807901,2627307760,Musée d'Art et d'Histoire Romain Rolland,,Avenue de la République,58500,Clamecy,France,fr,open,47.4603634,3.5204872,,,,,2006,payant:1801;gratuit:3984;total:5785;label-date:01/02/2003,label:musee de france,,,,
5819402,568785642,Le Musée,,Rue Saint-Gildard,58000,Nevers,France,fr,closed,46.9918408,3.152364890153419,http://www.sainte-bernadette-nevers.com/,,,,2006,payant:0;gratuit:0;total:;label-date:01/02/2003,label:musee de france,,,,
5821501,,Musée Ernest Guédon,,,,POUILLY-SUR-LOIRE,France,fr,closed,,,,,,,2006,payant:0;gratuit:0;total:;label-date:01/02/2003,label:musee de france,,,,
5822701,,Musée du Grès de Puisaye,,,,SAINT-AMAND-EN-PUISAYE,France,fr,open,,,,,,,2006,payant:2628;gratuit:50;total:2678;label-date:01/02/2003,label:musee de france,,,,
7101401,7419064532,Musée Verger Tarin,,Rue des Marbres,71400,Autun,France,fr,closed,46.9490737,4.3029239,,,,,2006,payant:0;gratuit:0;total:;label-date:01/02/2003,label:musee de france,,,,
7107602,121572642,Musée Nicéphore Niepce,,Quai des Messageries,71100,Chalon-sur-Saône,France,fr,open,46.7802664,4.8554572593273075,,,,,2006,payant:5258;gratuit:13555;total:18813;label-date:01/02/2003,label:musee de france,,,,
7110602,2239784876,Musée du Prieuré de Charolles,4,Rue du Prieuré,71120,Charolles,France,fr,open,46.4323423,4.2799145,,,,,2006,payant:2228;gratuit:100;total:2328;label-date:01/02/2003,label:musee de france,,,,
7127501,2690539792,Musée de la Tour du Moulin,9,Rue de la Tour du Moulin,71110,Marcigny,France,fr,open,46.274612,4.0431847,,,,,2006,payant:1403;gratuit:255;total:1658;label-date:01/02/2003,label:musee de france,,,,
7127201,6575800688,Musée Départemental du Compagnonnage,,Rue Pierre François Guillon,71570,Romanèche-Thorins,France,fr,open,46.1880514,4.733891,,,,,2006,payant:2367;gratuit:1423;total:3790;label-date:01/02/2003,label:musee de france,,,,
7154302,7419064526,Musée Bourguignon -  Perrin de Puycousin,,Rue de l'Hôpital,71700,Tournus,France,fr,closed,46.562054,4.9109128,,,,,2006,payant:0;gratuit:0;total:;label-date:01/02/2003,label:musee de france,,,,
7156601,1840508168,Maison du Blé et du Pain,,Rue des Jardins,71350,Verdun-sur-le-Doubs,France,fr,open,46.8987867,5.0226253,,,,,2006,payant:3996;gratuit:642;total:4638;label-date:01/02/2003,label:musee de france,,,,
8927901,,Musée des Arts Naïfs et Populaires de Noyers sur Serein,,,,NOYERS-SUR-SEREIN,France,fr,open,,,,,,,2006,payant:1788;gratuit:1060;total:2848;label-date:01/02/2003,label:musee de france,,,,
8946401,5032323201,Musée Villeneuvien,,Rue Carnot,89500,Villeneuve-sur-Yonne,France,fr,open,48.0804462,3.2941602,,,,,2006,payant:0;gratuit:8328;total:8328;label-date:01/02/2003,label:musee de france,,,,
2227801,78123314,Musée d'Art et d'Histoire,,Cour Francis Renaud,22000,Saint-Brieuc,France,fr,open,48.51234775,-2.7619036982498804,,,,,2006,payant:0;gratuit:41811;total:41811;label-date:01/02/2003,label:musee de france,,,,
2903901,3986935,Musée de la Pêche,,Rue Militaire,29900,Concarneau,France,fr,open,47.87218475,-3.916013041508858,,,,,2006,payant:33612;gratuit:2343;total:35955;label-date:01/02/2003,label:musee de france,,,,
2904601,40686013,Le Port-Musée,,Place de l'Enfer,29100,Ploaré,France,fr,open,48.092424,-4.332596723404256,,,,,2006,payant:36163;gratuit:10325;total:46488;label-date:01/02/2003,label:musee de france,,,,
2921701,84081121,Musée de Pont-Aven,,Rue Louis Lomenech,29930,Pont-Aven,France,fr,open,47.8550965,-3.746406090032833,,,,,2006,payant:36609;gratuit:0;total:36609;label-date:01/02/2003,label:musee de france,,,,
2928901,1458523215,Musée de l'Ecole Rurale en Bretagne,,Route Départementale Numéro 60 de Landévennec à Dinéault,29560,Trégarvan,France,fr,open,48.2448847,-4.2263366,,,,,2006,payant:10288;gratuit:1151;total:11439;label-date:01/02/2003,label:musee de france,,,,
3528801,3275333600,Musée International du Long-Cours Cap-Hornier,,Cale Solidor,35400,Saint-Malo,France,fr,open,48.6340431,-2.0260137,,,,,2006,payant:6867;gratuit:3283;total:10150;label-date:01/02/2003,label:musee de france,,,,
5626002,145189774,Musée d'Histoire et d'Archéologie de Vannes,2,Rue Noé,56000,Vannes,France,fr,open,47.6568685,-2.7579838224637703,,,,,2006,payant:2561;gratuit:12594;total:15155;label-date:01/02/2003,label:musee de france,,,,
1803302,64598357,Musée des Arts Décoratifs,,Rue de l'Hôtel Lallemant,18000,Bourges,France,fr,open,47.0850865,2.3983016387544134,,,,,2006,payant:0;gratuit:17442;total:17442;label-date:01/02/2003,label:musee de france,,,,
2808503,,Musée des Beaux-Arts,,,,CHARTRES,France,fr,open,,,,,,,2006,payant:6760;gratuit:9582;total:16342;label-date:01/02/2003,label:musee de france,,,,
2836301,7659392646,Musée Farcot,,Rue de la Porte d'Étampes,28700,Sainville,France,fr,closed,48.4154704,1.8793028,,,,,2006,payant:0;gratuit:0;total:;label-date:01/02/2003,label:musee de france,,,,
3608801,238746663,Musée de l'Hospice Saint-Roch,,Rue de l'Hospice Saint-Roch,36100,Issoudun,France,fr,open,46.944976,1.9942319952380998,,,,,2006,payant:289;gratuit:15610;total:15899;label-date:02/05/2002,label:musee de france,,,,
3604601,,Musée George Sand et de la Vallée Noire,,,,LA CHATRE,France,fr,open,,,,,,,2006,payant:2879;gratuit:1031;total:3910;label-date:01/02/2003,label:musee de france,,,,
3609201,149263965,Musée L,3,Place des Sciences,1348,Ottignies-Louvain-la-Neuve,België / Belgique / Belgien,be,closed,50.6682538,4.620109526811595,http://www.museel.be,+32 10 47 48 41,,info@museel.be,2006,payant:0;gratuit:0;total:;label-date:01/02/2003,label:musee de france,,Q48773771,,
3713201,51827376,Musée Lansyer,1,Rue Lansyer,37600,Loches,France,fr,open,47.1270673,0.9977325383086448,,,,,2006,payant:1759;gratuit:1673;total:3432;label-date:01/02/2003,label:musee de france,,,,
3722601,2180497491,Maison du Souvenir,1,Rue de la Paix,37800,Maillé,France,fr,open,47.0523157,0.5806916,,,,,2006,payant:51;gratuit:0;total:51;label-date:01/02/2003,label:musee de france,,,,
3724801,1935506460,"Musée Rabelais, Maison La Devinière",,Rue de La Devinière,37500,Seuilly,France,fr,open,47.1405133,0.1784807,http://www.monuments-touraine.fr,+33 2 47 95 91 18,,,2006,payant:13155;gratuit:0;total:13155;label-date:30/04/2002,label:musee de france,,Q3329324,M0264,
4523401,367781410,French Cable Station Museum,41,South Orleans Road,02653,Orleans,United States,us,open,41.7878404,-69.987513,,,,,2006,payant:7671;gratuit:57841;total:65512;label-date:06/01/2002,label:musee de france,,Q5501700,,
0810503,1765207774,Musée de l'Ardenne,,Les Arcades,08000,Charleville-Mézières,France,fr,open,49.77272,4.7214458,,,,,2006,payant:4407;gratuit:68942;total:73349;label-date:01/02/2003,label:musee de france,,,,
0819001,5206948616,Musée de Givet,,Petite Place,08600,Givet,France,fr,closed,50.1354162,4.8239007,,,,,2006,payant:0;gratuit:0;total:;label-date:01/02/2003,label:musee de france,,,,
0836201,115500287,Musée Guerre et Paix en Ardennes,,Impasse du Musée,08270,Novion-Porcien,France,fr,closed,49.6002819,4.415982189901115,http://www.novion-porcien.com/Wiki!Musee_Guerre_Paix,,,,2006,payant:0;gratuit:0;total:;label-date:01/02/2003,label:musee de france,,Q3329185,,
1026101,,Musée de la Résistance,,,,MUSSY-SUR-SEINE,France,fr,open,,,,,,,2006,payant:0;gratuit:0;total:;label-date:01/02/2003,label:musee de france,,,,
1038703,73124719,Musée d'Art Moderne (Ancien Évêché),,Rue de la Crosse,10000,Troyes,France,fr,open,48.29995,4.082291342005172,http://www.musees-troyes.com/536-musee-d-art-moderne.htm,+333 25 76 26 80,,musart@ville-troyes.fr,2006,payant:3594;gratuit:3261;total:6855;label-date:01/02/2003,label:musee de france;label:monuments-historiques;type:monument-historique,,Q22915413,,PA00078262
1038704,,Musée des Beaux-Arts (Musée Pic Saint-Loup),,,,TROYES,France,fr,open,,,,,,,2006,payant:3204;gratuit:7134;total:10338;label-date:01/02/2003,label:musee de france,,,,
5226902,489598272,Musée d'Art et d'Histoire Guy Baillet,,Rue de la Coutellerie,52200,Langres,France,fr,open,47.8646223,5.333331557244431,http://www.musees-langres.fr,+33 3 25 86 86 86,,,2006,payant:0;gratuit:12623;total:12623;label-date:01/02/2003,label:musee de france;label:monuments-historiques;type:monument-historique,,Q22985193,M0321,PA00079095
5110801,323588585,Musée Municipal,,Place Godart,51000,Châlons-en-Champagne,France,fr,open,48.9564601,4.3638072,,,,,2006,payant:12428;gratuit:0;total:12428;label-date:01/02/2003,label:musee de france,,,,
5144501,418187,Pourcy,,,51480,Pourcy,France,fr,open,49.1574346,3.9081058,,,,,2006,payant:768;gratuit:0;total:768;label-date:01/02/2003,label:musee de france,,Q679485,,
5145404,1347407,Musée Saint-Rémi,,Rue Simon,51100,Reims,France,fr,open,49.243337,4.040392199495639,,,,,2006,payant:40654;gratuit:0;total:40654;label-date:01/02/2003,label:musee de france,,,,
2A00401,66274796,Musée Fesch,50-52,Rue Cardinal Fesch,20000,Ajaccio,France,fr,open,41.9218958,8.738913555286306,http://www.musee-fesch.com,+33 4 95 26 26 26,,,2006,payant:5527;gratuit:1597;total:7124;label-date:01/02/2003,label:musee de france,,Q2483597,M0324,
2B03301,590087366,Musée Mariana,,,20290,Lucciana,France,fr,closed,42.54204815,9.496920951519154,,,,,2006,payant:0;gratuit:0;total:;label-date:01/02/2003,label:musee de france,,,,
2B09601,6234663071,Musée de la Corse,,Place du Poilu,20250,Corte,France,fr,open,42.3058166,9.1484352,,,,,2006,payant:46027;gratuit:6027;total:52054;label-date:01/02/2003,label:musee de france,,,,
2505601,9493688,Musée des Beaux-Arts et d'Archéologie,,Place de la Révolution,25000,Besançon,France,fr,open,47.2402151,6.023512568897798,,,,,2006,payant:59858;gratuit:25714;total:85572;label-date:06/01/2002,label:musee de france,,,,
3919801,946483217,Musée des Beaux-Arts,,Rue des Arènes,39100,Dole,France,fr,open,47.0896386,5.4891469,,,,,2006,payant:0;gratuit:18976;total:18976;label-date:01/02/2003,label:musee de france,,,,
3950001,151950172,La Grande Saline - Musée du Sel,,Place des Salines,39110,Salins-les-Bains,France,fr,open,46.9376405,5.8761571935790275,http://www.salinesdesalins.com,+33 3 84 73 10 92,,,2006,payant:46042;gratuit:5072;total:51114;label-date:01/02/2003,label:musee de france,,,M0353,
9711701,1965845057,Musée Précolombien Edgar Clerc,,Route de la Plante,97160,Le Moule,France,fr,open,16.3396546,-61.3771244,,,,,2006,payant:0;gratuit:2691;total:2691;label-date:01/02/2003,label:musee de france,,,,
9712003,65839623,Musée l'Herminier,,Rue Sadi Carnot,97110,Pointe-à-Pitre,France,fr,closed,16.238335,-61.537012293084736,,,,,2006,payant:0;gratuit:0;total:;label-date:01/02/2003,label:musee de france,,,,
9712002,,Musée Départemental Victor Schoelcher,,,,POINTE-A-PITRE,France,fr,open,,,,,,,2006,payant:3600;gratuit:455;total:4055;label-date:01/02/2003,label:musee de france,,,,
9730901,9598387,Musée des Cultures Guyanaises,54,Rue Madame Payé,97300,Cayenne,France,fr,open,4.9412531,-52.32960007270078,,,,,2006,payant:0;gratuit:8524;total:8524;label-date:01/02/2003,label:musee de france,,,,
9730201,1024331366,Musée départemental Alexandre Franconie,1,Avenue du Général de Gaulle,97300,Cayenne,France,fr,open,4.9382912,-52.3344262,,+594 594 29 59 13,,,2006,payant:5786;gratuit:0;total:5786;label-date:01/02/2003,label:musee de france,,Q15260096,M1063,
9111401,48359053,Musée Robert Dubois-Corneau,,Rue de la Glacière,91800,Brunoy,France,fr,open,48.7003494,2.5007316063279736,http://www.ville-brunoy.fr/Brunoy.asp?idpage=3503,,,,2006,payant:829;gratuit:3198;total:4027;label-date:01/02/2003,label:musee de france,,Q3329327,,
9120001,2650356282,Château-Musée de Dourdan,,Rue du Marché aux Grains,91410,Dourdan,France,fr,open,48.5298686,2.0111955,,,,,2006,payant:9243;gratuit:6436;total:15679;label-date:01/02/2003,label:musee de france,,,,
9122301,3407370497,Musée Volant Salis,,Chemin du Fourneou,91590,Cerny,France,fr,open,48.4959939,2.343302,http://www.musee-volant-salis.fr/,,,,2006,payant:702;gratuit:6436;total:7138;label-date:01/02/2003,label:musee de france,,,,
9204802,,Musée - Atelier Rodin (Annexe du musée de Paris),,,,MEUDON,France,fr,open,,,,,,,2006,payant:2890;gratuit:3056;total:5946;label-date:06/01/2002,label:musee de france,,,,
7510512,7444,Paris,,,,Paris,France,fr,closed,48.8566969,2.3514616,http://www.paris.fr,,,,2006,payant:0;gratuit:0;total:;label-date:06/01/2002,label:musee de france,,Q90,,
7511618,4828705432,Boutique du Musée de la Poste,,Villa Marie Vassilieff,75015,Paris,France,fr,open,48.8434128,2.320792,museedelaposte.fr,+33 1 53 719849,,,2006,payant:77258;gratuit:32981;total:110239;label-date:06/01/2002,label:musee de france,,Q2445818,,
7510701,130102845,Musée de l'Armée,129,Rue de Grenelle,75007,Paris,France,fr,open,48.8570374,2.3118779,,,,,2006,payant:840731;gratuit:259269;total:1100000;label-date:06/01/2002,label:musee de france,,,,
7510501,56640163,Musée du Moyen Age-Thermes et Hôtel de Cluny,6,Place Paul Painlevé,75005,Paris,France,fr,open,48.85064945,2.3435643010185183,,,,,2006,payant:165910;gratuit:124048;total:289958;label-date:06/01/2002,label:musee de france,,,,
7510307,2405955,Musée Carnavalet-Histoire de Paris,,Rue Payenne,75003,Paris,France,fr,open,48.85732324999999,2.3624733783107805,,,,,2006,payant:291763;gratuit:505358;total:797121;label-date:08/07/2004,label:musee de france,,,,
7510706,895871273,Musée National de la Légion d'Honneur et des Ordres de Chevalerie,,Rue de la Légion d'Honneur,75007,Paris,France,fr,closed,48.8602845,2.3247488,,,,,2006,payant:0;gratuit:0;total:;label-date:06/01/2002,label:musee de france,,,,
7510905,84511123,Musée de la Vie Romantique,16,Rue Chaptal,75009,Paris,France,fr,open,48.88120505,2.333539383011497,,,,,2006,payant:39919;gratuit:31982;total:71901;label-date:08/07/2004,label:musee de france,,,,
7511502,1212876,Musée Bourdelle,16,Rue Antoine Bourdelle,75015,Paris,France,fr,open,48.843215,2.318663236817872,,,,,2006,payant:16782;gratuit:27277;total:44059;label-date:08/07/2004,label:musee de france,,,,
7511801,154679327,Musée de Montmartre,,Rue Cortot,75018,Paris,France,fr,open,48.88824985,2.340677614299779,,,,,2006,payant:42722;gratuit:4108;total:46830;label-date:01/02/2003,label:musee de france,,,,
7511603,,Etablissement Public du Musée des Arts Asiatiques Guimet,,,,PARIS,France,fr,open,,,,,,,2006,payant:170694;gratuit:93239;total:263933;label-date:06/01/2002,label:musee de france,,,,
7510603,64314872,Musée Hébert,,Rue Jean Ferrandi,75006,Paris,France,fr,closed,48.8473306,2.322685935644764,,,,,2006,payant:0;gratuit:0;total:;label-date:06/01/2002,label:musee de france,,,,
7510705,64314872,Etablissement public du musée d'Orsay,,Rue Jean Ferrandi,75006,Paris,France,fr,open,48.8473306,2.322685935644764,,,,,2006,payant:1823952;gratuit:1185251;total:3009203;label-date:06/01/2002,label:musee de france,,,,
7510106,7515426,Musée du Louvre,,Rue Croix des Petits Champs,75001,Paris,France,fr,open,48.8611473,2.33802768704666,,,,,2006,payant:5667000;gratuit:2647000;total:8314000;label-date:06/01/2002,label:musee de france,,,,
7510304,5918699678,Le Musée,,Rue Joliot-Curie,91190,Le Moulon,France,fr,open,48.7094092,2.1666145,,,,,2006,payant:184484;gratuit:0;total:184484;label-date:06/01/2002,label:musee de france,,,,
7510402,5918699678,Le Musée,,Rue Joliot-Curie,91190,Le Moulon,France,fr,open,48.7094092,2.1666145,,,,,2006,payant:2711331;gratuit:0;total:2711331;label-date:06/01/2002,label:musee de france,,,,
7724301,113256131,Musée Gatien Bonnet,,Cour Pierre Herbin,77400,Lagny-sur-Marne,France,fr,open,48.879835,2.707439,,,,,2006,payant:1630;gratuit:3370;total:5000;label-date:01/02/2003,label:musee de france,,,,
9304801,4247776290,Musée de l'Histoire Vivante,31,Boulevard Théophile Sueur,93100,Bobigny,France,fr,open,48.8660128,2.4718198,,,,,2006,payant:3905;gratuit:0;total:3905;label-date:01/02/2003,label:musee de france,,,,
9401701,109523782,Musée de la Résistance Nationale,,Avenue Marx Dormoy,94500,Champigny-sur-Marne,France,fr,open,48.807266999999996,2.5252640000000017,,,,,2006,payant:0;gratuit:0;total:;label-date:01/02/2003,label:musee de france,,,,
9404601,2751882654,Musée Fragonard,,Avenue du Général de Gaulle,94700,Maisons-Alfort,France,fr,open,48.8128139,2.4233528,,,,,2006,payant:4052;gratuit:0;total:4052;label-date:2006-07-05 00:00:00,label:musee de france,,,,
9405201,1788374144,Musée de Nogent-Sur-Marne,36,Boulevard Gallieni,94130,Nogent-sur-Marne,France,fr,open,48.840397,2.4849183,,,,,2006,payant:0;gratuit:5856;total:5856;label-date:01/02/2003,label:musee de france,,,,
9407901,88361814,Musée Emile Jean,31,Rue Louis Lenoir,94350,Villiers-sur-Marne,France,fr,open,48.8266444,2.5427938543330155,,,,,2006,payant:0;gratuit:370;total:370;label-date:01/02/2003,label:musee de france,,,,
9550001,43971811,Musée Tavet Delacour,,Rue Lemercier,95300,Pontoise,France,fr,open,49.051103499999996,2.0996586365287904,,,,,2006,payant:2080;gratuit:3667;total:5747;label-date:01/02/2003,label:musee de france,,,,
9535101,4542685707,Archéa,56,Rue de Paris,95380,Louvres,France,fr,closed,49.041052,2.5072634,http://archea.roissypaysdefrance.fr,+33 1 34 09 01 02,,,2006,payant:0;gratuit:0;total:;label-date:01/02/2003,label:musee de france,,Q2860590,,
7817201,,Musée de la Batellerie et des Voies Navigables,,,,CONFLANS-SAINTE-HONORINE,France,fr,open,,,,,,,2006,payant:10176;gratuit:1670;total:11846;label-date:01/02/2003,label:musee de france,,,,
7832201,413276082,Musée de la Toile de Jouy,54,Rue Charles de Gaulle,78350,Les Loges-en-Josas,France,fr,open,48.76918135,2.1520865703763596,,,,,2006,payant:9850;gratuit:0;total:9850;label-date:01/02/2003,label:musee de france,,,,
7835601,823061902,Musée National de Port Royal des Champs,,Route Forestière de Font Couverte,78114,Trappes,France,fr,open,48.7479939,2.0152509,,,,,2006,payant:7264;gratuit:12311;total:19575;label-date:06/01/2002,label:musee de france,,,,
7836101,1733134564,Musée de l'Hôtel-Dieu,1,Rue Thiers,78200,Mantes-la-Jolie,France,fr,open,48.9901391,1.7194536,,,,,2006,payant:5474;gratuit:1465;total:6939;label-date:01/02/2003,label:musee de france,,,,
7849802,38327851,Villa Savoye,82,Rue de Villiers,78300,Poissy,France,fr,closed,48.924420600000005,2.028297560090527,http://www.villa-savoye.fr,+33 1 39 65 01 06,,,2006,payant:0;gratuit:0;total:;label-date:01/02/2003,label:musee de france;label:monuments-historiques;type:monument-historique,,Q940746,,PA00087573
7855102,1743396701,Musée Claude Debussy,38,Rue au Pain,78100,Saint-Germain-en-Laye,France,fr,closed,48.8968516,2.0926968,,,,,2006,payant:0;gratuit:0;total:;label-date:01/02/2003,label:musee de france,,Q3329114,,
9741102,146937367,Muséum d'Histoire Naturelle,,Rue Poivre,97400,Saint-Denis,France,fr,open,-20.8874571,55.451628083719484,,,,,2006,payant:4720;gratuit:22953;total:27673;label-date:06/01/2002,label:musee de france,,,,
1126202,92058703,Musée Lapidaire,,Rue des Jacobins,11100,Narbonne,France,fr,open,43.1809595,3.004147255208337,,,,,2006,payant:0;gratuit:0;total:;label-date:2002-06-13 00:00:00,label:musee de france;label:monuments-historiques;type:monument-historique,,Q3344678,,PA00102802
3403202,1474240591,Musée du Biterrois,,Rampe du 96e Régiment d'Infanterie,34500,Béziers,France,fr,open,43.3382478,3.2149323,,,,,2006,payant:0;gratuit:0;total:;label-date:01/02/2003,label:musee de france,,,,
3411901,425241849,Musée de la Cloche et de la Sonnaille,,Avenue des Treize Vents,34600,Hérépian,France,fr,closed,43.59457755,3.112557793850808,,,,,2006,payant:0;gratuit:0;total:;label-date:01/02/2003,label:musee de france,,,,
3412901,,Site Archéologique Lattara - Musée Henri Prades de Montpellier Agglomération,,,,LATTES,France,fr,open,,,,,,,2006,payant:3608;gratuit:5477;total:9085;label-date:01/02/2003,label:musee de france,,,,
3414201,5835417743,Musée Fleury,,Rue du Cardinal Fleury,34700,Lodève,France,fr,open,43.7318449,3.31993,,,,,2006,payant:59392;gratuit:12532;total:71924;label-date:01/02/2003,label:musee de france,,,,
3417206,2192962,Agropolis-Muséum,,Avenue Agropolis,34093,Montpellier,France,fr,open,43.6462942,3.8679405365376005,,,,,2006,payant:25000;gratuit:0;total:25000;label-date:01/02/2003,label:musee de france,,,,
6613601,1227556,Musée d'art Hyacinthe Rigaud,,Rue de l'Ange,66000,Perpignan,France,fr,open,42.6979518,2.8933879010617485,http://www.musee-rigaud.fr/fr,+33 4 68 66 19 83,,,2006,payant:6327;gratuit:12351;total:18678;label-date:01/02/2003,label:musee de france,,Q3329201,M0491,
6620501,188829574,Musée de Tautavel,,Avenue Louis Baixas,66720,Tautavel,France,fr,open,42.815132000000006,2.7501767068631207,,,,,2006,payant:73887;gratuit:12344;total:86231;label-date:01/02/2003,label:musee de france,,,,
2309601,6222152324,Musée de l'électrification,,Route de la Cascade,23400,Bourganeuf,France,fr,open,45.9496263,1.7563312,,,,,2006,payant:5521;gratuit:5822;total:11343;label-date:01/02/2003,label:musee de france,,Q3329870,,
8712601,2861736187,Musée Départemental d'Art Contemporain,,Place du Château,87600,Rochechouart,France,fr,open,45.821447,0.8190893,,,,,2006,payant:6556;gratuit:5673;total:12229;label-date:01/02/2003,label:musee de france,,,,
5439504,,Palais des ducs de Lorraine - Musée Historique Lorrain,,,,NANCY,France,fr,open,,,,,,,2006,payant:24983;gratuit:30924;total:55907;label-date:01/02/2003,label:musee de france,,,,
5443101,,"""Musée """"au Fil du Papier""""""",,,,PONT-A-MOUSSON,France,fr,open,,,,,,,2006,payant:2645;gratuit:2800;total:5445;label-date:01/02/2003,label:musee de france,,,,
5512201,1874334984,Musée de la Céramique et de l'Ivoire,,Avenue Carcano,55200,Commercy,France,fr,open,48.7634869,5.589335,,,,,2006,payant:2470;gratuit:779;total:3249;label-date:01/02/2003,label:musee de france,,,,
5546701,6051104311,Musée Départemental Raymond Poincaré,14,Rue du Château,55300,Sampigny,France,fr,open,48.827556,5.5077794,,,,,2006,payant:280;gratuit:1128;total:1408;label-date:01/02/2003,label:musee de france,,,,
5746302,63234063,Musées de la Cour d'Or,,Rue de la Boucherie Saint-George,57045,Metz,France,fr,open,49.1213164,6.1785251006900825,,,,,2006,payant:8135;gratuit:20007;total:28142;label-date:01/02/2003,label:musee de france,,,,
0918101,3127357651,Musée de la Préhistoire,,Place de l'Église,09290,Le Mas-d'Azil,France,fr,open,43.0800307,1.3600366,,,,,2006,payant:10886;gratuit:0;total:10886;label-date:01/02/2003,label:musee de france,,,,
0920701,3241536133,Château de Foix,,Rue du Rocher,09000,Foix,France,fr,open,42.9657002,1.6047597,https://musees-occitanie.fr/musees/chateau-des-comtes-de-foix,+33 5 61 05 10 10,,,2006,payant:26217;gratuit:2317;total:28534;label-date:01/02/2003,label:musee de france;label:monuments-historiques;type:monument-historique,,Q1011806,M0543,PA00093793
0926801,2833497965,Musée du Palais des Evêques,,Chemin du Parc,09190,Saint-Lizier,France,fr,open,43.0027248,1.1370459,,,,,2006,payant:5539;gratuit:1003;total:6542;label-date:01/02/2003,label:musee de france,,,,
1208901,4163135490,Musée Pierre Vetter,,Rue Emma Calvé,12300,Saint-Michel,France,fr,open,44.5542939,2.2583993,,+33 5 65 43 30 08,,museevetter.decazeville@wanadoo.fr,2006,payant:1410;gratuit:2375;total:3785;label-date:01/02/2003,label:musee de france,,,,
1209601,152864630,Musée du Rouergue,,Place Pierre Frontin,12500,Espalion,France,fr,open,44.5211405,2.7606325085458474,http://musees.aveyron.fr,+33 5 65 44 19 91,,,2006,payant:501;gratuit:79;total:580;label-date:01/02/2003,label:musee de france,,,M0547,
1220201,124625026,Musée Fenaille,14,Place Eugène Raynaldy,12000,Rodez,France,fr,open,44.3490972,2.5765922842984468,,,,,2006,payant:8532;gratuit:10358;total:18890;label-date:01/02/2003,label:musee de france,,,,
1220204,228699419,Musée Soulages,,Carrefour de l'Agriculture,12000,Rodez,France,fr,closed,44.35221355,2.5677506427040724,,,,,2006,payant:0;gratuit:0;total:;label-date:2005-12-20 00:00:00,label:musee de france,,,,
1225501,132379474,Musée du charroi rural,,Route de Valence à Salmiech,12120,Salmiech,France,fr,open,44.179696,2.5702957238739876,http://www.musee-charroi-rural-salmiech.fr/,,,,2006,payant:0;gratuit:2000;total:2000;label-date:01/02/2003,label:musee de france,,Q23640611,,
3033401,2910313011,Musée George Borias,,Promendade Racine,30700,Uzès,France,fr,open,44.0124548,4.422769,http://uzesmusee.blogspot.fr/,+33 4 66 22 40 23,,,2006,payant:1129;gratuit:1451;total:2580;label-date:01/02/2003,label:musee de france,,,,
3216001,43270337,Musée Campanaire,,Place de l'Hôtel de Ville,32600,L'Isle-Jourdain,France,fr,open,43.6130002,1.082133198397282,,,,,2006,payant:6714;gratuit:4955;total:11669;label-date:01/02/2003,label:musee de france,,,,
3155501,22718219,Musée des Augustins,,Rue Antonin Mercié,31000,Toulouse,France,fr,open,43.6009417,1.4463433320120154,https://www.augustins.org/,+33 5 61 22 21 82,,,2006,payant:30781;gratuit:82999;total:113780;label-date:01/02/2003,label:musee de france;label:monuments-historiques;type:monument-historique,,Q3001664,M0562,PA00094510
3155503,833971998,Musée Paul Dupuy,,Rue de la Pleau,31000,Toulouse,France,fr,open,43.5969961,1.4469176608344112,,,,,2006,payant:7575;gratuit:7220;total:14795;label-date:01/02/2003,label:musee de france,,,,
3155504,22718219,Musée des Augustins,,Rue Antonin Mercié,31000,Toulouse,France,fr,open,43.6009417,1.4463433320120154,,,,,2006,payant:40747;gratuit:60062;total:100809;label-date:06/01/2002,label:musee de france,,,,
6530601,,Musée-château Gaston Phébus,,,,MAUVEZIN,France,fr,open,,,,,,,2006,payant:29982;gratuit:0;total:29982;label-date:01/02/2003,label:musee de france,,,,
4610201,6407717146,Musée du Vieux Figeac,,Route de Cahors,46330,Orniac,France,fr,open,44.5194917,1.6810841,,,,,2006,payant:786;gratuit:362;total:1148;label-date:01/02/2003,label:musee de france,,,,
4629901,,Musée Départemental de Cuzals,,,,SAULIAC-SUR-CELE,France,fr,open,,,,,,,2006,payant:8609;gratuit:2082;total:10691;label-date:01/02/2003,label:musee de france,,,,
8109901,1794967910,Musée des Beaux-Arts,,Boulevard Foucault,81600,Gaillac,France,fr,open,43.8949812,1.8980683,,,,,2006,payant:3941;gratuit:3225;total:7166;label-date:01/02/2003,label:musee de france,,,,
8114501,,Musée Raymond Lafage,,,,LISLE-SUR-TARN,France,fr,open,,,,,,,2006,payant:487;gratuit:2287;total:2774;label-date:01/02/2003,label:musee de france,,,,
5912202,626582331,Musée des Beaux-Arts,,Rue des Incas,59300,Valenciennes,France,fr,closed,50.3575723,3.5306353,https://valenciennesmusee.valenciennes.fr/,+33 3 27 22 57 20,,,2006,payant:0;gratuit:0;total:;label-date:01/02/2003,label:musee de france,,,M0638,
5913601,75875248,Musée Matisse,,Rue Charles Seydoux,59360,Le Cateau-Cambrésis,France,fr,open,50.10631,3.5407261226588345,http://www.cg59.fr/FrontOffice/UserFiles/File/Musee_Matisse/default.html,+33 3 27 84 64 50,,,2006,payant:23219;gratuit:44541;total:67760;label-date:01/02/2003,label:musee de france,,,M0627,
5934501,,"Musée de la Mine, Centre Historique Minier",,,,LEWARDE,France,fr,open,,,,,,,2006,payant:136879;gratuit:13027;total:149906;label-date:01/02/2003,label:musee de france,,,,
5951201,,Musée des Beaux-Arts,,,,ROUBAIX,France,fr,open,,,,,,,2006,payant:165000;gratuit:0;total:165000;label-date:01/02/2003,label:musee de france,,,,
5952601,2060779461,Musée de la Tour Abbatiale,,Grand'Place,59230,Saint-Amand-les-Eaux,France,fr,open,50.4489646,3.4287208,https://www.saint-amand-les-eaux.fr/musee-de-la-tour-abbatiale,+33 3 27 22 24 55,,,2006,payant:2124;gratuit:3624;total:5748;label-date:01/02/2003,label:musee de france,,,M0635,
5959901,2268074792,Musée du 5 juin 1944 - Message Verlaine,,Avenue de la Marne,59200,Tourcoing,France,fr,open,50.7119447,3.1550369,http://www.museedu5juin1944.asso.fr/,+33 3 20 24 25 00,,,2006,payant:0;gratuit:24282;total:24282;label-date:01/02/2003,label:musee de france,,Q3330321,,
6210801,132178089,Musée Berck-sur-Mer,,Rue de l'Impératrice,62600,Berck,France,fr,open,50.4049725,1.567720001351351,http://www.berck.fr/sortir/musée,,,,2006,payant:3171;gratuit:7612;total:10783;label-date:05/04/2002,label:musee de france,,,,
6211901,8264025342,Musée de la Mine,457,Cours Promenade Kennedy,62700,Bruay-la-Buissière,France,fr,closed,50.4787367,2.5372076,,,,,2006,payant:0;gratuit:0;total:;label-date:01/02/2003,label:musee de france,,,,
1411802,155642549,Musée de Normandie,,Allée du Chat qui Veille,14000,Caen,France,fr,open,49.18563295,-0.3632591181335702,,,,,2006,payant:9954;gratuit:115439;total:125393;label-date:06/01/2002,label:musee de france,,,,
1411803,6041330527,Musée d'Initiation à la Nature,,Rue du Carel,14000,Caen,France,fr,open,49.1801396,-0.3735491,,,,,2006,payant:0;gratuit:5323;total:5323;label-date:01/02/2003,label:musee de france,,,,
1447801,5867247985,Musée Municipal,107,Rue Grande,14290,Orbec,France,fr,open,49.0222179,0.4065429,,,,,2006,payant:750;gratuit:1750;total:2500;label-date:01/02/2003,label:musee de france,,,,
1465401,,Musée des Techniques Fromagères,,,,SAINT-PIERRE-SUR-DIVES,France,fr,open,,,,,,,2006,payant:37;gratuit:78;total:115;label-date:01/02/2003,label:musee de france,,,,
5014701,68664267,Musée Quesnel-Morinière,2,Rue Quesnel-Morinière,50200,Coutances,France,fr,open,49.0472298,-1.4467416238048025,,,,,2006,payant:1143;gratuit:3270;total:4413;label-date:01/02/2003,label:musee de france,,,,
5021801,5864155897,Musée Richard Anacréon,,Rue Notre-Dame,50400,Granville,France,fr,open,48.8385103,-1.6006345,,,,,2006,payant:4431;gratuit:4787;total:9218;label-date:01/02/2003,label:musee de france,,,,
5021803,135528003,Musée Christian Dior,,Rue du Docteur Ollivier,50400,Granville,France,fr,open,48.8429745,-1.592543481481478,,,,,2006,payant:25293;gratuit:0;total:25293;label-date:01/02/2003,label:musee de france,,,,
5050201,3446879240,Musée des Beaux-Arts,,Place du Champ de Mars,50000,Saint-Lô,France,fr,open,49.1170485,-1.0881118,,,,,2006,payant:9367;gratuit:0;total:9367;label-date:01/02/2003,label:musee de france,,,,
5052501,,Musée du Granit,,,,SAINT-MICHEL-DE-MONTJOIE,France,fr,open,,,,,,,2006,payant:2130;gratuit:94;total:2224;label-date:01/02/2003,label:musee de france,,,,
6116901,11561463,"La Ferme d'en Haut, Maison Folie",268,Rue Jules Guesde,59650,Villeneuve-d'Ascq,France,fr,open,50.638618050000005,3.1301791408474804,https://www.villeneuvedascq.fr/ferme_haut.html,+33 3 20 61 01 46,,lafermedenhaut@villeneuvedascq.fr,2006,payant:2393;gratuit:2537;total:4930;label-date:11/11/2002,label:musee de france,,,,
2716501,,Musée du Verre et de la Pierre,,,,CONCHES-EN-OUCHE,France,fr,open,,,,,,,2006,payant:1263;gratuit:2623;total:3886;label-date:01/02/2003,label:musee de france,,,,
2722901,,Musée de l'Ancien Evêché,,,,EVREUX,France,fr,open,,,,,,,2006,payant:9480;gratuit:0;total:9480;label-date:01/02/2003,label:musee de france,,,,
2718301,581537349,Musée des instruments à vent,,D 833,27750,La Couture-Boussey,France,fr,open,48.897542200000004,1.4077339068504382,,,,,2006,payant:2436;gratuit:852;total:3288;label-date:01/02/2003,label:musee de france,,Q3330251,,
7616402,2382698870,Maison des Templiers,,Rue Thomas Bazin,76490,Rouen,France,fr,open,49.5253513,0.7258829,,,,,2006,payant:546;gratuit:434;total:980;label-date:01/02/2003,label:musee de france,,,,
7616401,479793340,Museoseine,,Véloroute du Val de Seine,76490,Rouen,France,fr,open,49.5243684,0.7222076852299901,,,,,2006,payant:3142;gratuit:1146;total:4288;label-date:01/02/2003,label:musee de france,,,,
7625902,,Musée des Arts & de l'Enfance,,,,FECAMP,France,fr,closed,,,,,,,2006,payant:0;gratuit:0;total:;label-date:01/02/2003,label:musee de france,,,,
7649701,69426369,Musée Pierre Corneille,502,Rue Pierre Corneille,76650,Petit-Couronne,France,fr,open,49.38956865,1.0212361735096276,https://museepierrecorneille.fr,+33 2 35 68 13 89,,,2006,payant:1467;gratuit:4643;total:6110;label-date:01/02/2003,label:musee de france,,Q3329311,,
4410901,6742735,Muséum d'Histoire Naturelle de Nantes,12,Rue Voltaire,44000,Nantes,France,fr,open,47.2125868,-1.5647028649250418,,,,,2006,payant:12343;gratuit:39580;total:51923;label-date:06/01/2002,label:musee de france,,,,
4410904,6808838,Musée du Château des Ducs de Bretagne,4,Place Marc Elder,44000,Nantes,France,fr,closed,47.21609735,-1.5499958913608,,,,,2006,payant:0;gratuit:0;total:;label-date:01/02/2003,label:musee de france,,,,
4417501,,Musée du Chaume/Kerhinet - Pard Naturel Régional de Brière,,,,SAINT-LYPHARD,France,fr,open,,,,,,,2006,payant:3005;gratuit:1443;total:4448;label-date:01/02/2003,label:musee de france,,,,
4900703,624532610,Musée Jean Lurcat et de la Tapisserie Contemporaine,,Rue Gay-Lussac,49035,Angers,France,fr,open,47.4780639,-0.5575814,,,,,2006,payant:13267;gratuit:43474;total:56741;label-date:01/02/2003,label:musee de france,,,,
4901801,1455968994,Musée d’art et d’histoire de Baugé,,Rue du Mail,,Baugé,France,fr,open,47.5414021,-0.1018237,,,,,2006,payant:3503;gratuit:1068;total:4571;label-date:01/02/2003,label:musee de france,,,,
4929201,2427017251,Musée de la Vigne et du Vin d'Anjou,,Rue de la Coudraye,49750,Angers,France,fr,open,47.2999784,-0.6335965,,,,,2006,payant:4794;gratuit:1727;total:6521;label-date:17/06/2002,label:musee de france,,,,
5300301,277287315,Musée des Tisserands,,Place Billard de Veaux,53300,Ambrières-les-Vallées,France,fr,open,48.403429,-0.6308390478723407,http://www.ambriereslesvallees.mairie53.fr/musee-des-tisserands,,,,2006,payant:798;gratuit:91;total:889;label-date:01/02/2003,label:musee de france,,,M0761,
5306201,,Musée d'Art et d'Archéologie Hôtel Fouquet,,,,CHATEAU-GONTIER,France,fr,closed,,,,,,,2006,payant:0;gratuit:0;total:;label-date:01/02/2003,label:musee de france,,,,
5309601,,Musée Municipal,,,,ERNEE,France,fr,open,,,,,,,2006,payant:0;gratuit:0;total:;label-date:01/02/2003,label:musee de france,,,,
5312201,8292313,Musée Archéologique Départemental de Jublains,,Rue de la Libération,53160,Jublains,France,fr,open,48.2545411,-0.4975843742117564,,,,,2006,payant:9422;gratuit:23223;total:32645;label-date:18/07/2002,label:musee de france,,,,
7218101,31113389,Musée de Tessé,2,Avenue de Paderborn,72000,Le Mans,France,fr,open,48.01029025,0.20354701794554617,,,,,2006,payant:14485;gratuit:14312;total:28797;label-date:06/01/2002,label:musee de france,,,,
8501201,,Ecomusée du Marais Breton Vendéen,,,,LA BARRE-DE-MONTS,France,fr,open,,,,,,,2006,payant:20794;gratuit:9736;total:30530;label-date:01/02/2003,label:musee de france,,,,
8514601,76083845,Pavillon des Nourrices,,Place de l'Hôtel de Ville,85600,Montaigu,France,fr,open,46.974196,-1.3132451686989501,,,,,2006,payant:0;gratuit:1705;total:1705;label-date:01/02/2003,label:musee de france,,,,
8515401,,Musée Clemenceau et de Lattre-de-Tassigny,,,,MOUILLERON-EN-PAREDS,France,fr,open,,,,,,,2006,payant:1722;gratuit:2140;total:3862;label-date:06/01/2002,label:musee de france,,,,
0268401,,Musée de la Vie Rurale et Forestière,,,,SAINT-MICHEL-EN-THIERACHE,France,fr,open,,,,,,,2006,payant:3187;gratuit:0;total:3187;label-date:01/02/2003,label:musee de france,,,,
0269102,,Musée des Beaux-Arts Antoine Lecuyer,,,,SAINT-QUENTIN,France,fr,open,,,,,,,2006,payant:5670;gratuit:5870;total:11540;label-date:01/02/2003,label:musee de france,,,,
0281001,2306316571,Musée Alexandre Dumas,,Rue Démoustier,02600,Villers-Cotterêts,France,fr,open,49.2530103,3.0896156,,,,,2006,payant:1425;gratuit:0;total:1425;label-date:01/02/2003,label:musee de france,,,,
6047101,2403483347,Musée du Noyonnais,,Rue de l'Évéché,60400,Noyon,France,fr,open,49.5815691,3.0004427,,,,,2006,payant:676;gratuit:2778;total:3454;label-date:01/02/2003,label:musee de france,,,,
6061202,142255492,Musée d'Art et d'Archéologie,,Place Notre-Dame,60300,Senlis,France,fr,open,49.2064225,2.5866285006288354,,,,,2006,payant:3118;gratuit:1336;total:4454;label-date:01/02/2003,label:musee de france,,,,
8025301,53222058,Rue du Musée,,Rue du Musée,80600,Doullens,France,fr,closed,50.1546836,2.3437442,,,,,2006,payant:0;gratuit:0;total:;label-date:01/02/2003,label:musee de france,,,,
1716801,92529363,Musée Régional de Fouras,,Place Vauban,17450,Fouras,France,fr,open,45.986003999999994,-1.0975170518659043,,,,,2006,payant:5968;gratuit:5077;total:11045;label-date:01/02/2003,label:musee de france,,,,
1730002,2403784182,Musée du Nouveau Monde,,Rue Fleuriau,17000,La Rochelle,France,fr,open,46.161682,-1.1515984,,,,,2006,payant:10904;gratuit:0;total:10904;label-date:26/05/2002,label:musee de france,,,,
1721801,,Musée Cappon,,,,MARANS,France,fr,closed,,,,,,,2006,payant:0;gratuit:0;total:;label-date:01/02/2003,label:musee de france,,,,
1729902,90818543,Musée de la Maison de Pierre Loti,141,Rue Pierre Loti,17300,Rochefort,France,fr,open,45.934017499999996,-0.9629422086382118,,,,,2006,payant:26784;gratuit:2902;total:29686;label-date:28/03/2002,label:musee de france,,,,
7920201,7281748506,Musée d'Art et d'Histoire Georges Turpin,1,Rue de la Vau Saint-Jacques,79200,Parthenay,France,fr,open,46.6519796,-0.2493419,,,,,2006,payant:782;gratuit:5601;total:6383;label-date:01/02/2003,label:musee de france,,,,
8606603,,"Musée de la Moto, de l'Automobile et du Vélo",,,,CHATELLERAULT,France,fr,open,,,,,,,2006,payant:10089;gratuit:1734;total:11823;label-date:01/02/2003,label:musee de france,,,,
8613701,6957982158,Musée Charbonneau-Lassay,,Rue du Martray,86200,Loudun,France,fr,open,47.0100455,0.0757517,,,,,2006,payant:192;gratuit:124;total:316;label-date:01/02/2003,label:musee de france,,,,
0407001,570290612,Musée Gassendi,64,Boulevard Gassendi,04000,Digne-les-Bains,France,fr,open,44.09366125,6.238406603731345,,,,,2006,payant:9182;gratuit:0;total:9182;label-date:01/02/2003,label:musee de france,,,,
0602701,63863191,Musée-Château de Cagnes,,Chemin des Collettes,06800,Cagnes-sur-Mer,France,fr,open,43.667673699999995,7.156948252321393,,,,,2006,payant:15927;gratuit:16194;total:32121;label-date:01/02/2003,label:musee de france,,,,
0602901,64917198,Musée de la Castre,,Place de la Castre,,Cannes,France,fr,open,43.5501472,7.010204428560124,,,,,2006,payant:14831;gratuit:11406;total:26237;label-date:01/02/2003,label:musee de france,,,,
0606903,67332908,Musée International de la Parfumerie,,Boulevard du Jeu de Ballon,06130,Grasse,France,fr,closed,43.65805315,6.92185503385852,,,,,2006,payant:0;gratuit:0;total:;label-date:01/02/2003,label:musee de france,,,,
0603001,67152119,Musée Bonnard,,Rue des Prés,06110,Le Cannet,France,fr,closed,43.576493400000004,7.019928487377124,,,,,2006,payant:0;gratuit:0;total:;label-date:2006-12-06 00:00:00,label:musee de france,,,,
0608804,708311359,Musée d'Art Naïf Anatole Jakovsky,,Avenue du Rond-Point,06206,Nice,France,fr,open,43.685953749999996,7.232618735926904,,,,,2006,payant:4331;gratuit:16442;total:20773;label-date:01/02/2003,label:musee de france,,,,
0608809,,Musée du Vieux-Logis de Nice,,,,NICE,France,fr,open,,,,,,,2006,payant:0;gratuit:427;total:427;label-date:01/02/2003,label:musee de france,,,,
0608810,,Musée Archéologique - Site de Terra Amata,,,,NICE,France,fr,open,,,,,,,2006,payant:2459;gratuit:12055;total:14514;label-date:01/02/2003,label:musee de france,,,,
0609801,149921556,Ecomusée du Pays de la Roudoule,,Placette de l'Europe,06260,Puget-Rostang,France,fr,open,43.9741388,6.918903152040816,,,,,2006,payant:954;gratuit:750;total:1704;label-date:01/02/2003,label:musee de france,,,,
1300101,34505703,Musée Granet,,Rue Cardinale,13626,Aix-en-Provence,France,fr,open,43.5254678,5.4526102,,,,,2006,payant:4563;gratuit:9033;total:13596;label-date:01/02/2003,label:musee de france,,Q965780,,
1303801,,Musée Alphonse Daudet,,,,FONTVIEILLE,France,fr,open,,,,,,,2006,payant:35492;gratuit:804;total:36296;label-date:01/02/2003,label:musee de france,,,,
1301103,446697908,Musée des Santons,,Place Louis Jou,13520,Les Baux-de-Provence,France,fr,open,43.74474145,4.794991401666666,,,,,2006,payant:222072;gratuit:23343;total:245415;label-date:01/02/2003,label:musee de france,,Q47486159,,
1301104,,Fondation Louis Jou,,,,LES-BAUX-DE-PROVENCE,France,fr,open,,,,,,,2006,payant:357;gratuit:507;total:864;label-date:01/02/2003,label:musee de france,,,,
1305503,154561855,Musée Borély,,Avenue Clot Bey,13008,Marseille,France,fr,closed,43.2573485,5.381981791666665,,,,,2006,payant:0;gratuit:0;total:;label-date:01/02/2003,label:musee de france,,,,
1320601,69139913,Musée Cantini,,Rue Grignan,13006,Marseille,France,fr,open,43.292207399999995,5.378208413712626,,,,,2006,payant:30005;gratuit:30223;total:60228;label-date:01/02/2003,label:musee de france,,,,
1305601,99114044,Musée Ziem,,Boulevard du 14 Juillet,13500,Martigues,France,fr,open,43.408675849999995,5.054218764027318,,,,,2006,payant:0;gratuit:8226;total:8226;label-date:01/02/2003,label:musee de france,,,,
1309201,,Musée Municipal Paul Lafran,,,,SAINT-CHAMAS,France,fr,open,,,,,,,2006,payant:0;gratuit:2644;total:2644;label-date:01/02/2003,label:musee de france,,,,
1310302,,Musée de Salon et de la Crau,,,,SALON-DE-PROVENCE,France,fr,closed,,,,,,,2006,payant:0;gratuit:0;total:;label-date:01/02/2003,label:musee de france,,,,
8305004,2391557653,Musée de l'Artillerie,,Avenue des Ecoles Militaires,83300,Draguignan,France,fr,open,43.5269481,6.497204,,,,,2006,payant:0;gratuit:18172;total:18172;label-date:2006-07-05 00:00:00,label:musee de france,,,,
8306901,112363959,Musée de la Gendarmerie nationale,1-3,Rue Émile Leclerc,77000,Melun,France,fr,open,48.54554555,2.6529119346368715,http://www.gendarmerie.interieur.gouv.fr/musee/,+33 1 64 14 54 64,,,2006,payant:0;gratuit:48614;total:48614;label-date:01/02/2003,label:musee de france,,Q23057803,,
8311901,179780946,Musée de l'Annonciade,,Place Georges Grammont,83990,Saint-Tropez,France,fr,open,43.271077,6.637054030608436,,,,,2006,payant:35802;gratuit:6839;total:42641;label-date:01/02/2003,label:musee de france,,,,
8313701,3812465952,Muséum,,Avenue Louis Blériot,83200,Toulon,France,fr,open,43.1410822,5.910288,,,,,2006,payant:0;gratuit:29159;total:29159;label-date:01/02/2003,label:musee de france,,,,
8313703,2196651226,Musée d'Art,113,Boulevard Général Leclerc,83000,Toulon,France,fr,open,43.1263031,5.9272107,https://toulon.fr/envie-bouger/article/musee-d-art-de-toulon-mat,+33 4 94 36 81 01,,,2006,payant:0;gratuit:19726;total:19726;label-date:01/02/2003,label:musee de france,,Q3329600,M0943,
8400701,83784740,Musee Lapidaire,27,Rue de la République,84000,Avignon,France,fr,open,43.9458915,4.806026218689352,https://www.musee-lapidaire.org/,+33 4 90 14 62 45,,musee.calvet@mairie-avignon.com,2006,payant:0;gratuit:14011;total:14011;label-date:06/01/2002,label:musee de france,,Q15952870,,
8408701,219528069,Musée Municipal,,Rue Madeleine Roch,84100,Orange,France,fr,open,44.136139400000005,4.807732098364788,,,,,2006,payant:48004;gratuit:0;total:48004;label-date:01/02/2003,label:musee de france,,,,
0130501,6575792682,Musée Chintreuil,,Rue Borjon,01190,Pont-de-Vaux,France,fr,open,46.4303185,4.9377644,,,,,2006,payant:6093;gratuit:505;total:6598;label-date:01/02/2003,label:musee de france,,,,
2621801,,Musée d'Art Sacré,,,,MOURS SAINT-EUSEBE,France,fr,open,,,,,,,2006,payant:502;gratuit:1300;total:1802;label-date:01/02/2003,label:musee de france,,,,
2636401,,Musée du site Préhistorique,,,,VASSIEUX-EN-VERCORS,France,fr,open,,,,,,,2006,payant:15548;gratuit:0;total:15548;label-date:01/02/2003,label:musee de france,,,,
7401001,4891589833,Musée-château d'Annecy,,Rampe du Château,74000,Annecy,France,fr,open,45.8976583,6.1260527,,,,,2006,payant:42274;gratuit:46176;total:88450;label-date:01/02/2003,label:musee de france,,,,
3851601,192104327,Musée Hébert,,Musée Hébert,38700,La Tronche,France,fr,open,45.2057094,5.7489167,,,,,2006,payant:0;gratuit:16450;total:16450;label-date:01/02/2003,label:musee de france,,,,
4205203,2959298116,Musée Hospitalier,,Rue Jean Morel,42190,Charlieu,France,fr,open,46.159575,4.1712806,,,,,2006,payant:3769;gratuit:476;total:4245;label-date:01/02/2003,label:musee de france,,,,
4217301,,Musée du Vieux Pommiers,,,,POMMIERS-EN-FOREZ,France,fr,closed,,,,,,,2006,payant:0;gratuit:0;total:;label-date:01/02/2003,label:musee de france,,,,
4221804,49047701,Musée de la Mine / Site Couriot,3,Boulevard Maréchal Franchet d'Espèrey,69400,Saint-Étienne,France,fr,open,45.4382508,4.376131713032282,,,,,2006,payant:32616;gratuit:29133;total:61749;label-date:01/02/2003,label:musee de france,,,,
4221802,63340891,Musée d'Art et d'Industrie,2,Place Louis Comte,42000,Saint-Étienne,France,fr,open,45.4314634,4.386849541030928,,,,,2006,payant:21990;gratuit:23872;total:45862;label-date:01/02/2003,label:musee de france,,,,
6900601,312877023,Musée Barthélemy-Thimonnier,,Rue du Nord,69550,Amplepuis,France,fr,open,45.9729166,4.3306812,,,,,2006,payant:2193;gratuit:2517;total:4710;label-date:09/07/2005,label:musee de france,,,,
6901801,1788408922,Musée des Traditions Populaires Marius Audin,62,Place de l'Hôtel de Ville,69430,Beaujeu,France,fr,open,46.154402,4.5870811,,+33 4 74 69 22 88,,,2006,payant:2333;gratuit:513;total:2846;label-date:01/02/2003,label:musee de france,,,M1030,
6912304,4879822824,Le Musée,,Rue des Forces,69002,Lyon,France,fr,open,45.7645543,4.834654,,+33 4 78377154,,,2006,payant:0;gratuit:0;total:;label-date:19/07/2005,label:musee de france,,,,
6938501,700244364,Musées Gadagne,,Rue de la Fronde,69005,Lyon,France,fr,open,45.76405015,4.827286083631041,,,,,2006,payant:9007;gratuit:1825;total:10832;label-date:01/02/2003,label:musee de france,,,,
6924801,1714229898,Ecomusée du Haut Beaujolais,,Chemin des Pierres Plantées,69240,Marnand,France,fr,open,46.0380747,4.315875,,,,,2006,payant:454;gratuit:575;total:1029;label-date:09/07/2005,label:musee de france,,,,
7300601,,Musée archéologique et minéralogique Pierre Borrione,,,,AIME-EN-TARENTAISE Cedex,France,fr,open,,,,,,,2006,payant:1155;gratuit:483;total:1638;label-date:01/02/2003,label:musee de france,,,,
7301101,152123714,Musée Municipal d'Albertville-Conflans,,Place de Conflans,73200,Albertville,France,fr,open,45.670647,6.397100738095239,,,,,2006,payant:2231;gratuit:1818;total:4049;label-date:01/02/2003,label:musee de france,,,,
7306501,107343549,Musée des Beaux-Arts,,Passage Jules Daisay,73000,Chambéry,France,fr,open,45.56817235,5.919712942411912,,,,,2006,payant:3400;gratuit:14572;total:17972;label-date:06/01/2002,label:musee de france,,,,
6733901,3451539391,Parc de la Maison Alsacienne,1-13,Rue du Terrain,67116,Reichstett,France,fr,open,48.6480723,7.7520884,,,,,2006,payant:2573;gratuit:298;total:2871;label-date:01/02/2003,label:musee de france,,,,
6718001,48609011,Musée Historique,,Rue du Sel,67500,Haguenau,France,fr,open,48.81306145,7.791507522753506,,,,,2006,payant:2155;gratuit:3640;total:5795;label-date:01/02/2003,label:musee de france,,,,
6730001,58887086,Musée de la Chartreuse,,Rue des Étudiants,67120,Molsheim,France,fr,open,48.5428428,7.490422123361975,,,,,2006,payant:3597;gratuit:94;total:3691;label-date:01/02/2003,label:musee de france,,,,
6732401,,Maison de l'Archéologie des Vosges du Nord,,,,NIEDERBRONN-LES-BAINS,France,fr,open,,,,,,,2006,payant:1223;gratuit:595;total:1818;label-date:01/02/2003,label:musee de france,,,,
6748210,459628388,Musée Zoologique de Strasbourg,,Boulevard de la Victoire,67085,Strasbourg,France,fr,open,48.5827722,7.7647316,,,,,2006,payant:11965;gratuit:24583;total:36548;label-date:01/02/2003,label:musee de france,,,,
6748208,239813123,Musée Alsacien,23,Quai Saint-Nicolas,67065,Strasbourg,France,fr,open,48.5791319,7.7506043,,,,,2006,payant:20252;gratuit:28186;total:48438;label-date:01/02/2003,label:musee de france,,,,
6803601,685084692,Musée Gallo-Romain,,Rue des Capucins,68600,Biesheim,France,fr,open,48.039525,7.5455969,,,,,2006,payant:912;gratuit:1956;total:2868;label-date:01/02/2003,label:musee de france,,,,
6816201,,Musée d'Histoire Local,,,,KAYSERSBERG,France,fr,open,,,,,,,2006,payant:248;gratuit:149;total:397;label-date:01/02/2003,label:musee de france,,,,
6816401,55263399,Musée du Vignoble et des Vins d'Alsace,1b,Grand'Rue,68240,Colmar-Ribeauvillé,France,fr,open,48.13509195,7.2883942443186704,,,,,2006,payant:3480;gratuit:22;total:3502;label-date:01/02/2003,label:musee de france,,,,
6822405,4551159534,Cité du Train,,Rue Alfred de Glehn,68200,Mulhouse,France,fr,open,47.7500026,7.2938678,,,,,2006,payant:66680;gratuit:33857;total:100537;label-date:18/11/2002,label:musee de france,,,,
6827702,1138681,Musée du Dolder,16,Rue du Général de Gaulle,68340,Riquewihr,France,fr,open,48.166885,7.298560434089087,,,,,2006,payant:4134;gratuit:486;total:4620;label-date:01/02/2003,label:musee de france,,,,
6833401,218472174,Ecomusée Textile,,Rue du Parc,68470,Husseren-Wesserling,France,fr,open,47.885102,6.996263986308496,,,,,2006,payant:701;gratuit:7224;total:7925;label-date:01/02/2003,label:musee de france,,,,
2406401,5089643323,Musée Fernand Desmoulin,,Boulevard Charlemagne,24310,Nontron,France,fr,open,45.3641641,0.6468008,,,,,2006,payant:13717;gratuit:4276;total:17993;label-date:01/02/2003,label:musee de france,,,,
2429101,,Musée Eugène Le Roy et des Vieux Métiers,,,,MONTIGNAC,France,fr,closed,,,,,,,2006,payant:0;gratuit:0;total:;label-date:01/02/2003,label:musee de france,,,,
2458401,5825837320,Musée Léonie Gardeau - Musée d'histoire locale d'Arts et de Traditions populaires,,Rue Gambetta,24610,Villefranche-de-Lonchat,France,fr,open,44.9480862,0.0577711,,+33 5 53 80 77 25,,,2006,payant:0;gratuit:930;total:930;label-date:01/02/2003,label:musee de france,,,M0061,
3306305,154772662,Muséum d'Histoire Naturelle de Bordeaux,,Place Bardineau,33000,Bordeaux,France,fr,open,44.848504500000004,-0.5799899525187916,,,,,2006,payant:7088;gratuit:52466;total:59554;label-date:01/02/2003,label:musee de france,,,,
3306701,,Musée de la Voiture à Cheval,,,,BOURG-SUR-GIRONDE,France,fr,open,,,,,,,2006,payant:2667;gratuit:533;total:3200;label-date:01/02/2003,label:musee de france,,,,
3335201,3594400954,Musée agricole à la Ferme de Deloges,,D 126,33190,Les Esseintes,France,fr,closed,44.6073617,-0.0742559,,,,,2006,payant:0;gratuit:0;total:;label-date:01/02/2003,label:musee de france,,,,
3324301,,Musée des Beaux-Arts et d'Archéologie,,,,LIBOURNE,France,fr,open,,,,,,,2006,payant:0;gratuit:3448;total:3448;label-date:01/02/2003,label:musee de france,,,,
3354701,161041079,Musée Municipal,,Impasse Dupeyron,33730,Villandraut,France,fr,closed,44.457179,-0.372994201515152,,,,,2006,payant:0;gratuit:0;total:;label-date:01/02/2003,label:musee de france,,,,
4028201,5825880178,Musée d'Art et d'Histoire du Cap de Gascogne,,Rue du Général Lamarque,40500,Saint-Sever,France,fr,open,43.7585204,-0.5718845,,,,,2006,payant:0;gratuit:1500;total:1500;label-date:01/02/2003,label:musee de france,,,,
4716701,3110116210,Musée du Liège et du Bouchon,,Rue du Puits,47170,Mézin,France,fr,open,44.0564056,0.2561249,,,,,2006,payant:6008;gratuit:1069;total:7077;label-date:2006-07-05 00:00:00,label:musee de france,,,,
4719501,175744724,La Maison de la Pêche et de l'Eau,3,Rue Sederie,47600,Nérac,France,fr,open,44.1360265,0.3418098475080772,,,,contact@acqua-viva.com,2006,payant:16682;gratuit:4700;total:21382;label-date:01/02/2003,label:musee de france,,,,
0307401,,Musée Rural de la Sologne Bourbonnaise,,,,BEAULON,France,fr,open,,,,,,,2006,payant:0;gratuit:0;total:;label-date:01/02/2003,label:musee de france,,,,
0304801,,Musée Charles-Louis Philippe,,,,CERILLY,France,fr,open,,,,,,,2006,payant:270;gratuit:0;total:270;label-date:01/02/2003,label:musee de france,,,,
6311305,67015490,Musée d'Art Roger Quilliot,,Place Louis Deteix,63100,Clermont-Ferrand,France,fr,open,45.79392705,3.1162223146769588,https://www.clermontmetropole.eu/bouger-se-divertir/le-dynamisme-culturel/les-musees-de-clermont-auvergne-metropole/marq-musee-dart-roger-quilliot/,+33 4 43 76 25 25,,,2006,payant:4187;gratuit:27314;total:31501;label-date:01/02/2003,label:musee de france,,Q1495869,M0121,
6321101,798314887,Musée des Pénitents Blancs,,Place de l'Église,63940,Marsac-en-Livradois,France,fr,open,45.4787455,3.7287661,,,,,2006,payant:168;gratuit:0;total:168;label-date:01/02/2003,label:musee de france,,,,
6322301,7638286185,Arboretum de la forêt de Brosse,,D 508,63560,Neuf-Église,France,fr,open,46.1202255,2.8584098,,,,,2006,payant:1686;gratuit:0;total:1686;label-date:01/02/2003,label:musee de france,,,,
2123101,2482864557,Musée Rude,,Rue Vaillant,21000,Dijon,France,fr,open,47.321005,5.0442148,https://beaux-arts.dijon.fr/,+33 3 80 74 52 09,,,2006,payant:0;gratuit:31089;total:31089;label-date:01/02/2003,label:musee de france,,Q3329333,M0140,
2123106,23363257,Musée de la vie bourguignonne Perrin de Puycousin,,Rue du Chaignot,21000,Dijon,France,fr,open,47.31745415,5.0380257629051215,http://www.dijon.fr/decouvrir/les-musees.0.2.php,+33 3 80 48 80 90,,,2006,payant:0;gratuit:34844;total:34844;label-date:01/02/2003,label:musee de france,,Q3329974,M0139,
2123105,255935624,Muséum - Jardin des Sciences,,Avenue Albert 1er,21000,Dijon,France,fr,open,47.3218523,5.0289424,,,,,2006,payant:59202;gratuit:67677;total:126879;label-date:06/01/2002,label:musee de france,,,,
5815101,228160124,Musée de la Mine,,Rue Paul et Auguste Couture,58260,La Machine,France,fr,open,46.88884495,3.463816769519121,,,,,2006,payant:7103;gratuit:0;total:7103;label-date:01/02/2003,label:musee de france,,,,
5819403,339392015,Musée du Palais Ducal,,Rue des Ouches,58000,Nevers,France,fr,closed,46.9882494,3.1580768,,,,,2006,payant:0;gratuit:0;total:;label-date:01/02/2003,label:musee de france,,,,
7104001,153902869,Musée de la Mine et des Hommes,,Rue du Bois Clair,71450,Blanzy,France,fr,open,46.701234,4.382382640756303,,+33 3 85 68 22 85,,,2006,payant:13693;gratuit:1670;total:15363;label-date:01/02/2003,label:musee de france,,Q3330032,M0163,
7107601,,Musée Denon,,,,CHALON-SUR-SAONE,France,fr,open,,,,,,,2006,payant:1127;gratuit:11007;total:12134;label-date:01/02/2003,label:musee de france,,,,
7110601,7419064524,Musée René Davoine,32,Rue René Davoine,71120,Charolles,France,fr,open,46.4312242,4.2732669,,,,,2006,payant:928;gratuit:0;total:928;label-date:01/02/2003,label:musee de france,,,,
7113701,142255492,Musée d'Art et d'Archéologie,,Place Notre-Dame,60300,Senlis,France,fr,open,49.2064225,2.5866285006288354,,,,,2006,payant:85115;gratuit:21918;total:107033;label-date:01/02/2003,label:musee de france,,,,
7137301,7419064525,Musée du Terroir,,Rue des Quartiers,71470,Romenay,France,fr,open,46.503251,5.067591,,,,,2006,payant:296;gratuit:157;total:453;label-date:01/02/2003,label:musee de france,,,,
7154301,7419064527,Hôtel Dieu - Musée Greuze,,Rue de l'Hôpital,71700,Tournus,France,fr,open,46.5619544,4.9109248,,,,,2006,payant:8144;gratuit:2276;total:10420;label-date:01/02/2003,label:musee de france,,,,
8902402,62636018,Musée d'Art et d'Histoire,,Rue Cochois,89000,Auxerre,France,fr,open,47.8005184,3.5725156901166075,,,,,2006,payant:9700;gratuit:22082;total:31782;label-date:01/02/2003,label:musee de france,,,,
8938701,8196077887,Musée de Sens,135,Rue des Déportés et de la Résistance,89100,Sens,France,fr,open,48.1975028,3.284393,http://ville-sens.fr/index.php/Les%20mus%C3%A9es?idpage=162&idmetacontenu=187,,,,2006,payant:9195;gratuit:19919;total:29114;label-date:01/02/2003,label:musee de france,,Q3329751,,
2903801,,Ecomusée des Monts d'Arrée - Moulins de Kerouat & Maison Cornec de Rivoal,,,,COMMANA,France,fr,open,,,,,,,2006,payant:17632;gratuit:5887;total:23519;label-date:01/02/2003,label:musee de france,,,,
2915502,2139061354,Musée des Phares et Balises,,Route du Phare,,Lampaul,France,fr,open,48.4594493,-5.1294058,,,,,2006,payant:21969;gratuit:0;total:21969;label-date:01/02/2003,label:musee de france,,,,
2923201,1162498487,Musée des Beaux-Arts,,Place Saint-Corentin,29000,Quimper,France,fr,open,47.996236,-4.102342,,,,,2006,payant:26184;gratuit:20438;total:46622;label-date:01/02/2003,label:musee de france,,,,
2923202,94312010,Musée Départemental Breton,1,Rue du Roi Gradlon,29000,Quimper,France,fr,open,47.9953725,-4.1025369543379,,,,,2006,payant:22976;gratuit:18177;total:41153;label-date:01/02/2003,label:musee de france,,,,
3528802,,Musée d'Histoire de la Ville de Saint-Malo,,,,SAINT-MALO,France,fr,open,,,,,,,2006,payant:19261;gratuit:7503;total:26764;label-date:01/02/2003,label:musee de france,,,,
3536001,92884430,Musée Saint-Nicolas,,Rue du Rachapt,35500,Vitré,France,fr,open,48.1260135,-1.2166992529105425,,,,,2006,payant:1972;gratuit:914;total:2886;label-date:01/02/2003,label:musee de france,,,,
5609001,2210062014,Ecomusée des Forges,,Mail François Giovannelli,56650,Inzinzac-Lochrist,France,fr,open,47.8238742,-3.2535283,http://www.inzinzac-lochrist.fr/Ecomusee-des-Forges.6681.0.html,+33 2 97 36 98 21,,,2006,payant:4144;gratuit:1328;total:5472;label-date:01/02/2003,label:musee de france,,,M0223,
1803301,3639383770,Musée Estève,,Rue Édouard Branly,18000,Bourges,France,fr,open,47.0861911,2.396213,,,,,2006,payant:0;gratuit:17163;total:17163;label-date:01/02/2003,label:musee de france,,,,
1803303,64604953,Musée du Berry,4,Rue des Arènes,18000,Bourges,France,fr,open,47.085300149999995,2.39267207904075,,,,,2006,payant:0;gratuit:15565;total:15565;label-date:01/02/2003,label:musee de france,,,,
2808502,276905,Chartres,,,28000,Chartres,France,fr,open,48.4438601,1.4881434,https://www.ville-chartres.fr/,,,,2006,payant:1033;gratuit:10636;total:11669;label-date:01/02/2003,label:musee de france,,Q130272,,
3600601,2416267792,Musée de la Chemiserie et de l'Elégance Masculine,,Rue Charles Brillaud,36200,Argenton-sur-Creuse,France,fr,open,46.5884724,1.5182182,,,,,2006,payant:4091;gratuit:4628;total:8719;label-date:01/02/2003,label:musee de france,,,,
3620001,275239079,Musée Archéologique d'Argentomagus,,Impasse du Clos des Mersans,36200,Saint-Marcel,France,fr,open,46.600498,1.5163171900000003,,,,,2006,payant:9722;gratuit:7586;total:17308;label-date:01/02/2003,label:musee de france,,,,
3711501,65229447,"""""""Maison Musée"""" René Descartes""",29,Rue Descartes,37160,Descartes,France,fr,open,46.972620899999995,0.6999355493597434,,,,,2006,payant:1245;gratuit:764;total:2009;label-date:01/02/2003,label:musee de france,,,,
3726101,38576800,Muséum d'Histoire Naturelle,3,Rue du Président Merville,37000,Tours,France,fr,open,47.39461145,0.6836901302839116,,,,,2006,payant:5055;gratuit:7795;total:12850;label-date:01/02/2003,label:musee de france,,,,
4101801,7170311044,Château Musées de Blois,,Petits Degrés du Château,41000,Blois,France,fr,open,47.5857788,1.3313739,,,,,2006,payant:215809;gratuit:25252;total:241061;label-date:01/02/2003,label:musee de france,,,,
4125801,1241279063,Musée Archéologique,,Allée de la Mairie,41140,Thésée,France,fr,open,47.3280766,1.3062994,,,,,2006,payant:1143;gratuit:348;total:1491;label-date:01/02/2003,label:musee de france,,,,
4508501,240306634,Hôtel Dieu,2,Rue du Faubourg du Puyrault,45230,Châtillon-Coligny,France,fr,open,47.820727500000004,2.845076619565216,http://www.culture.gouv.fr/public/mistral/merimee_fr?ACTION=CHERCHER&FIELD_1=REF&VALUE_1=IA00124346,,,,2006,payant:603;gratuit:574;total:1177;label-date:01/02/2003,label:musee de france,,,,
4520801,95074878,Musée Girodet,2,Rue du Faubourg de la Chaussée,45200,Montargis,France,fr,open,47.997254999999996,2.7365194242424016,http://www.musee-girodet.fr,+33 2 38 98 07 81,,,2006,payant:337;gratuit:0;total:337;label-date:27/12/2002,label:musee de france,,Q3329176,M0284,
4523403,152119467,Musée des Beaux-Arts,1,Rue Fernand Rabier,45000,Orléans,France,fr,open,47.90265,1.9097666942148757,,,,,2006,payant:6213;gratuit:55517;total:61730;label-date:06/01/2002,label:musee de france,,,,
0810501,91146071,Musée Arthur Rimbaud,,Passerelle du Mont Olympe,08000,Charleville-Mézières,France,fr,open,49.775734650000004,4.7220587026654695,,,,,2006,payant:5329;gratuit:11659;total:16988;label-date:01/02/2003,label:musee de france,,,,
1026801,,Musée Paul Dubois-Alfred Boucher,,,,NOGENT-SUR-SEINE,France,fr,open,,,,,,,2006,payant:473;gratuit:735;total:1208;label-date:01/02/2003,label:musee de france,,,,
1038706,73124719,Musée d'Art Moderne,,Rue de la Crosse,10000,Troyes,France,fr,open,48.29995,4.082291342005172,,,,,2006,payant:13503;gratuit:12270;total:25773;label-date:01/02/2003,label:musee de france,,,,
5212101,,Musée des Beaux-Arts et d'Archéologie,,,,CHAUMONT,France,fr,open,,,,,,,2006,payant:793;gratuit:3751;total:4544;label-date:01/02/2003,label:musee de france,,,,
5212102,6620521651,Musée de l'Affiche,1,Place Émile Goguenheim,52000,Chaumont,France,fr,closed,48.1105299,5.1354361,,,,,2006,payant:0;gratuit:0;total:;label-date:01/02/2003,label:musee de france,,,,
5226901,489598272,Musée d'Art et d'Histoire Guy Baillet,,Rue de la Coutellerie,52200,Langres,France,fr,closed,47.8646223,5.333331557244431,http://www.musees-langres.fr,+33 3 25 86 86 86,,,2006,payant:0;gratuit:0;total:;label-date:01/02/2003,label:musee de france;label:monuments-historiques;type:monument-historique,,Q22985193,M0321,PA00079095
5145405,7030744259,Musée Hôtel le Vergeur,36,Place du Forum,51100,Reims,France,fr,open,49.2571018,4.0341284,,,,,2006,payant:8569;gratuit:6548;total:15117;label-date:01/02/2003,label:musee de france,,,,
5145401,733881096,Musée des Beaux-Arts de Saint-Denis,,,51100,Reims,France,fr,open,49.252981500000004,4.030427080857688,,,,,2006,payant:9226;gratuit:36593;total:45819;label-date:06/01/2002,label:musee de france,,,,
2A00402,2627082116,Musée de la Maison Bonaparte,,Rue Saint-Charles,20000,Ajaccio,France,fr,open,41.9179847,8.7385137,,,,,2006,payant:40113;gratuit:21344;total:61457;label-date:06/01/2002,label:musee de france,,,,
2B16901,,Musée Départemental Pascal Paoli,,,,MOROSAGLIA,France,fr,closed,,,,,,,2006,payant:0;gratuit:0;total:;label-date:01/02/2003,label:musee de france,,,,
2538802,7372375792,Musée du Château des Ducs de Wurtemberg,,Square Beurnier,25200,Montbéliard,France,fr,open,47.5098603,6.79769,,,,,2006,payant:5483;gratuit:10462;total:15945;label-date:01/02/2003,label:musee de france,,,,
2546201,34418085,Musée de Pontarlier,2,,25300,Pontarlier,France,fr,open,46.904336799999996,6.354752112674423,,,,,2006,payant:4160;gratuit:5990;total:10150;label-date:01/02/2003,label:musee de france,,,,
7027901,7508378482,Musée Baron Martin,,Tertre du Château,70100,Gray,France,fr,open,47.4464565,5.5938421,,,,,2006,payant:2214;gratuit:2641;total:4855;label-date:01/02/2003,label:musee de france,,,,
7013901,,Musée Départemental de la Montagne Albert Demard,,,,LE HAUT-DU-THEM,France,fr,open,,,,,,,2006,payant:4385;gratuit:3900;total:8285;label-date:01/02/2003,label:musee de france,,,,
7031101,6330861575,Musée de la Tour des Echevins,,Rue de la Tour,70300,Luxeuil-les-Bains,France,fr,open,47.8178096,6.3803395,,,,,2006,payant:1171;gratuit:1616;total:2787;label-date:01/02/2003,label:musee de france,,,,
3909701,847296482,Museo Regionale di Scienze Naturali,,Frazione Luboz,11018,Saint-Pierre,Italia,it,open,45.7102452,7.2269227,http://www.museoscienze.it/,,,,2006,payant:249;gratuit:426;total:675;label-date:01/02/2003,label:musee de france,,Q3868455,,
3950002,151950172,La Grande Saline - Musée du Sel,,Place des Salines,39110,Salins-les-Bains,France,fr,closed,46.9376405,5.8761571935790275,http://www.salinesdesalins.com,+33 3 84 73 10 92,,,2006,payant:0;gratuit:0;total:;label-date:01/02/2003,label:musee de france,,,M0353,
9001002,79763460,Donation Maurice Jardot,8,Rue de Mulhouse,90000,Belfort,France,fr,open,47.6427099,6.8557239777834384,,,,,2006,payant:4275;gratuit:0;total:4275;label-date:01/02/2003,label:musee de france,,,,
9202301,71858423,Fondation Arp,21,Rue des Châtaigniers,92140,Clamart,France,fr,open,48.80356925,2.244439479972457,,,,,2006,payant:1490;gratuit:593;total:2083;label-date:2003-12-16 00:00:00,label:musee de france,,,,
9202601,82241201,Musée Roybet Fould,178,Boulevard Saint-Denis,92400,Courbevoie,France,fr,open,48.90043675,2.2718533501517357,,,,,2006,payant:0;gratuit:8996;total:8996;label-date:01/02/2003,label:musee de france,,,,
9202602,82241201,Musée Roybet Fould,178,Boulevard Saint-Denis,92400,Courbevoie,France,fr,closed,48.90043675,2.2718533501517357,,+33 1 71 05 77 92,,,2006,payant:0;gratuit:0;total:;label-date:06/01/2002,label:musee de france;label:monuments-historiques;type:monument-historique,,Q22924332,,PA00088106
9205101,82241201,Musée Roybet Fould,178,Boulevard Saint-Denis,92400,Courbevoie,France,fr,open,48.90043675,2.2718533501517357,,+33 1 71 05 77 92,,,2006,payant:0;gratuit:0;total:;label-date:01/02/2003,label:musee de france;label:monuments-historiques;type:monument-historique,,Q22924332,,PA00088106
9207101,1620203330,Musée du Domaine Départemental de Sceaux,,Allée de la Duchesse,92330,Sceaux,France,fr,open,48.7742577,2.300099,http://domaine-de-sceaux.hauts-de-seine.fr,+33141872950,,museeidf@cg92.fr,2006,payant:0;gratuit:39089;total:39089;label-date:01/02/2003,label:musee de france,,Q3329858,M0417,
9207201,43402166,Musée national de la céramique de Sèvres,2,Place de la Manufacture Nationale,92310,Sèvres,France,fr,open,48.82868175,2.223050158499171,,,,,2006,payant:20092;gratuit:14345;total:34437;label-date:06/01/2002,label:musee de france,,,,
7511601,80848762,Musée d'Ennery,,Avenue Foch,75116,Paris,France,fr,closed,48.8714924,2.2814348372921613,,,,,2006,payant:0;gratuit:0;total:;label-date:06/01/2002,label:musee de france,,,,
7511201,247618453,Musée des Arts et Métiers,,Rue Réaumur,75003,Paris,France,fr,open,48.8660977,2.3554138,http://www.arts-et-metiers.net,+33 1 53 01 82 20,+33 1 53 01 82 01,,2006,payant:134029;gratuit:83644;total:217673;label-date:06/01/2002,label:musee de france,,Q1538826,M5065,
7510517,237003117,Musée de l'Assistance Publique - Hôpitaux de Paris,,Quai de la Tournelle,75005,Paris,France,fr,open,48.850724,2.3518758,,,,,2006,payant:9426;gratuit:6492;total:15918;label-date:02/10/2002,label:musee de france,,,,
7511401,79805060,Musée Lénine,7 bis,Villa Seurat,75014,Paris,France,fr,closed,48.8260778,2.3326996885892632,,,,,2006,payant:0;gratuit:0;total:;label-date:01/02/2003,label:musee de france,,,,
7511616,84511129,Maison de Balzac,47,Rue Raynouard,75016,Paris,France,fr,open,48.85520045,2.2808817591013373,,,,,2006,payant:2359;gratuit:16747;total:19106;label-date:08/07/2004,label:musee de france,,,,
7510902,1336873192,Musée de la Franc-Maçonnerie,16,Rue Cadet,75009,Paris,France,fr,open,48.8749151,2.3431481,,,,,2006,payant:7000;gratuit:3000;total:10000;label-date:01/02/2003,label:musee de france,,,,
7510608,153776401,Musée Zadkine,,Passage Commun B6,75006,Paris,France,fr,open,48.84281085,2.333799238079097,,,,,2006,payant:4187;gratuit:2528;total:6715;label-date:08/07/2004,label:musee de france,,,,
7511503,1913411919,Mémorial du Maréchal Leclerc de Hauteclocque et de la Libération de Paris-musée Jean Moulin,23,Allée de la 2e Division Blindée,75015,Paris,France,fr,open,48.8404563,2.3198526,,,,,2006,payant:2316;gratuit:11954;total:14270;label-date:08/07/2004,label:musee de france,,,,
7510703,472159547,Musée Rodin,,Rue de Varenne,75007,Paris,France,fr,open,48.85474735,2.3158669998625365,http://www.musee-rodin.fr,+33 1 44 18 61 10,,,2006,payant:341671;gratuit:273196;total:614867;label-date:06/01/2002,label:musee de france,,Q650519,M5044,
7510301,156973373,Musée de la Chasse et de la Nature,62,Rue des Archives,75003,Paris,France,fr,closed,48.86125555,2.358782698354484,,,,,2006,payant:0;gratuit:0;total:;label-date:01/02/2003,label:musee de france,,,,
7510807,,"Musée Cernuschi, Musée des Arts de l'Asie de la ville de Paris",,,,PARIS,France,fr,open,,,,,,,2006,payant:55556;gratuit:49281;total:104837;label-date:08/07/2004,label:musee de france,,,,
7713201,373767052,Maison Natale de Louis Braille,,Rue Louis Braille,77700,Coupvray,France,fr,open,48.894502700000004,2.792033637344032,,,,,2006,payant:0;gratuit:0;total:;label-date:01/02/2003,label:musee de france,,,,
7728501,113476860,Musée Henri Chapu,937,Rue Chapu,77350,Le Mée-sur-Seine,France,fr,open,48.5347515,2.6353415808823537,,,,,2006,payant:0;gratuit:964;total:964;label-date:01/02/2003,label:musee de france,,,,
7728401,112061664,Musée Bossuet,5,Place Charles De Gaulle,77100,Meaux,France,fr,open,48.960741,2.8784914364406817,,,,,2006,payant:5200;gratuit:3123;total:8323;label-date:01/02/2003,label:musee de france,,,,
7733302,2177750355,Château-musée de Nemours,,Cours du Château,77140,Nemours,France,fr,closed,48.2655865,2.6970907,,,,,2006,payant:0;gratuit:0;total:;label-date:01/02/2003,label:musee de france,,,,
7744501,4895409053,Ecomusée,,Rue de la Libération,77176,Savigny-le-Temple,France,fr,open,48.5745236,2.5833427,,,,,2006,payant:211;gratuit:7161;total:7372;label-date:01/02/2003,label:musee de france,,,,
9306601,63992928,Les Réserves du Musée des Arts et Métiers,,Avenue Amilcar Cabral,93210,Saint-Denis,France,fr,open,48.91430945,2.3603233844227383,,,,,2006,payant:4409;gratuit:30701;total:35110;label-date:01/02/2003,label:musee de france,,,,
9408101,1938023794,Musée MAC VAL,,Avenue du Moulin de Saquet,94400,Vitry-sur-Seine,France,fr,open,48.7920535,2.3852432,,,,,2006,payant:35821;gratuit:71488;total:107309;label-date:01/02/2003,label:musee de france,,,,
9531301,2584777625,Musée d'Art et d'Histoire Louis Senlecq,,Grande Rue,95290,L'Isle-Adam,France,fr,open,49.1125448,2.2159284,,,,,2006,payant:1660;gratuit:10161;total:11821;label-date:01/02/2003,label:musee de france,,,,
7851702,130921984,Musée Rambolitrain,,Avenue du Maréchal Foch,78120,Rambouillet,France,fr,open,48.6460441,1.8241725980003551,,,,,2006,payant:13042;gratuit:1436;total:14478;label-date:01/02/2003,label:musee de france,,,,
9741101,146919869,Musée Léon Dierx,,Rue Sainte Marie,97400,Saint-Denis,France,fr,open,-20.883840050000003,55.450058317623416,,,,,2006,payant:5738;gratuit:4262;total:10000;label-date:01/02/2003,label:musee de france,,Q3329255,,
9741401,2338401230,Musée des Arts Décoratifs de l’Océan indien (MADOI),,Chemin Maison Rouge,97450,Plateau Goyaves,France,fr,closed,-21.266983,55.4113864,,,,,2006,payant:0;gratuit:0;total:;label-date:01/02/2003,label:musee de france,,,,
1107601,321732839,Présidial,,Rampe du Présidial,11400,Castelnaudary,France,fr,open,43.3155934,1.9588475,,,,,2006,payant:0;gratuit:1538;total:1538;label-date:01/02/2003,label:musee de france,,,,
3400301,4134270080,Musée Agathois,5,Rue de la Fraternité,34300,Agde,France,fr,open,43.3118294,3.4686196,,,,,2006,payant:3817;gratuit:1427;total:5244;label-date:01/02/2003,label:musee de france,,,,
3400302,1131132,Musée de l'Ephèbe,,Place du Père Marcel Astruc,34300,Agde,France,fr,open,43.2868906,3.5137320418987343,,,,,2006,payant:9063;gratuit:4068;total:13131;label-date:01/02/2003,label:musee de france,,,,
3417203,1226892,Musée Fabre,,Cour de la Mosaïque,34062,Montpellier,France,fr,open,43.6117542,3.8801274326001858,,,,,2006,payant:39500;gratuit:0;total:39500;label-date:06/01/2002,label:musee de france,,,,
3417210,1226892,Musée Fabre,,Cour de la Mosaïque,34062,Montpellier,France,fr,closed,43.6117542,3.8801274326001858,http://museefabre.montpellier3m.fr/,+33 4 67 14 83 00,,,2006,payant:0;gratuit:0;total:;label-date:01/02/2003,label:musee de france,,Q1519002,M0476,
3419901,274270736,Musée de Vulliod Saint-Germain,,Impasse Canabassière,34120,Pézenas,France,fr,open,43.46137195,3.4230444718898876,,,,,2006,payant:1732;gratuit:2252;total:3984;label-date:01/02/2003,label:musee de france,,,,
6605301,,Musée d'Art Moderne - Fonds Peskè,,,,COLLIOURE,France,fr,open,,,,,,,2006,payant:4276;gratuit:1284;total:5560;label-date:01/02/2003,label:musee de france,,,,
6613604,81558950,Muséum d'Histoire Naturelle,,Place Joseph Deloncle,66000,Perpignan,France,fr,open,42.69731995,2.8996247968495945,,,,,2006,payant:288;gratuit:1420;total:1708;label-date:01/02/2003,label:musee de france,,,,
6613605,81599130,Musée Archéologique de Ruscino,,Chemin de Château-Roussillon,66000,Perpignan,France,fr,closed,42.70817275,2.9460336688120714,,,,,2006,payant:0;gratuit:0;total:;label-date:01/02/2003,label:musee de france,,,,
1925101,950074172,Musée du Président Jacques Chirac,,Route du Musée,19800,Sarran,France,fr,open,45.4079599,1.9398374,,,,,2006,payant:21299;gratuit:7143;total:28442;label-date:29/11/2002,label:musee de france,,,,
1927501,1243279,Musée du Pays d'Ussel,,Rue Michelet,19200,Ussel,France,fr,open,45.546807799999996,2.3074353973684123,,,,,2006,payant:0;gratuit:2448;total:2448;label-date:08/08/2002,label:musee de france,,,,
2300801,225393416,"Maison Corneille ou du Vieux Tapissier, actuellement Musée des Arts et Traditions populaires",,Rue Vieille,23200,Aubusson,France,fr,open,45.9572515,2.170781705882353,,,,,2006,payant:14554;gratuit:2265;total:16819;label-date:17/06/2002,label:musee de france;label:monuments-historiques;type:monument-historique,,Q13518459,,PA00099996
5430001,99542401,Musée de l'Histoire du Fer,,Avenue Général de Gaulle,54140,Jarville-la-Malgrange,France,fr,open,48.666507499999994,6.208713471590913,http://www.museehistoiredufer.fr/,+33 3 83152770,,,2006,payant:0;gratuit:0;total:;label-date:01/02/2003,label:musee de france,,Q3329826,M0509,
5535101,,Musée Jules Bastien-Lepage - Musée de la Fortification,,,,MONTMEDY,France,fr,open,,,,,,,2006,payant:12676;gratuit:1144;total:13820;label-date:01/02/2003,label:musee de france,,,,
5552701,608529050,Musée d'Argonne,,Ruelle du Promenade,55270,Varennes-en-Argonne,France,fr,open,49.22527795,5.031545268167998,,,,,2006,payant:2742;gratuit:0;total:2742;label-date:01/02/2003,label:musee de france,,,,
5745601,228213586,Maison du Verre et du Cristal,,Place Robert Schuman,57960,Meisenthal,France,fr,open,48.96507149999999,7.352640225880503,,,,,2006,payant:13898;gratuit:1196;total:15094;label-date:01/02/2003,label:musee de france,,,,
5754001,,Musée Militaire et Erckmann-Chatrian,,,,PHALSBOURG,France,fr,open,,,,,,,2006,payant:0;gratuit:0;total:;label-date:01/02/2003,label:musee de france,,,,
8835101,,Musée Louis Français,,,,PLOMBIERES-LES-BAINS,France,fr,open,,,,,,,2006,payant:261;gratuit:137;total:398;label-date:01/02/2003,label:musee de france,,,,
8838302,2582715284,Musée Charles Friry,12,Rue du Général Humbert,88200,Remiremont,France,fr,open,48.0151071,6.5897788,,,,,2006,payant:0;gratuit:0;total:;label-date:11/08/2002,label:musee de france,,,,
9720902,4807601528,Musée Régional d'Histoire et d'Éthnographie,10,Boulevard Général de Gaulle,97200,Fort-de-France,France,fr,open,14.6063988,-61.0657667,,,,,2006,payant:2586;gratuit:1342;total:3928;label-date:01/02/2003,label:musee de france,,Q15818376,M1066,
0916001,7228420483,Musée du Textile et du Peigne en Corne,65,Rue Jean Canal,09300,Lavelanet,France,fr,open,42.9296646,1.8454676,,,,,2006,payant:974;gratuit:0;total:974;label-date:01/02/2003,label:musee de france,,,,
3035001,2363137316,Musée Cévenol,1,Rue des Calquières,30120,Le Vigan,France,fr,open,43.9889631,3.6072627,,,,,2006,payant:2553;gratuit:1904;total:4457;label-date:01/02/2003,label:musee de france,,,,
3018903,1754343,Musée,,Rue de la Grille,30300,Beaucaire,France,fr,open,43.807104499999994,4.645857409267913,,,,,2006,payant:0;gratuit:39816;total:39816;label-date:01/02/2003,label:musee de france;label:monuments-historiques;type:monument-historique,,Q22953563,,PA00103019
3018901,1754343,Musée,,Rue de la Grille,30300,Beaucaire,France,fr,open,43.807104499999994,4.645857409267913,,,,,2006,payant:0;gratuit:45341;total:45341;label-date:06/01/2002,label:musee de france;label:monuments-historiques;type:monument-historique,,Q22953563,,PA00103019
3020202,73758873,Musée Départemental d'Art Sacré du Gard,,Rue Saint-Jacques,30130,Pont-Saint-Esprit,France,fr,open,44.25521465,4.65104364282573,,,,,2006,payant:956;gratuit:9072;total:10028;label-date:01/02/2003,label:musee de france,,,,
3035101,908930249,Musée Pierre de Luxembourg,,Rue de la République,30400,Villeneuve-lès-Avignon,France,fr,open,43.9637314,4.7968264,,,,,2006,payant:4637;gratuit:2948;total:7585;label-date:01/02/2003,label:musee de france,,,,
3132401,,Musée Municipal,,,,MARTRES-TOLOSANE,France,fr,open,,,,,,,2006,payant:0;gratuit:0;total:;label-date:01/02/2003,label:musee de france,,,,
6505902,70833199,Musée Salies,,Place des Thermes,65200,Bagnères-de-Bigorre,France,fr,open,43.06271375,0.14619557596196836,,,,,2006,payant:6109;gratuit:210;total:6319;label-date:01/02/2003,label:musee de france,,,,
4624001,,Musée d'Art Sacré,,,,ROCAMADOUR,France,fr,closed,,,,,,,2006,payant:0;gratuit:0;total:;label-date:01/02/2003,label:musee de france,,,,
8106502,83184155,Musée Jean Jaurès,2,Place Pélisson,81100,Castres,France,fr,open,43.607194,2.240496445775623,,,,,2006,payant:1340;gratuit:7347;total:8687;label-date:06/01/2002,label:musee de france,,,,
8106901,,Musée d'Art et d'Histoire Charles Portal,,,,CORDES-SUR-CIEL,France,fr,open,,,,,,,2006,payant:315;gratuit:307;total:622;label-date:01/02/2003,label:musee de france,,,,
8109101,379420307,Musée du Protestantisme en Haut-Languedoc,,D 53,81260,Castres,France,fr,open,43.661023,2.449145648571428,,,,,2006,payant:1378;gratuit:732;total:2110;label-date:01/02/2003,label:musee de france,,,,
8109902,60929966,Rue Philadelphe Thomas,,Rue Philadelphe Thomas,81600,Gaillac,France,fr,open,43.8993239,1.8943379,,,,,2006,payant:506;gratuit:2472;total:2978;label-date:01/02/2003,label:musee de france,,,,
8109903,1794967900,Musée de l'Abbaye Saint-Michel,,Petite Rue Saint-Michel,81600,Gaillac,France,fr,open,43.8969758,1.8960647,,,,,2006,payant:2909;gratuit:869;total:3778;label-date:01/02/2003,label:musee de france,,,,
8122001,,Musée du Pays Rabastinois,,,,RABASTENS,France,fr,open,,,,,,,2006,payant:812;gratuit:3520;total:4332;label-date:01/02/2003,label:musee de france,,,,
8207501,89104903,Musée Théodore Calbet,15,Rue Jean de Comère,82170,Grisolles,France,fr,open,43.827752000000004,1.2947097401960788,,,,,2006,payant:0;gratuit:889;total:889;label-date:01/02/2003,label:musee de france,,,,
5904301,81168271,Musée Benoît de Puydt,,Rue des Viviers,59270,Bailleul,France,fr,open,50.7407272,2.7345033127504697,,,,,2006,payant:1678;gratuit:3647;total:5325;label-date:01/02/2003,label:musee de france,,,,
5912201,6098585497,Musée de Cambrai,15,Rue de l'Épée,59400,Cambrai,France,fr,open,50.1734096,3.2299021,http://www.villedecambrai.com/culture/le-musee-des-beaux-arts/,,,,2006,payant:5554;gratuit:13695;total:19249;label-date:01/02/2003,label:musee de france,,Q3228695,M0615,
5913501,5918815893,Musée Départemental de Flandre,,Grand Place,59670,Cassel,France,fr,closed,50.7996394,2.4862076,,,,,2006,payant:0;gratuit:0;total:;label-date:01/02/2003,label:musee de france,,,,
5918304,,Lieu d'Art et Action Contemporaine de Dunkerque - LAAC,,,,DUNKERQUE,France,fr,open,,,,,,,2006,payant:43667;gratuit:0;total:43667;label-date:01/02/2003,label:musee de france,,,,
5924901,4635200763,Heid des Fourmis,,,4845,Surister,België / Belgique / Belgien,be,open,50.5480195,5.9426894,,,,,2006,payant:45831;gratuit:0;total:45831;label-date:01/02/2003,label:musee de france,,,,
5935003,41065833,Musée d'Histoire Naturelle et de Géologie,19,Rue de Bruxelles,59000,Lille,France,fr,open,50.6266587,3.06701952992126,,,,,2006,payant:64850;gratuit:0;total:64850;label-date:01/02/2003,label:musee de france,,,,
5935002,152835085,Palais des Beaux-Arts de Lille,,Place de la République,59000,Lille,France,fr,open,50.630458149999995,3.0628110944444478,,,,,2006,payant:190929;gratuit:0;total:190929;label-date:06/01/2002,label:musee de france,,,,
5937501,,Musée d'Histoire Locale de Marchiennes,,,,MARCHIENNES,France,fr,open,,,,,,,2006,payant:186;gratuit:434;total:620;label-date:01/02/2003,label:musee de france,,,,
6204102,4519451459,Musée des Beaux-Arts,,Cour d'Honneur,62000,Arras,France,fr,open,50.292028,2.7736831,,,,,2006,payant:9698;gratuit:18567;total:28265;label-date:06/01/2002,label:musee de france,,,,
6282601,156284015,Musée du Touquet,,Avenue du Château,62520,Le Touquet-Paris-Plage,France,fr,open,50.515136,1.6082098695652083,,,,,2006,payant:2152;gratuit:1227;total:3379;label-date:01/02/2003,label:musee de france,,,,
6276502,7944467329,Musée Henri Dupuis,,Rue Henri Dupuis,62500,Saint-Omer,France,fr,closed,50.7484196,2.2511244,,,,,2006,payant:0;gratuit:0;total:;label-date:01/02/2003,label:musee de france,,,,
1404701,2578288672,Musée Baron Gérard,37,Rue du Bienvenu,14400,Bayeux,France,fr,open,49.2761648,-0.7036632,,,,,2006,payant:6634;gratuit:11794;total:18428;label-date:01/02/2003,label:musee de france,,,,
1411825,110462215,Maison de la Baleine,,Rue de la Mer,14530,Luc-sur-Mer,France,fr,open,49.31784225,-0.35517196861914263,,,,,2006,payant:3466;gratuit:3156;total:6622;label-date:06/01/2002,label:musee de france,,,,
1411801,315032925,Musée des Beaux-Arts,,Chemin des Fossés du Château,14000,Caen,France,fr,open,49.1862879,-0.3615817,,,,,2006,payant:18406;gratuit:52936;total:71342;label-date:06/01/2002,label:musee de france,,,,
1451201,7579732101,Musée de l'imprimerie,,Rue des Léopards,14110,Vire,France,fr,closed,48.8589438,-0.5682422,,,,,2006,payant:0;gratuit:0;total:;label-date:01/02/2003,label:musee de france,,,,
1469201,,Musée de la Bataille de Tilly-Sur-Seulles 1944,,,,TILLY-SUR-SEULLES,France,fr,open,,,,,,,2006,payant:469;gratuit:0;total:469;label-date:01/02/2003,label:musee de france,,,,
1474701,289750553,Musée et Sites archéologiques de Vieux-la-Romaine,13,Chemin Haussé dit du Duc Guillaume,14930,Vieux,France,fr,open,49.1063245,-0.429699117007308,,,,,2006,payant:7126;gratuit:16818;total:23944;label-date:01/02/2003,label:musee de france,,,,
5002901,2420808765,Musée du Poiré,,D 489,50720,Barenton,France,fr,open,48.5876546,-0.8064704,http://www.parc-naturel-normandie-maine.fr/scripts/site/04_page.php?cont_id=1&cont_appli_id=6&page_id=26&menu_id=26,+33 2 33 59 56 22,,,2006,payant:2132;gratuit:639;total:2771;label-date:01/02/2003,label:musee de france,,,M0674,
5012902,621413281,Musée Thomas Henry,,Esplanade de la Laïcité,50100,Cherbourg-en-Cotentin,France,fr,open,49.6373411,-1.6229459,,,,,2006,payant:0;gratuit:18248;total:18248;label-date:01/02/2003,label:musee de france,,,,
5012903,,Musée de la Guerre et de la Libération,,,,CHERBOURG-EN-COTENTIN,France,fr,open,,,,,,,2006,payant:3971;gratuit:3081;total:7052;label-date:01/02/2003,label:musee de france,,,,
5050203,,"Musée du Bocage Normand, ferme du bois Jugan",,,,SAINT-LO,France,fr,open,,,,,,,2006,payant:4017;gratuit:2225;total:6242;label-date:01/02/2003,label:musee de france,,,,
5061501,,Musée Régional du Cidre et du Calvados,,,,VALOGNES,France,fr,open,,,,,,,2006,payant:3682;gratuit:425;total:4107;label-date:01/02/2003,label:musee de france,,,,
6121401,2006338406,Aconit,12,Rue Joseph Rey,38000,Grenoble,France,fr,open,45.1861012,5.7170417,http://aconit.org,+33 4 76 48 43 60,,info@aconit.org,2006,payant:864;gratuit:0;total:864;label-date:01/02/2003,label:musee de france,,Q40002294,,
2737501,,Musée Municipal,,,,LOUVIERS Cedex,France,fr,open,,,,,,,2006,payant:36;gratuit:7049;total:7085;label-date:01/02/2003,label:musee de france,,,,
2768101,1612275797,Musée Alphonse-Georges Poulain,,Rue du Pont,27200,Vernon,France,fr,open,49.094892,1.4850183,,,,,2006,payant:2430;gratuit:7992;total:10422;label-date:01/02/2003,label:musee de france,,,,
7635101,69981531,Musée d'Art Moderne André Malraux - MuMa,2,Boulevard Clemenceau,76600,Le Havre,France,fr,open,49.48501735,0.10265666643901614,,,,,2006,payant:24633;gratuit:10864;total:35497;label-date:01/02/2003,label:musee de france,,,,
7635103,76087045,Prieuré de Graville,,Rue de l'Abbaye,76600,Le Havre,France,fr,closed,49.503292200000004,0.1652970079749255,http://www.abbayegraville.lehavre.fr,+33 2 35 24 51 00,,,2006,payant:0;gratuit:0;total:;label-date:01/02/2003,label:musee de france;label:monuments-historiques;type:monument-historique,,Q1103770,M0719,PA00100694
7646201,2151987864,Musée Mathon-Durand,,Grande Rue Saint-Pierre,76270,Neufchâtel-en-Bray,France,fr,open,49.7311219,1.4392934,,,,,2006,payant:449;gratuit:2072;total:2521;label-date:01/02/2003,label:musee de france,,,,
7654004,64180958,Musée des Antiquités de la Seine-Maritime,198,Rue Beauvoisine,76000,Rouen,France,fr,open,49.4469796,1.0994713257847062,,,,,2006,payant:1986;gratuit:17526;total:19512;label-date:01/02/2003,label:musee de france,,,,
7654009,8063434964,Musée-Maison Natale Pierre Corneille,,Rue de la Pie,76000,Rouen,France,fr,open,49.4430989,1.0867988,,,,,2006,payant:0;gratuit:6567;total:6567;label-date:01/02/2003,label:musee de france,,,,
4401501,,"Musée de la Fève, Crèches et Traditions Populaires",,,,BLAIN,France,fr,open,,,,,,,2006,payant:508;gratuit:83;total:591;label-date:01/02/2003,label:musee de france,,,,
4406901,,Musée du Pays de Guérande et de la Porte Saint Michel,,,,GUERANDE Cedex,France,fr,open,,,,,,,2006,payant:17266;gratuit:4527;total:21793;label-date:01/02/2003,label:musee de france,,,,
4900701,126965407,Musée des Beaux-Arts,14,Rue du Musée,49100,Angers,France,fr,open,47.4689171,-0.5545021308806701,,,,,2006,payant:23288;gratuit:50875;total:74163;label-date:06/01/2002,label:musee de france,,,,
4900704,126960360,Galerie David d'Angers,33 bis,Rue Toussaint,49100,Angers,France,fr,open,47.4691385,-0.5558234662698396,,,,,2006,payant:6861;gratuit:16996;total:23857;label-date:06/01/2002,label:musee de france,,,,
4935301,125991770,Musée de l'Ardoise,32,Chemin de la Maraichère,49800,Trélazé,France,fr,open,47.446912,-0.48919949107143107,,,,,2006,payant:9800;gratuit:5700;total:15500;label-date:01/02/2003,label:musee de france,,,,
5314701,1934021701,Musée du Château de Mayenne,,Quai Carnot,53100,Mayenne,France,fr,closed,48.3028395,-0.6179027,,,,,2006,payant:0;gratuit:0;total:;label-date:01/02/2003,label:musee de france,,,,
8508701,620726971,Centre Minier de Faymoreau,,Rue de la Cour,85240,Faymoreau,France,fr,open,46.55511285,-0.6311954483215672,,,,,2006,payant:21693;gratuit:5399;total:27092;label-date:01/02/2003,label:musee de france,,,,
8510601,5401490904,Musée des Arts et Traditions,,Rue Nationale,85680,La Guérinière,France,fr,open,46.967207,-2.2325648,,,,,2006,payant:4288;gratuit:248;total:4536;label-date:01/02/2003,label:musee de france,,,,
0216801,5425520722,Musée Jean de la Fontaine,,Rue Jean De La Fontaine,02400,Château-Thierry,France,fr,open,49.0467222,3.4001157,,,,,2006,payant:6402;gratuit:3737;total:10139;label-date:01/02/2003,label:musee de france,,,,
0236102,1418418104,Familistère de Guise,,Cité Familistère,02120,Guise,France,fr,open,49.9045566,3.6252747,,,,,2006,payant:24395;gratuit:1174;total:25569;label-date:01/02/2003,label:musee de france,,,,
0240802,202812175,Musée des Temps Barbares,,Rue des Moulins,02250,Marle,France,fr,open,49.7417279,3.771423276198486,https://www.museedestempsbarbares.fr/,,,,2006,payant:1718;gratuit:4788;total:6506;label-date:01/02/2003,label:musee de france,,Q18578032,,
0257401,236808363,Rue du Musée,,Rue du Musée,02550,Origny-en-Thiérache,France,fr,open,49.8961405,4.022224,,,,,2006,payant:0;gratuit:140;total:140;label-date:01/02/2003,label:musee de france,,,,
6015904,105680987,Musée Antoine Vivenel,,Rue de la Baguette,60200,Compiègne,France,fr,open,49.417504449999996,2.8211998626844323,,,,,2006,payant:919;gratuit:9472;total:10391;label-date:01/02/2003,label:musee de france,,,,
6015905,5339422294,Musée de la Figurine Historique,"1,3,5,7",Rue Jean Legendre,60200,Compiègne,France,fr,open,49.4176885,2.8264396,,,,,2006,payant:3731;gratuit:5900;total:9631;label-date:01/02/2003,label:musee de france,,,,
6047103,476735511,Musée Jean Calvin,,Rue du Porcelet,60400,Noyon,France,fr,open,49.5817505,2.9984424,,,,,2006,payant:1943;gratuit:1521;total:3464;label-date:01/02/2003,label:musee de france,,,,
8071601,,Musée Départemental de l'Abbaye de Saint-Riquier,,,,ABBEVILLE,France,fr,open,,,,,,,2006,payant:2729;gratuit:25474;total:28203;label-date:01/02/2003,label:musee de france,,,,
8002101,140247228,Musée de Picardie,,Rue Jules Lardière,80000,Amiens,France,fr,open,49.890586,2.2952183665769486,,,,,2006,payant:45319;gratuit:11205;total:56524;label-date:06/01/2002,label:musee de france,,,,
1601501,,Musée des Beaux-Arts,,,,ANGOULEME,France,fr,closed,,,,,,,2006,payant:0;gratuit:0;total:;label-date:01/02/2003,label:musee de france,,,,
1601502,44840732,Atelier - Musée du Papier,,Rue de Bordeaux,16000,Saint-Cybard,France,fr,open,45.65355635,0.1495325417727163,,,,,2006,payant:0;gratuit:9018;total:9018;label-date:01/02/2003,label:musee de france,,,,
1610202,1021853,Musée des arts du cognac (MACO),Place,Place de la Salle Verte,16100,Cognac,France,fr,open,45.695510549999995,-0.3321661455206766,http://www.musees-cognac.fr/,+33 5 45 36 21 10,,,2006,payant:7160;gratuit:5499;total:12659;label-date:01/02/2003,label:musee de france,,Q3330164,,
1734701,89447700,Musée Municipal des Cordeliers,9,Rue Régnaud,17400,Saint-Jean-d'Angély,France,fr,open,45.94263465,-0.5242085085910493,,,,,2006,payant:1061;gratuit:2483;total:3544;label-date:01/02/2003,label:musee de france,,,,
1738501,1846520665,Musée de l'Ile d'Oléron,,Rue Aliénor d'Aquitaine,17310,Saint-Pierre-d'Oléron,France,fr,open,45.9428107,-1.3066515,,,,,2006,payant:9115;gratuit:2312;total:11427;label-date:01/02/2003,label:musee de france,,,,
7921601,,Musée des Ruralies- Conservatoire du Machinisme et des Pratiques Agricoles,,,,PRAHECQ,France,fr,open,,,,,,,2006,payant:6703;gratuit:1571;total:8274;label-date:01/02/2003,label:musee de france,,,,
8619404,40140547,Musée du baptistère Saint-Jean,,Rue Paschal le Coq,86000,Poitiers,France,fr,open,46.57912245,0.34775441471496493,,,,,2006,payant:15897;gratuit:1220;total:17117;label-date:01/02/2003,label:musee de france,,,,
0416601,,Musée Archéologique,,,,RIEZ-LA-ROMAINE,France,fr,open,,,,,,,2006,payant:0;gratuit:0;total:;label-date:01/02/2003,label:musee de france,,,,
0600402,68051130,Musée Picasso,,Place Mariejol,06600,Antibes,France,fr,open,43.58070895,7.128259617884984,http://www.antibes-juanlespins.com,+33 4 92 90 54 26,+33 4 92 90 54 21,musee.picasso@ville-antibes.fr,2006,payant:3105;gratuit:4412;total:7517;label-date:01/02/2003,label:musee de france;label:monuments-historiques;type:monument-historique,,Q1368360,M0867,PA00080651
0602902,2824215844,Musée de la Mer,,Allée des Eucalyptus,06407,Cannes,France,fr,open,43.523904,7.0453202,,,,,2006,payant:42511;gratuit:34022;total:76533;label-date:01/02/2003,label:musee de france,,,,
0606902,68051130,Musée Picasso,,Place Mariejol,06600,Antibes,France,fr,open,43.58070895,7.128259617884984,http://www.antibes-juanlespins.com,+33 4 92 90 54 26,+33 4 92 90 54 21,musee.picasso@ville-antibes.fr,2006,payant:4829;gratuit:19345;total:24174;label-date:01/02/2003,label:musee de france;label:monuments-historiques;type:monument-historique,,Q1368360,M0867,PA00080651
0608304,1837011704,Musée Jean Cocteau Collection Séverin Wunderman,,Quai de Monléon,06500,Menton,France,fr,open,43.7747355,7.5057931,,,,,2006,payant:11240;gratuit:6739;total:17979;label-date:01/02/2003,label:musee de france,,,,
0608805,,Musée Archéologique - Site de  Cimiez,,,,NICE,France,fr,open,,,,,,,2006,payant:8688;gratuit:21573;total:30261;label-date:01/02/2003,label:musee de france,,,,
1300106,,Musée Paul Arbaud,,,,AIX-EN-PROVENCE,France,fr,open,,,,,,,2006,payant:467;gratuit:1800;total:2267;label-date:01/02/2003,label:musee de france,,,,
1300105,88614075,Hôtel d'Estienne de Saint-Jean,,Rue des Bremondis,13626,Aix-en-Provence,France,fr,open,43.530754849999994,5.447239307551794,,+33 4 42 91 89 78,,,2006,payant:111811;gratuit:0;total:111811;label-date:01/02/2003,label:musee de france;label:monuments-historiques;type:monument-historique,,Q3145725,M0898,PA00081031
1302801,76026764,Musée Ciotaden,,Place Baragnon,13260,Cassis,France,fr,open,43.21439515,5.539950665215991,,,,,2006,payant:4128;gratuit:2298;total:6426;label-date:01/02/2003,label:musee de france,,,,
1320801,168685674,Musée des Civilisations de l'Europe et de la Méditerranée,7,Promenade Robert Laffont,13002,Marseille,France,fr,open,43.29672875,5.361025473368164,http://www.mucem.org/,+33 4 84 35 13 13,,reservation@mucem.org,2006,payant:3786;gratuit:11580;total:15366;label-date:01/02/2003,label:musee de france,,Q2808698,,
1320691,168685674,Musée des Civilisations de l'Europe et de la Méditerranée,7,Promenade Robert Laffont,13002,Marseille,France,fr,open,43.29672875,5.361025473368164,http://www.mucem.org/,+33 4 84 35 13 13,,reservation@mucem.org,2006,payant:6671;gratuit:12652;total:19323;label-date:01/02/2003,label:musee de france,,Q2808698,,
1309101,921273362,Musée Suffren et du Vieux Saint-Cannat,,Rue du Docteur Roux,13760,Saint-Cannat,France,fr,open,43.6212577,5.2973598,,,,,2006,payant:0;gratuit:5516;total:5516;label-date:01/02/2003,label:musee de france,,,,
1310001,6214739885,Musée des Alpilles,,Rue du Parage,13210,Saint-Rémy-de-Provence,France,fr,open,43.7894582,4.8308012,,,,,2006,payant:2163;gratuit:3016;total:5179;label-date:01/02/2003,label:musee de france,,,,
8400704,1490236424,Musée Calvet,,Cours du Musée Calvet,84000,Avignon,France,fr,open,43.9469675,4.8036302,http://www.musee-calvet.org/,+33 4 90 86 33 84,+33 4 90 14 62 45,musee.calvet@mairie-avignon.com,2006,payant:21551;gratuit:16748;total:38299;label-date:06/01/2002,label:musee de france,,Q1142988,,
8403102,90931574,Musée,,Rue Eysseric et Pascal,84200,Carpentras,France,fr,closed,44.05426295,5.045272504588607,,,,,2006,payant:0;gratuit:0;total:;label-date:01/02/2003,label:musee de france,,,,
8403103,1802571381,Musée Comtadin-Duplessis,,Rue du Collège,84200,Carpentras,France,fr,open,44.054376,5.046289,,,,,2006,payant:713;gratuit:3059;total:3772;label-date:01/02/2003,label:musee de france,,,,
8403105,1802571381,Musée Sobirats,,Rue du Collège,84200,Carpentras,France,fr,open,44.054376,5.046289,,,,,2006,payant:155;gratuit:333;total:488;label-date:01/02/2003,label:musee de france,,,,
