id,osm_id,name,number,street,postal_code,city,country,country_code,status,lat,lon,website,phone,fax,email,year,stats,tags,description,wikidata,museofile,mhs
0126901,441572672,"Soieries Bonnet, Musée de l'Industrie de la Soie",12,Cote Levet,01640,Jujurieux,France,fr,open,46.042453949999995,5.408558981807003,,,,,2016,payant:786;gratuit:244;total:1030;mdf-date:01/02/2003,osm:museum;mhs-date:2003-01-31;type:museum;label:musee de france;label:monuments-historiques,,Q3591598,,PA01000011
0113701,700244363,Musée du Revermont,,Rue Principale,01370,Bourg-en-Bresse,France,fr,open,46.30032775,5.389046761156977,patrimoines.ain.fr/n/musee-du-revermont/n:811,+33 4 74 51 32 42,,,2016,payant:1704;gratuit:7946;total:9650;mdf-date:01/02/2003,osm:museum;type:museum;label:musee de france,,,M0975,
0733401,5766476644,Musée des Vans,,Rue du Couvent,07140,Les Vans,France,fr,open,44.4044775,4.1345103,,,,,2016,payant:453;gratuit:912;total:1365;mdf-date:01/02/2003,osm:museum;type:museum;label:musee de france,,,,
0732401,2793855499,Musée du Rhône,,,07270,Lamastre,France,fr,open,44.9980175,4.6108622,,,,,2016,payant:14892;gratuit:11091;total:25983;mdf-date:01/02/2003,osm:museum;type:locality;label:musee de france,,,,
1516801,6838400485,La Prade Haute,,,15320,Ruynes-en-Margeride,France,fr,open,44.9961982,3.207524,,,,,2016,payant:9065;gratuit:249;total:9314;mdf-date:01/02/2003,osm:museum;type:hamlet;label:musee de france,,,,
1518701,982070993,Musée de la Haute Auvergne,,Place d'Armes,15100,Saint-Flour,France,fr,open,45.0330738,3.0948739,,,,,2016,payant:1700;gratuit:3564;total:5264;mdf-date:01/02/2003,osm:museum;type:museum;label:musee de france,,,,
2611301,145189774,Musée d'Histoire et d'Archéologie,2,Rue Noé,56000,Vannes,France,fr,open,47.6568685,-2.7579838224637703,,,,,2016,payant:579;gratuit:4843;total:5422;mdf-date:01/02/2003,osm:museum;type:museum;label:musee de france,,,,
2628101,61078917,Musée International de la Chaussure,,Rue Saint-Just,26100,Romans-sur-Isère,France,fr,open,45.04446045,5.054248261970345,,,,,2016,payant:15977;gratuit:13073;total:29050;mdf-date:01/02/2003,osm:museum;type:monastery;label:musee de france,,,,
2636201,,Musée des Beaux-Arts,,,,VALENCE,France,fr,open,,,,,,,2016,payant:9997;gratuit:31458;total:41455;mdf-date:01/02/2003,osm:museum;type:a classer;label:musee de france,,,,
7428102,5537445278,Musée du Chablais,2,Rue Michaud,74200,Thonon-les-Bains,France,fr,open,46.3735929,6.4782107,,,,,2016,payant:2045;gratuit:2851;total:4896;mdf-date:01/02/2003,osm:museum;type:museum;label:musee de france,,,,
3800601,291316822,Musée Jadis Allevard,,Musée Jadis Allevard,38580,Allevard,France,fr,open,45.3924546,6.0758962,,,,,2016,payant:1532;gratuit:1787;total:3319;mdf-date:20/12/2005,osm:museum;type:platform;label:musee de france,,,,
3801201,875500989,Musée Gallo-Romain,16,Kielenstraat,3700,Tongeren,België / Belgique / Belgien,be,open,50.7814543,5.465715540741746,,,,,2016,payant:4939;gratuit:1983;total:6922;mdf-date:01/02/2003,osm:museum;type:museum;label:musee de france,,,,
3826901,1654912102,Musée Matheysin,,Rue Colonel Escallon,38350,La Mure,France,fr,open,44.9046933,5.7845917,,,,,2016,payant:615;gratuit:1621;total:2236;mdf-date:01/02/2003,osm:museum;type:museum;label:musee de france,,,,
3854401,3034478021,Musée de la minéralogie et pétrographie,,Avenue de la Libération,87240,Ambazac,France,fr,open,45.9575558,1.4001491,,,,,2016,payant:3568;gratuit:3788;total:7356;mdf-date:01/02/2003,osm:museum;type:museum;label:musee de france,,,,
3854402,135880564,Musée Lapidaire Saint-Pierre,,Rue Delorme,38200,Vienne,France,fr,open,45.522842999999995,4.871060720000006,,,,,2016,payant:3162;gratuit:6416;total:9578;mdf-date:01/02/2003,osm:museum;type:museum;label:musee de france,,,,
3856201,1249592087,Musée de la Révolution,,Parvis du Château,38220,Vizille,France,fr,open,45.0757435,5.7735647,https://musees.isere.fr/musee/domaine-de-vizille-musee-de-la-revolution-francaise,+33 4 76 00 38 38,,,2016,payant:4748;gratuit:53268;total:58016;mdf-date:01/02/2003,osm:museum;type:museum;label:musee de france,,Q2389498,,
4200301,3667424925,Musée Alice Taverne,89,Rue de la Grye,42820,Ambierle,France,fr,open,46.1054907,3.8958563,,,,,2016,payant:3493;gratuit:741;total:4234;mdf-date:01/02/2003,osm:museum;type:museum;label:musee de france,,,,
4205901,6050847032,Atelier - Musée du Chapeau,31,Rue Martouret,42140,Chazelles-sur-Lyon,France,fr,open,45.6386575,4.395141,,,,,2016,payant:15683;gratuit:6700;total:22383;mdf-date:01/02/2003,osm:museum;type:museum;label:musee de france,,,,
6301001,4008056943,Musée de la Dentelle,,Ancienne Route Nationale,63220,Arlanc,France,fr,open,45.4143324,3.7244768,,,,,2016,payant:1096;gratuit:73;total:1169;mdf-date:01/02/2003,osm:museum;type:museum;label:musee de france,,,,
6311303,67552132,Muséum d'Histoire Naturelle Henri-Lecoq,15,Rue Bardoux,63000,Clermont-Ferrand,France,fr,open,45.774145950000005,3.0884366874758022,,,,,2016,payant:4595;gratuit:26750;total:31345;mdf-date:06/01/2002,osm:museum;type:museum;label:musee de france,,,,
6901801,1788408922,Musée des Traditions Populaires Marius Audin,62,Place de l'Hôtel de Ville,69430,Beaujeu,France,fr,open,46.154402,4.5870811,,+33 4 74 69 22 88,,,2016,payant:2717;gratuit:435;total:3152;mdf-date:01/02/2003,osm:museum;type:museum;label:musee de france,,,M1030,
6938201,6575800693,Musée des Hospices Civils de Lyon,,Rue du Port du Temple,69002,Lyon,France,fr,closed,45.7608407,4.8315116,,,,,2016,payant:0;gratuit:0;total:;mdf-date:01/02/2003,osm:museum;type:museum;label:musee de france,,,,
6938701,26131828,Centre d'Histoire de la Résistance et de la Déportation,,Rue Étienne Rognon,69007,Lyon,France,fr,open,45.7464306,4.8359519,,,,,2016,payant:25889;gratuit:34046;total:59935;mdf-date:01/02/2003,osm:museum;type:museum;label:musee de france,,,,
7305401,5858569185,Musée des Minéraux Alpins,,Rue des Vergers,73700,Bourg-Saint-Maurice,France,fr,closed,45.6178322,6.7704898,,,,,2016,payant:0;gratuit:0;total:;mdf-date:01/02/2003,osm:museum;type:museum;label:musee de france,,,,
7318101,,Musée de l'Académie de La Val d'Isère,,,,MOÛTIERS,France,fr,open,,,,,,,2016,payant:57;gratuit:305;total:362;mdf-date:01/02/2003,osm:museum;type:a classer;label:musee de france,,,,
2123101,2482864557,Musée Rude,,Rue Vaillant,21000,Dijon,France,fr,open,47.321005,5.0442148,https://beaux-arts.dijon.fr/,+33 3 80 74 52 09,,,2016,payant:0;gratuit:82965;total:82965;mdf-date:01/02/2003,osm:museum;type:museum;label:musee de france,,Q3329333,M0140,
2123103,2751550494,Musée Magnin,,Rue des Bons Enfants,21000,Dijon,France,fr,open,47.3209486,5.0422275,,,,,2016,payant:7459;gratuit:10629;total:18088;mdf-date:06/01/2002,osm:museum;type:museum;label:musee de france,,,,
2123104,175641505,Musée des Beaux-Arts,,Place de la Libération,21000,Dijon,France,fr,open,47.32163075,5.042364361722523,,,,,2016,payant:0;gratuit:155692;total:155692;mdf-date:06/01/2002,osm:museum;type:museum;label:musee de france,,,,
2123106,23363257,Musée de la vie bourguignonne Perrin de Puycousin,,Rue du Chaignot,21000,Dijon,France,fr,open,47.31745415,5.0380257629051215,http://www.dijon.fr/decouvrir/les-musees.0.2.php,+33 3 80 48 80 90,,,2016,payant:0;gratuit:40741;total:40741;mdf-date:01/02/2003,osm:museum;type:museum;label:musee de france,,Q3329974,M0139,
2505607,7345774337,Muséum de Besançon,,Chemin de Ronde de la Citadelle,25000,Besançon,France,fr,open,47.2285217,6.034794,,,,,2016,payant:236458;gratuit:33606;total:270064;mdf-date:01/02/2003,osm:museum;type:museum;label:musee de france,,,,
2505605,6354947603,Musée de la résistance et de la Déportation,,Chemin de Ronde de la Citadelle,25000,Besançon,France,fr,open,47.2290324,6.0349109,,,,,2016,payant:33998;gratuit:11332;total:45330;mdf-date:01/02/2003,osm:museum;type:museum;label:musee de france,,,,
2538802,7372375792,Musée du Château des Ducs de Wurtemberg,,Square Beurnier,25200,Montbéliard,France,fr,open,47.5098603,6.79769,,,,,2016,payant:6874;gratuit:10843;total:17717;mdf-date:01/02/2003,osm:museum;type:museum;label:musee de france,,,,
2541801,33921375,Musée de Plein Air des Maisons Comtoises,,Rue du Musée,25360,Nancray,France,fr,open,47.23771675,6.184408422290256,,,,,2016,payant:31663;gratuit:8994;total:40657;mdf-date:01/02/2003,osm:museum;type:museum;label:musee de france,,,,
2543401,87617807,Musée Courbet,1,Rue de la Froidière,25290,Ornans,France,fr,open,47.1050435,6.147763179625452,http://musee-courbet.doubs.fr/,+33 3 81 86 22 88,,,2016,payant:39929;gratuit:12046;total:51975;mdf-date:01/02/2003,osm:museum;type:museum;label:musee de france,,Q3329121,M0339,
7012201,87526037,Musée départemental d'Arts et Traditions Populaires,,Place de la Mairie,70600,Champlitte,France,fr,open,47.61684495,5.514228248646819,http://www.cg70.fr/decouvertes/musee/,+33 3 84 67 82 00,,,2016,payant:3737;gratuit:7526;total:11263;mdf-date:01/02/2003,osm:museum;type:museum;label:musee de france;label:monuments-historiques,,Q15950769,M0354,PA00102130
7027901,7508378482,Musée Baron Martin,,Tertre du Château,70100,Gray,France,fr,open,47.4464565,5.5938421,,,,,2016,payant:2301;gratuit:2242;total:4543;mdf-date:01/02/2003,osm:museum;type:museum;label:musee de france,,,,
5819403,339392015,Musée du Palais Ducal,,Rue des Ouches,58000,Nevers,France,fr,closed,46.9882494,3.1580768,,,,,2016,payant:0;gratuit:0;total:;mdf-date:01/02/2003,osm:museum;type:museum;label:musee de france,,,,
5821501,,Musée Ernest Guédon,,,,POUILLY-SUR-LOIRE,France,fr,closed,,,,,,,2016,payant:0;gratuit:0;total:;mdf-date:01/02/2003,osm:museum;type:a classer;label:musee de france,,,,
7101401,7419064532,Musée Verger Tarin,,Rue des Marbres,71400,Autun,France,fr,closed,46.9490737,4.3029239,,,,,2016,payant:0;gratuit:0;total:;mdf-date:01/02/2003,osm:museum;type:museum;label:musee de france,,,,
