id,osm_id,name,number,street,postal_code,city,country,country_code,status,lat,lon,website,phone,fax,email,year,stats,tags,description,wikidata,museofile,mhs
6738801,,Musée du Fer,,,,REICHSHOFFEN,France,fr,open,,,,,,,2006,payant:797;gratuit:435;total:1232;label-date:01/02/2003,label:musee de france,,,,
6748203,239830896,Musée des Beaux-Arts,,Place du Marché aux Poissons,67065,Strasbourg,France,fr,open,48.5806606,7.7521404,,,,,2006,payant:19560;gratuit:41724;total:61284;label-date:01/02/2003,label:musee de france,,,,
6800401,5144762817,Musee de Sapeur-Pompier d'Alsace,38,Rue de Luppach,68480,Vieux-Ferrette,France,fr,open,47.5040397,7.3041592,http://www.musee-sapeur-pompier.fr,+33 6 11 68 75 13,,info@sundgau-sudalsace.fr,2006,payant:1398;gratuit:10212;total:11610;label-date:01/02/2003,label:musee de france,,,M0038,
6806301,6211249261,Musée de la Porte de Thann,,Rue Haffner,68700,Cernay,France,fr,closed,47.8099726,7.1731847,,,,,2006,payant:0;gratuit:0;total:;label-date:01/02/2003,label:musee de france,,,,
6814901,,Musée Historique et Militaire de Huningue,,,,HUNINGE,France,fr,open,,,,,,,2006,payant:163;gratuit:1753;total:1916;label-date:01/02/2003,label:musee de france,,,,
6822408,2537131567,Musée Historique,,Place de la Réunion,68100,Mulhouse,France,fr,open,47.7465763,7.3392546,,,,,2006,payant:0;gratuit:35018;total:35018;label-date:01/02/2003,label:musee de france,,,,
6822403,449007880,Musée National de l'Automobile - Collection Schlumpf,,Autodrome du Musée de l'Automobile,68100,Mulhouse,France,fr,open,47.7612848,7.327971551196445,,,,,2006,payant:155287;gratuit:31721;total:187008;label-date:01/02/2003,label:musee de france,,,,
6822409,449007880,Cité de l’Automobile,,Autodrome du Musée de l'Automobile,68100,Mulhouse,France,fr,open,47.7612848,7.327971551196445,https://www.citedelautomobile.com/,+33 3 89 33 23 23,,message@collection-schlumpf.com,2006,payant:0;gratuit:130;total:130;label-date:01/02/2003,label:musee de france,,Q867719,,
2431101,,Musée Départemental de la Poupée et du Jouet,,,,NONTRON,France,fr,closed,,,,,,,2006,payant:0;gratuit:0;total:;label-date:01/02/2003,label:musee de france,,,,
2437901,,Musée du Site Médiéval,,,,SAINT-AVIT-SENIEUR,France,fr,open,,,,,,,2006,payant:1169;gratuit:0;total:1169;label-date:01/02/2003,label:musee de france,,,,
2452002,,Musée de Sarlat et du Périgord Noir,,,,SARLAT-LA-CANEDA,France,fr,closed,,,,,,,2006,payant:0;gratuit:0;total:;label-date:01/02/2003,label:musee de france,,,,
3305801,,Musée d'Art et d'Histoire du Pays Blayais,,,,BLAYE,France,fr,closed,,,,,,,2006,payant:0;gratuit:0;total:;label-date:01/02/2003,label:musee de france,,,,
3306310,6912095875,Musée Goupil,,Cours Pasteur,33000,Bordeaux,France,fr,closed,44.8358149,-0.5749304,,,,,2006,payant:0;gratuit:0;total:;label-date:01/02/2003,label:musee de france,,,,
3324302,265021487,Musée Ferroviaire,,Avenue de la Gare,,Guîtres,France,fr,closed,45.038131199999995,-0.19740907772227706,,,,,2006,payant:0;gratuit:0;total:;label-date:01/02/2003,label:musee de france,,,,
4012001,250016053,Abbaye d'Arthous,,Route de l'Abbaye,40300,Hastingues,France,fr,open,43.527247,-1.122068373792949,http://arthous.landes.fr/,+33 5 58 73 03 89,,,2006,payant:4210;gratuit:5840;total:10050;label-date:01/02/2003,label:musee de france;label:monuments-historiques;type:monument-historique,,Q2820503,M0078,PA00083954
4028601,5681725229,Musée de la Faïence,,Route d'Hagetmau,40320,Samadet,France,fr,open,43.6412514,-0.5106808,http://museesamadet.landes.fr,+33 5 58 79 13 00,,,2006,payant:3496;gratuit:3823;total:7319;label-date:01/02/2003,label:musee de france,,Q3330530,M0086,
6406201,4335473543,Musée des Volcans,,Rue du Tennis,64260,Arudy,France,fr,open,43.1016426,-0.4297682,,,,,2006,payant:1079;gratuit:314;total:1393;label-date:01/02/2003,label:musee de france,,,,
6424901,71287357,Musée Saraléguinéa,165,Avenue du Général de Gaulle,64210,Guéthary,France,fr,open,43.4210745,-1.6090083003559483,https://www.musee-de-guethary.fr,+33 5 59 54 86 37,,contact@musee-de-guethary.fr,2006,payant:502;gratuit:1247;total:1749;label-date:01/02/2003,label:musee de france;label:monuments-historiques;type:monument-historique,,Q22975788,,PA00132937
6444503,6815484814,Musée,,Rue Mathieu Lalanne,64000,Pau,France,fr,open,43.2977315,-0.3645267,,,,,2006,payant:62148;gratuit:43823;total:105971;label-date:06/01/2002,label:musee de france,,,,
6444502,62924897,Musée Bernadotte,8,Rue Tran,64000,Pau,France,fr,open,43.2973383,-0.37256092903587607,,,,,2006,payant:3595;gratuit:0;total:3595;label-date:01/02/2003,label:musee de france,,,,
0319001,77184178,Musée Anne de Beaujeu,,Rue des Fausses Braies,03000,Moulins,France,fr,open,46.56717035,3.3300616836759867,,,,,2006,payant:4172;gratuit:4563;total:8735;label-date:01/02/2003,label:musee de france,,,,
0319501,,Musée Rieckotter,,,,NERIS-LES-BAINS,France,fr,open,,,,,,,2006,payant:433;gratuit:170;total:603;label-date:01/02/2003,label:musee de france,,,,
1501401,2085157238,musée du Veinazes,,Rue des Fourmillères,15120,Lacapelle-del-Fraisse,France,fr,open,44.7599649,2.4617902,,,,,2006,payant:4294;gratuit:10272;total:14566;label-date:01/02/2003,label:musee de france,,Q3330396,,
4315701,86361080,Musée Crozatier,2,Rue Antoine Martin,43000,Le Puy-en-Velay,France,fr,open,45.038547949999995,3.8831423625708483,,,,,2006,payant:12094;gratuit:11993;total:24087;label-date:01/02/2003,label:musee de france,,,,
6311301,67015490,Musée d'Art Roger Quilliot,,Place Louis Deteix,63100,Clermont-Ferrand,France,fr,open,45.79392705,3.1162223146769588,https://www.clermontmetropole.eu/bouger-se-divertir/le-dynamisme-culturel/les-musees-de-clermont-auvergne-metropole/marq-musee-dart-roger-quilliot/,+33 4 43 76 25 25,,,2006,payant:3129;gratuit:16843;total:19972;label-date:01/02/2003,label:musee de france,,Q1495869,M0121,
6330003,700609623,Musée Régional d'Auvergne,,Rue Delille,63200,Riom,France,fr,open,45.8949948,3.116100670697047,,,,,2006,payant:2122;gratuit:730;total:2852;label-date:01/02/2003,label:musee de france,,,,
6343001,161471210,Musée Municipal de la Coutellerie,,Rue de la Coutellerie,63300,Thiers,France,fr,open,45.852432,3.54815385,,,,,2006,payant:25003;gratuit:5157;total:30160;label-date:01/02/2003,label:musee de france,,,,
2103801,7419064530,Musée Bonaparte,,Place du Château,21130,Auxonne,France,fr,open,47.1915827,5.3833549,,,,,2006,payant:0;gratuit:3163;total:3163;label-date:01/02/2003,label:musee de france,,,,
2105404,1681385,Hospices de Beaune,,Place des Halles,21200,Beaune,France,fr,closed,47.0221265,4.836843691477009,,+33 3 80 24 56 92,,,2006,payant:0;gratuit:0;total:;label-date:01/02/2003,label:musee de france;label:monuments-historiques;type:monument-historique,,Q1284848,M1206,PA00112112
2126501,480527098,Musée Noisot,,Rue de la Perrière,21220,Fixin,France,fr,open,47.245420300000006,4.9624034254665155,,,,,2006,payant:319;gratuit:455;total:774;label-date:01/02/2003,label:musee de france,,,,
2146401,4737197736,Musée Municipal,,Rue Camille Rodier,21700,Nuits-Saint-Georges,France,fr,open,47.1386701,4.9505695,,,,,2006,payant:1091;gratuit:733;total:1824;label-date:01/02/2003,label:musee de france,,,,
5807901,2627307760,Musée d'Art et d'Histoire Romain Rolland,,Avenue de la République,58500,Clamecy,France,fr,open,47.4603634,3.5204872,,,,,2006,payant:1801;gratuit:3984;total:5785;label-date:01/02/2003,label:musee de france,,,,
5819402,568785642,Le Musée,,Rue Saint-Gildard,58000,Nevers,France,fr,closed,46.9918408,3.152364890153419,http://www.sainte-bernadette-nevers.com/,,,,2006,payant:0;gratuit:0;total:;label-date:01/02/2003,label:musee de france,,,,
5821501,,Musée Ernest Guédon,,,,POUILLY-SUR-LOIRE,France,fr,closed,,,,,,,2006,payant:0;gratuit:0;total:;label-date:01/02/2003,label:musee de france,,,,
5822701,,Musée du Grès de Puisaye,,,,SAINT-AMAND-EN-PUISAYE,France,fr,open,,,,,,,2006,payant:2628;gratuit:50;total:2678;label-date:01/02/2003,label:musee de france,,,,
7101401,7419064532,Musée Verger Tarin,,Rue des Marbres,71400,Autun,France,fr,closed,46.9490737,4.3029239,,,,,2006,payant:0;gratuit:0;total:;label-date:01/02/2003,label:musee de france,,,,
7107602,121572642,Musée Nicéphore Niepce,,Quai des Messageries,71100,Chalon-sur-Saône,France,fr,open,46.7802664,4.8554572593273075,,,,,2006,payant:5258;gratuit:13555;total:18813;label-date:01/02/2003,label:musee de france,,,,
7110602,2239784876,Musée du Prieuré de Charolles,4,Rue du Prieuré,71120,Charolles,France,fr,open,46.4323423,4.2799145,,,,,2006,payant:2228;gratuit:100;total:2328;label-date:01/02/2003,label:musee de france,,,,
7127501,2690539792,Musée de la Tour du Moulin,9,Rue de la Tour du Moulin,71110,Marcigny,France,fr,open,46.274612,4.0431847,,,,,2006,payant:1403;gratuit:255;total:1658;label-date:01/02/2003,label:musee de france,,,,
7127201,6575800688,Musée Départemental du Compagnonnage,,Rue Pierre François Guillon,71570,Romanèche-Thorins,France,fr,open,46.1880514,4.733891,,,,,2006,payant:2367;gratuit:1423;total:3790;label-date:01/02/2003,label:musee de france,,,,
7154302,7419064526,Musée Bourguignon -  Perrin de Puycousin,,Rue de l'Hôpital,71700,Tournus,France,fr,closed,46.562054,4.9109128,,,,,2006,payant:0;gratuit:0;total:;label-date:01/02/2003,label:musee de france,,,,
7156601,1840508168,Maison du Blé et du Pain,,Rue des Jardins,71350,Verdun-sur-le-Doubs,France,fr,open,46.8987867,5.0226253,,,,,2006,payant:3996;gratuit:642;total:4638;label-date:01/02/2003,label:musee de france,,,,
8927901,,Musée des Arts Naïfs et Populaires de Noyers sur Serein,,,,NOYERS-SUR-SEREIN,France,fr,open,,,,,,,2006,payant:1788;gratuit:1060;total:2848;label-date:01/02/2003,label:musee de france,,,,
8946401,5032323201,Musée Villeneuvien,,Rue Carnot,89500,Villeneuve-sur-Yonne,France,fr,open,48.0804462,3.2941602,,,,,2006,payant:0;gratuit:8328;total:8328;label-date:01/02/2003,label:musee de france,,,,
2227801,78123314,Musée d'Art et d'Histoire,,Cour Francis Renaud,22000,Saint-Brieuc,France,fr,open,48.51234775,-2.7619036982498804,,,,,2006,payant:0;gratuit:41811;total:41811;label-date:01/02/2003,label:musee de france,,,,
2903901,3986935,Musée de la Pêche,,Rue Militaire,29900,Concarneau,France,fr,open,47.87218475,-3.916013041508858,,,,,2006,payant:33612;gratuit:2343;total:35955;label-date:01/02/2003,label:musee de france,,,,
2904601,40686013,Le Port-Musée,,Place de l'Enfer,29100,Ploaré,France,fr,open,48.092424,-4.332596723404256,,,,,2006,payant:36163;gratuit:10325;total:46488;label-date:01/02/2003,label:musee de france,,,,
2921701,84081121,Musée de Pont-Aven,,Rue Louis Lomenech,29930,Pont-Aven,France,fr,open,47.8550965,-3.746406090032833,,,,,2006,payant:36609;gratuit:0;total:36609;label-date:01/02/2003,label:musee de france,,,,
2928901,1458523215,Musée de l'Ecole Rurale en Bretagne,,Route Départementale Numéro 60 de Landévennec à Dinéault,29560,Trégarvan,France,fr,open,48.2448847,-4.2263366,,,,,2006,payant:10288;gratuit:1151;total:11439;label-date:01/02/2003,label:musee de france,,,,
3528801,3275333600,Musée International du Long-Cours Cap-Hornier,,Cale Solidor,35400,Saint-Malo,France,fr,open,48.6340431,-2.0260137,,,,,2006,payant:6867;gratuit:3283;total:10150;label-date:01/02/2003,label:musee de france,,,,
5626002,145189774,Musée d'Histoire et d'Archéologie de Vannes,2,Rue Noé,56000,Vannes,France,fr,open,47.6568685,-2.7579838224637703,,,,,2006,payant:2561;gratuit:12594;total:15155;label-date:01/02/2003,label:musee de france,,,,
1803302,64598357,Musée des Arts Décoratifs,,Rue de l'Hôtel Lallemant,18000,Bourges,France,fr,open,47.0850865,2.3983016387544134,,,,,2006,payant:0;gratuit:17442;total:17442;label-date:01/02/2003,label:musee de france,,,,
2808503,,Musée des Beaux-Arts,,,,CHARTRES,France,fr,open,,,,,,,2006,payant:6760;gratuit:9582;total:16342;label-date:01/02/2003,label:musee de france,,,,
2836301,7659392646,Musée Farcot,,Rue de la Porte d'Étampes,28700,Sainville,France,fr,closed,48.4154704,1.8793028,,,,,2006,payant:0;gratuit:0;total:;label-date:01/02/2003,label:musee de france,,,,
3608801,238746663,Musée de l'Hospice Saint-Roch,,Rue de l'Hospice Saint-Roch,36100,Issoudun,France,fr,open,46.944976,1.9942319952380998,,,,,2006,payant:289;gratuit:15610;total:15899;label-date:02/05/2002,label:musee de france,,,,
3604601,,Musée George Sand et de la Vallée Noire,,,,LA CHATRE,France,fr,open,,,,,,,2006,payant:2879;gratuit:1031;total:3910;label-date:01/02/2003,label:musee de france,,,,
3609201,149263965,Musée L,3,Place des Sciences,1348,Ottignies-Louvain-la-Neuve,België / Belgique / Belgien,be,closed,50.6682538,4.620109526811595,http://www.museel.be,+32 10 47 48 41,,info@museel.be,2006,payant:0;gratuit:0;total:;label-date:01/02/2003,label:musee de france,,Q48773771,,
3713201,51827376,Musée Lansyer,1,Rue Lansyer,37600,Loches,France,fr,open,47.1270673,0.9977325383086448,,,,,2006,payant:1759;gratuit:1673;total:3432;label-date:01/02/2003,label:musee de france,,,,
3722601,2180497491,Maison du Souvenir,1,Rue de la Paix,37800,Maillé,France,fr,open,47.0523157,0.5806916,,,,,2006,payant:51;gratuit:0;total:51;label-date:01/02/2003,label:musee de france,,,,
3724801,1935506460,"Musée Rabelais, Maison La Devinière",,Rue de La Devinière,37500,Seuilly,France,fr,open,47.1405133,0.1784807,http://www.monuments-touraine.fr,+33 2 47 95 91 18,,,2006,payant:13155;gratuit:0;total:13155;label-date:30/04/2002,label:musee de france,,Q3329324,M0264,
4523401,367781410,French Cable Station Museum,41,South Orleans Road,02653,Orleans,United States,us,open,41.7878404,-69.987513,,,,,2006,payant:7671;gratuit:57841;total:65512;label-date:06/01/2002,label:musee de france,,Q5501700,,
0810503,1765207774,Musée de l'Ardenne,,Les Arcades,08000,Charleville-Mézières,France,fr,open,49.77272,4.7214458,,,,,2006,payant:4407;gratuit:68942;total:73349;label-date:01/02/2003,label:musee de france,,,,
0819001,5206948616,Musée de Givet,,Petite Place,08600,Givet,France,fr,closed,50.1354162,4.8239007,,,,,2006,payant:0;gratuit:0;total:;label-date:01/02/2003,label:musee de france,,,,
0836201,115500287,Musée Guerre et Paix en Ardennes,,Impasse du Musée,08270,Novion-Porcien,France,fr,closed,49.6002819,4.415982189901115,http://www.novion-porcien.com/Wiki!Musee_Guerre_Paix,,,,2006,payant:0;gratuit:0;total:;label-date:01/02/2003,label:musee de france,,Q3329185,,
1026101,,Musée de la Résistance,,,,MUSSY-SUR-SEINE,France,fr,open,,,,,,,2006,payant:0;gratuit:0;total:;label-date:01/02/2003,label:musee de france,,,,
1038703,73124719,Musée d'Art Moderne (Ancien Évêché),,Rue de la Crosse,10000,Troyes,France,fr,open,48.29995,4.082291342005172,http://www.musees-troyes.com/536-musee-d-art-moderne.htm,+333 25 76 26 80,,musart@ville-troyes.fr,2006,payant:3594;gratuit:3261;total:6855;label-date:01/02/2003,label:musee de france;label:monuments-historiques;type:monument-historique,,Q22915413,,PA00078262
1038704,,Musée des Beaux-Arts (Musée Pic Saint-Loup),,,,TROYES,France,fr,open,,,,,,,2006,payant:3204;gratuit:7134;total:10338;label-date:01/02/2003,label:musee de france,,,,
5226902,489598272,Musée d'Art et d'Histoire Guy Baillet,,Rue de la Coutellerie,52200,Langres,France,fr,open,47.8646223,5.333331557244431,http://www.musees-langres.fr,+33 3 25 86 86 86,,,2006,payant:0;gratuit:12623;total:12623;label-date:01/02/2003,label:musee de france;label:monuments-historiques;type:monument-historique,,Q22985193,M0321,PA00079095
5110801,323588585,Musée Municipal,,Place Godart,51000,Châlons-en-Champagne,France,fr,open,48.9564601,4.3638072,,,,,2006,payant:12428;gratuit:0;total:12428;label-date:01/02/2003,label:musee de france,,,,
5144501,418187,Pourcy,,,51480,Pourcy,France,fr,open,49.1574346,3.9081058,,,,,2006,payant:768;gratuit:0;total:768;label-date:01/02/2003,label:musee de france,,Q679485,,
5145404,1347407,Musée Saint-Rémi,,Rue Simon,51100,Reims,France,fr,open,49.243337,4.040392199495639,,,,,2006,payant:40654;gratuit:0;total:40654;label-date:01/02/2003,label:musee de france,,,,
2A00401,66274796,Musée Fesch,50-52,Rue Cardinal Fesch,20000,Ajaccio,France,fr,open,41.9218958,8.738913555286306,http://www.musee-fesch.com,+33 4 95 26 26 26,,,2006,payant:5527;gratuit:1597;total:7124;label-date:01/02/2003,label:musee de france,,Q2483597,M0324,
2B03301,590087366,Musée Mariana,,,20290,Lucciana,France,fr,closed,42.54204815,9.496920951519154,,,,,2006,payant:0;gratuit:0;total:;label-date:01/02/2003,label:musee de france,,,,
2B09601,6234663071,Musée de la Corse,,Place du Poilu,20250,Corte,France,fr,open,42.3058166,9.1484352,,,,,2006,payant:46027;gratuit:6027;total:52054;label-date:01/02/2003,label:musee de france,,,,
2505601,9493688,Musée des Beaux-Arts et d'Archéologie,,Place de la Révolution,25000,Besançon,France,fr,open,47.2402151,6.023512568897798,,,,,2006,payant:59858;gratuit:25714;total:85572;label-date:06/01/2002,label:musee de france,,,,
3919801,946483217,Musée des Beaux-Arts,,Rue des Arènes,39100,Dole,France,fr,open,47.0896386,5.4891469,,,,,2006,payant:0;gratuit:18976;total:18976;label-date:01/02/2003,label:musee de france,,,,
3950001,151950172,La Grande Saline - Musée du Sel,,Place des Salines,39110,Salins-les-Bains,France,fr,open,46.9376405,5.8761571935790275,http://www.salinesdesalins.com,+33 3 84 73 10 92,,,2006,payant:46042;gratuit:5072;total:51114;label-date:01/02/2003,label:musee de france,,,M0353,
9711701,1965845057,Musée Précolombien Edgar Clerc,,Route de la Plante,97160,Le Moule,France,fr,open,16.3396546,-61.3771244,,,,,2006,payant:0;gratuit:2691;total:2691;label-date:01/02/2003,label:musee de france,,,,
9712003,65839623,Musée l'Herminier,,Rue Sadi Carnot,97110,Pointe-à-Pitre,France,fr,closed,16.238335,-61.537012293084736,,,,,2006,payant:0;gratuit:0;total:;label-date:01/02/2003,label:musee de france,,,,
9712002,,Musée Départemental Victor Schoelcher,,,,POINTE-A-PITRE,France,fr,open,,,,,,,2006,payant:3600;gratuit:455;total:4055;label-date:01/02/2003,label:musee de france,,,,
9730901,9598387,Musée des Cultures Guyanaises,54,Rue Madame Payé,97300,Cayenne,France,fr,open,4.9412531,-52.32960007270078,,,,,2006,payant:0;gratuit:8524;total:8524;label-date:01/02/2003,label:musee de france,,,,
9730201,1024331366,Musée départemental Alexandre Franconie,1,Avenue du Général de Gaulle,97300,Cayenne,France,fr,open,4.9382912,-52.3344262,,+594 594 29 59 13,,,2006,payant:5786;gratuit:0;total:5786;label-date:01/02/2003,label:musee de france,,Q15260096,M1063,
9111401,48359053,Musée Robert Dubois-Corneau,,Rue de la Glacière,91800,Brunoy,France,fr,open,48.7003494,2.5007316063279736,http://www.ville-brunoy.fr/Brunoy.asp?idpage=3503,,,,2006,payant:829;gratuit:3198;total:4027;label-date:01/02/2003,label:musee de france,,Q3329327,,
9120001,2650356282,Château-Musée de Dourdan,,Rue du Marché aux Grains,91410,Dourdan,France,fr,open,48.5298686,2.0111955,,,,,2006,payant:9243;gratuit:6436;total:15679;label-date:01/02/2003,label:musee de france,,,,
9122301,3407370497,Musée Volant Salis,,Chemin du Fourneou,91590,Cerny,France,fr,open,48.4959939,2.343302,http://www.musee-volant-salis.fr/,,,,2006,payant:702;gratuit:6436;total:7138;label-date:01/02/2003,label:musee de france,,,,
9204802,,Musée - Atelier Rodin (Annexe du musée de Paris),,,,MEUDON,France,fr,open,,,,,,,2006,payant:2890;gratuit:3056;total:5946;label-date:06/01/2002,label:musee de france,,,,
7510512,7444,Paris,,,,Paris,France,fr,closed,48.8566969,2.3514616,http://www.paris.fr,,,,2006,payant:0;gratuit:0;total:;label-date:06/01/2002,label:musee de france,,Q90,,
7511618,4828705432,Boutique du Musée de la Poste,,Villa Marie Vassilieff,75015,Paris,France,fr,open,48.8434128,2.320792,museedelaposte.fr,+33 1 53 719849,,,2006,payant:77258;gratuit:32981;total:110239;label-date:06/01/2002,label:musee de france,,Q2445818,,
7510701,130102845,Musée de l'Armée,129,Rue de Grenelle,75007,Paris,France,fr,open,48.8570374,2.3118779,,,,,2006,payant:840731;gratuit:259269;total:1100000;label-date:06/01/2002,label:musee de france,,,,
7510501,56640163,Musée du Moyen Age-Thermes et Hôtel de Cluny,6,Place Paul Painlevé,75005,Paris,France,fr,open,48.85064945,2.3435643010185183,,,,,2006,payant:165910;gratuit:124048;total:289958;label-date:06/01/2002,label:musee de france,,,,
7510307,2405955,Musée Carnavalet-Histoire de Paris,,Rue Payenne,75003,Paris,France,fr,open,48.85732324999999,2.3624733783107805,,,,,2006,payant:291763;gratuit:505358;total:797121;label-date:08/07/2004,label:musee de france,,,,
7510706,895871273,Musée National de la Légion d'Honneur et des Ordres de Chevalerie,,Rue de la Légion d'Honneur,75007,Paris,France,fr,closed,48.8602845,2.3247488,,,,,2006,payant:0;gratuit:0;total:;label-date:06/01/2002,label:musee de france,,,,
7510905,84511123,Musée de la Vie Romantique,16,Rue Chaptal,75009,Paris,France,fr,open,48.88120505,2.333539383011497,,,,,2006,payant:39919;gratuit:31982;total:71901;label-date:08/07/2004,label:musee de france,,,,
7511502,1212876,Musée Bourdelle,16,Rue Antoine Bourdelle,75015,Paris,France,fr,open,48.843215,2.318663236817872,,,,,2006,payant:16782;gratuit:27277;total:44059;label-date:08/07/2004,label:musee de france,,,,
7511801,154679327,Musée de Montmartre,,Rue Cortot,75018,Paris,France,fr,open,48.88824985,2.340677614299779,,,,,2006,payant:42722;gratuit:4108;total:46830;label-date:01/02/2003,label:musee de france,,,,
7511603,,Etablissement Public du Musée des Arts Asiatiques Guimet,,,,PARIS,France,fr,open,,,,,,,2006,payant:170694;gratuit:93239;total:263933;label-date:06/01/2002,label:musee de france,,,,
7510603,64314872,Musée Hébert,,Rue Jean Ferrandi,75006,Paris,France,fr,closed,48.8473306,2.322685935644764,,,,,2006,payant:0;gratuit:0;total:;label-date:06/01/2002,label:musee de france,,,,
7510705,64314872,Etablissement public du musée d'Orsay,,Rue Jean Ferrandi,75006,Paris,France,fr,open,48.8473306,2.322685935644764,,,,,2006,payant:1823952;gratuit:1185251;total:3009203;label-date:06/01/2002,label:musee de france,,,,
7510106,7515426,Musée du Louvre,,Rue Croix des Petits Champs,75001,Paris,France,fr,open,48.8611473,2.33802768704666,,,,,2006,payant:5667000;gratuit:2647000;total:8314000;label-date:06/01/2002,label:musee de france,,,,
7510304,5918699678,Le Musée,,Rue Joliot-Curie,91190,Le Moulon,France,fr,open,48.7094092,2.1666145,,,,,2006,payant:184484;gratuit:0;total:184484;label-date:06/01/2002,label:musee de france,,,,
7510402,5918699678,Le Musée,,Rue Joliot-Curie,91190,Le Moulon,France,fr,open,48.7094092,2.1666145,,,,,2006,payant:2711331;gratuit:0;total:2711331;label-date:06/01/2002,label:musee de france,,,,
7724301,113256131,Musée Gatien Bonnet,,Cour Pierre Herbin,77400,Lagny-sur-Marne,France,fr,open,48.879835,2.707439,,,,,2006,payant:1630;gratuit:3370;total:5000;label-date:01/02/2003,label:musee de france,,,,
9304801,4247776290,Musée de l'Histoire Vivante,31,Boulevard Théophile Sueur,93100,Bobigny,France,fr,open,48.8660128,2.4718198,,,,,2006,payant:3905;gratuit:0;total:3905;label-date:01/02/2003,label:musee de france,,,,
9401701,109523782,Musée de la Résistance Nationale,,Avenue Marx Dormoy,94500,Champigny-sur-Marne,France,fr,open,48.807266999999996,2.5252640000000017,,,,,2006,payant:0;gratuit:0;total:;label-date:01/02/2003,label:musee de france,,,,
9404601,2751882654,Musée Fragonard,,Avenue du Général de Gaulle,94700,Maisons-Alfort,France,fr,open,48.8128139,2.4233528,,,,,2006,payant:4052;gratuit:0;total:4052;label-date:2006-07-05 00:00:00,label:musee de france,,,,
9405201,1788374144,Musée de Nogent-Sur-Marne,36,Boulevard Gallieni,94130,Nogent-sur-Marne,France,fr,open,48.840397,2.4849183,,,,,2006,payant:0;gratuit:5856;total:5856;label-date:01/02/2003,label:musee de france,,,,
9407901,88361814,Musée Emile Jean,31,Rue Louis Lenoir,94350,Villiers-sur-Marne,France,fr,open,48.8266444,2.5427938543330155,,,,,2006,payant:0;gratuit:370;total:370;label-date:01/02/2003,label:musee de france,,,,
9550001,43971811,Musée Tavet Delacour,,Rue Lemercier,95300,Pontoise,France,fr,open,49.051103499999996,2.0996586365287904,,,,,2006,payant:2080;gratuit:3667;total:5747;label-date:01/02/2003,label:musee de france,,,,
9535101,4542685707,Archéa,56,Rue de Paris,95380,Louvres,France,fr,closed,49.041052,2.5072634,http://archea.roissypaysdefrance.fr,+33 1 34 09 01 02,,,2006,payant:0;gratuit:0;total:;label-date:01/02/2003,label:musee de france,,Q2860590,,
7817201,,Musée de la Batellerie et des Voies Navigables,,,,CONFLANS-SAINTE-HONORINE,France,fr,open,,,,,,,2006,payant:10176;gratuit:1670;total:11846;label-date:01/02/2003,label:musee de france,,,,
7832201,413276082,Musée de la Toile de Jouy,54,Rue Charles de Gaulle,78350,Les Loges-en-Josas,France,fr,open,48.76918135,2.1520865703763596,,,,,2006,payant:9850;gratuit:0;total:9850;label-date:01/02/2003,label:musee de france,,,,
7835601,823061902,Musée National de Port Royal des Champs,,Route Forestière de Font Couverte,78114,Trappes,France,fr,open,48.7479939,2.0152509,,,,,2006,payant:7264;gratuit:12311;total:19575;label-date:06/01/2002,label:musee de france,,,,
7836101,1733134564,Musée de l'Hôtel-Dieu,1,Rue Thiers,78200,Mantes-la-Jolie,France,fr,open,48.9901391,1.7194536,,,,,2006,payant:5474;gratuit:1465;total:6939;label-date:01/02/2003,label:musee de france,,,,
7849802,38327851,Villa Savoye,82,Rue de Villiers,78300,Poissy,France,fr,closed,48.924420600000005,2.028297560090527,http://www.villa-savoye.fr,+33 1 39 65 01 06,,,2006,payant:0;gratuit:0;total:;label-date:01/02/2003,label:musee de france;label:monuments-historiques;type:monument-historique,,Q940746,,PA00087573
7855102,1743396701,Musée Claude Debussy,38,Rue au Pain,78100,Saint-Germain-en-Laye,France,fr,closed,48.8968516,2.0926968,,,,,2006,payant:0;gratuit:0;total:;label-date:01/02/2003,label:musee de france,,Q3329114,,
9741102,146937367,Muséum d'Histoire Naturelle,,Rue Poivre,97400,Saint-Denis,France,fr,open,-20.8874571,55.451628083719484,,,,,2006,payant:4720;gratuit:22953;total:27673;label-date:06/01/2002,label:musee de france,,,,
1126202,92058703,Musée Lapidaire,,Rue des Jacobins,11100,Narbonne,France,fr,open,43.1809595,3.004147255208337,,,,,2006,payant:0;gratuit:0;total:;label-date:2002-06-13 00:00:00,label:musee de france;label:monuments-historiques;type:monument-historique,,Q3344678,,PA00102802
3403202,1474240591,Musée du Biterrois,,Rampe du 96e Régiment d'Infanterie,34500,Béziers,France,fr,open,43.3382478,3.2149323,,,,,2006,payant:0;gratuit:0;total:;label-date:01/02/2003,label:musee de france,,,,
3411901,425241849,Musée de la Cloche et de la Sonnaille,,Avenue des Treize Vents,34600,Hérépian,France,fr,closed,43.59457755,3.112557793850808,,,,,2006,payant:0;gratuit:0;total:;label-date:01/02/2003,label:musee de france,,,,
3412901,,Site Archéologique Lattara - Musée Henri Prades de Montpellier Agglomération,,,,LATTES,France,fr,open,,,,,,,2006,payant:3608;gratuit:5477;total:9085;label-date:01/02/2003,label:musee de france,,,,
3414201,5835417743,Musée Fleury,,Rue du Cardinal Fleury,34700,Lodève,France,fr,open,43.7318449,3.31993,,,,,2006,payant:59392;gratuit:12532;total:71924;label-date:01/02/2003,label:musee de france,,,,
3417206,2192962,Agropolis-Muséum,,Avenue Agropolis,34093,Montpellier,France,fr,open,43.6462942,3.8679405365376005,,,,,2006,payant:25000;gratuit:0;total:25000;label-date:01/02/2003,label:musee de france,,,,
6613601,1227556,Musée d'art Hyacinthe Rigaud,,Rue de l'Ange,66000,Perpignan,France,fr,open,42.6979518,2.8933879010617485,http://www.musee-rigaud.fr/fr,+33 4 68 66 19 83,,,2006,payant:6327;gratuit:12351;total:18678;label-date:01/02/2003,label:musee de france,,Q3329201,M0491,
6620501,188829574,Musée de Tautavel,,Avenue Louis Baixas,66720,Tautavel,France,fr,open,42.815132000000006,2.7501767068631207,,,,,2006,payant:73887;gratuit:12344;total:86231;label-date:01/02/2003,label:musee de france,,,,
2309601,6222152324,Musée de l'électrification,,Route de la Cascade,23400,Bourganeuf,France,fr,open,45.9496263,1.7563312,,,,,2006,payant:5521;gratuit:5822;total:11343;label-date:01/02/2003,label:musee de france,,Q3329870,,
8712601,2861736187,Musée Départemental d'Art Contemporain,,Place du Château,87600,Rochechouart,France,fr,open,45.821447,0.8190893,,,,,2006,payant:6556;gratuit:5673;total:12229;label-date:01/02/2003,label:musee de france,,,,
5439504,,Palais des ducs de Lorraine - Musée Historique Lorrain,,,,NANCY,France,fr,open,,,,,,,2006,payant:24983;gratuit:30924;total:55907;label-date:01/02/2003,label:musee de france,,,,
5443101,,"""Musée """"au Fil du Papier""""""",,,,PONT-A-MOUSSON,France,fr,open,,,,,,,2006,payant:2645;gratuit:2800;total:5445;label-date:01/02/2003,label:musee de france,,,,
5512201,1874334984,Musée de la Céramique et de l'Ivoire,,Avenue Carcano,55200,Commercy,France,fr,open,48.7634869,5.589335,,,,,2006,payant:2470;gratuit:779;total:3249;label-date:01/02/2003,label:musee de france,,,,
5546701,6051104311,Musée Départemental Raymond Poincaré,14,Rue du Château,55300,Sampigny,France,fr,open,48.827556,5.5077794,,,,,2006,payant:280;gratuit:1128;total:1408;label-date:01/02/2003,label:musee de france,,,,
5746302,63234063,Musées de la Cour d'Or,,Rue de la Boucherie Saint-George,57045,Metz,France,fr,open,49.1213164,6.1785251006900825,,,,,2006,payant:8135;gratuit:20007;total:28142;label-date:01/02/2003,label:musee de france,,,,
0918101,3127357651,Musée de la Préhistoire,,Place de l'Église,09290,Le Mas-d'Azil,France,fr,open,43.0800307,1.3600366,,,,,2006,payant:10886;gratuit:0;total:10886;label-date:01/02/2003,label:musee de france,,,,
0920701,3241536133,Château de Foix,,Rue du Rocher,09000,Foix,France,fr,open,42.9657002,1.6047597,https://musees-occitanie.fr/musees/chateau-des-comtes-de-foix,+33 5 61 05 10 10,,,2006,payant:26217;gratuit:2317;total:28534;label-date:01/02/2003,label:musee de france;label:monuments-historiques;type:monument-historique,,Q1011806,M0543,PA00093793
0926801,2833497965,Musée du Palais des Evêques,,Chemin du Parc,09190,Saint-Lizier,France,fr,open,43.0027248,1.1370459,,,,,2006,payant:5539;gratuit:1003;total:6542;label-date:01/02/2003,label:musee de france,,,,
1208901,4163135490,Musée Pierre Vetter,,Rue Emma Calvé,12300,Saint-Michel,France,fr,open,44.5542939,2.2583993,,+33 5 65 43 30 08,,museevetter.decazeville@wanadoo.fr,2006,payant:1410;gratuit:2375;total:3785;label-date:01/02/2003,label:musee de france,,,,
1209601,152864630,Musée du Rouergue,,Place Pierre Frontin,12500,Espalion,France,fr,open,44.5211405,2.7606325085458474,http://musees.aveyron.fr,+33 5 65 44 19 91,,,2006,payant:501;gratuit:79;total:580;label-date:01/02/2003,label:musee de france,,,M0547,
1220201,124625026,Musée Fenaille,14,Place Eugène Raynaldy,12000,Rodez,France,fr,open,44.3490972,2.5765922842984468,,,,,2006,payant:8532;gratuit:10358;total:18890;label-date:01/02/2003,label:musee de france,,,,
1220204,228699419,Musée Soulages,,Carrefour de l'Agriculture,12000,Rodez,France,fr,closed,44.35221355,2.5677506427040724,,,,,2006,payant:0;gratuit:0;total:;label-date:2005-12-20 00:00:00,label:musee de france,,,,
1225501,132379474,Musée du charroi rural,,Route de Valence à Salmiech,12120,Salmiech,France,fr,open,44.179696,2.5702957238739876,http://www.musee-charroi-rural-salmiech.fr/,,,,2006,payant:0;gratuit:2000;total:2000;label-date:01/02/2003,label:musee de france,,Q23640611,,
3033401,2910313011,Musée George Borias,,Promendade Racine,30700,Uzès,France,fr,open,44.0124548,4.422769,http://uzesmusee.blogspot.fr/,+33 4 66 22 40 23,,,2006,payant:1129;gratuit:1451;total:2580;label-date:01/02/2003,label:musee de france,,,,
3216001,43270337,Musée Campanaire,,Place de l'Hôtel de Ville,32600,L'Isle-Jourdain,France,fr,open,43.6130002,1.082133198397282,,,,,2006,payant:6714;gratuit:4955;total:11669;label-date:01/02/2003,label:musee de france,,,,
3155501,22718219,Musée des Augustins,,Rue Antonin Mercié,31000,Toulouse,France,fr,open,43.6009417,1.4463433320120154,https://www.augustins.org/,+33 5 61 22 21 82,,,2006,payant:30781;gratuit:82999;total:113780;label-date:01/02/2003,label:musee de france;label:monuments-historiques;type:monument-historique,,Q3001664,M0562,PA00094510
3155503,833971998,Musée Paul Dupuy,,Rue de la Pleau,31000,Toulouse,France,fr,open,43.5969961,1.4469176608344112,,,,,2006,payant:7575;gratuit:7220;total:14795;label-date:01/02/2003,label:musee de france,,,,
3155504,22718219,Musée des Augustins,,Rue Antonin Mercié,31000,Toulouse,France,fr,open,43.6009417,1.4463433320120154,,,,,2006,payant:40747;gratuit:60062;total:100809;label-date:06/01/2002,label:musee de france,,,,
6530601,,Musée-château Gaston Phébus,,,,MAUVEZIN,France,fr,open,,,,,,,2006,payant:29982;gratuit:0;total:29982;label-date:01/02/2003,label:musee de france,,,,
4610201,6407717146,Musée du Vieux Figeac,,Route de Cahors,46330,Orniac,France,fr,open,44.5194917,1.6810841,,,,,2006,payant:786;gratuit:362;total:1148;label-date:01/02/2003,label:musee de france,,,,
4629901,,Musée Départemental de Cuzals,,,,SAULIAC-SUR-CELE,France,fr,open,,,,,,,2006,payant:8609;gratuit:2082;total:10691;label-date:01/02/2003,label:musee de france,,,,
8109901,1794967910,Musée des Beaux-Arts,,Boulevard Foucault,81600,Gaillac,France,fr,open,43.8949812,1.8980683,,,,,2006,payant:3941;gratuit:3225;total:7166;label-date:01/02/2003,label:musee de france,,,,
8114501,,Musée Raymond Lafage,,,,LISLE-SUR-TARN,France,fr,open,,,,,,,2006,payant:487;gratuit:2287;total:2774;label-date:01/02/2003,label:musee de france,,,,
5912202,626582331,Musée des Beaux-Arts,,Rue des Incas,59300,Valenciennes,France,fr,closed,50.3575723,3.5306353,https://valenciennesmusee.valenciennes.fr/,+33 3 27 22 57 20,,,2006,payant:0;gratuit:0;total:;label-date:01/02/2003,label:musee de france,,,M0638,
5913601,75875248,Musée Matisse,,Rue Charles Seydoux,59360,Le Cateau-Cambrésis,France,fr,open,50.10631,3.5407261226588345,http://www.cg59.fr/FrontOffice/UserFiles/File/Musee_Matisse/default.html,+33 3 27 84 64 50,,,2006,payant:23219;gratuit:44541;total:67760;label-date:01/02/2003,label:musee de france,,,M0627,
5934501,,"Musée de la Mine, Centre Historique Minier",,,,LEWARDE,France,fr,open,,,,,,,2006,payant:136879;gratuit:13027;total:149906;label-date:01/02/2003,label:musee de france,,,,
5951201,,Musée des Beaux-Arts,,,,ROUBAIX,France,fr,open,,,,,,,2006,payant:165000;gratuit:0;total:165000;label-date:01/02/2003,label:musee de france,,,,
5952601,2060779461,Musée de la Tour Abbatiale,,Grand'Place,59230,Saint-Amand-les-Eaux,France,fr,open,50.4489646,3.4287208,https://www.saint-amand-les-eaux.fr/musee-de-la-tour-abbatiale,+33 3 27 22 24 55,,,2006,payant:2124;gratuit:3624;total:5748;label-date:01/02/2003,label:musee de france,,,M0635,
5959901,2268074792,Musée du 5 juin 1944 - Message Verlaine,,Avenue de la Marne,59200,Tourcoing,France,fr,open,50.7119447,3.1550369,http://www.museedu5juin1944.asso.fr/,+33 3 20 24 25 00,,,2006,payant:0;gratuit:24282;total:24282;label-date:01/02/2003,label:musee de france,,Q3330321,,
6210801,132178089,Musée Berck-sur-Mer,,Rue de l'Impératrice,62600,Berck,France,fr,open,50.4049725,1.567720001351351,http://www.berck.fr/sortir/musée,,,,2006,payant:3171;gratuit:7612;total:10783;label-date:05/04/2002,label:musee de france,,,,
6211901,8264025342,Musée de la Mine,457,Cours Promenade Kennedy,62700,Bruay-la-Buissière,France,fr,closed,50.4787367,2.5372076,,,,,2006,payant:0;gratuit:0;total:;label-date:01/02/2003,label:musee de france,,,,
1411802,155642549,Musée de Normandie,,Allée du Chat qui Veille,14000,Caen,France,fr,open,49.18563295,-0.3632591181335702,,,,,2006,payant:9954;gratuit:115439;total:125393;label-date:06/01/2002,label:musee de france,,,,
1411803,6041330527,Musée d'Initiation à la Nature,,Rue du Carel,14000,Caen,France,fr,open,49.1801396,-0.3735491,,,,,2006,payant:0;gratuit:5323;total:5323;label-date:01/02/2003,label:musee de france,,,,
1447801,5867247985,Musée Municipal,107,Rue Grande,14290,Orbec,France,fr,open,49.0222179,0.4065429,,,,,2006,payant:750;gratuit:1750;total:2500;label-date:01/02/2003,label:musee de france,,,,
1465401,,Musée des Techniques Fromagères,,,,SAINT-PIERRE-SUR-DIVES,France,fr,open,,,,,,,2006,payant:37;gratuit:78;total:115;label-date:01/02/2003,label:musee de france,,,,
5014701,68664267,Musée Quesnel-Morinière,2,Rue Quesnel-Morinière,50200,Coutances,France,fr,open,49.0472298,-1.4467416238048025,,,,,2006,payant:1143;gratuit:3270;total:4413;label-date:01/02/2003,label:musee de france,,,,
5021801,5864155897,Musée Richard Anacréon,,Rue Notre-Dame,50400,Granville,France,fr,open,48.8385103,-1.6006345,,,,,2006,payant:4431;gratuit:4787;total:9218;label-date:01/02/2003,label:musee de france,,,,
5021803,135528003,Musée Christian Dior,,Rue du Docteur Ollivier,50400,Granville,France,fr,open,48.8429745,-1.592543481481478,,,,,2006,payant:25293;gratuit:0;total:25293;label-date:01/02/2003,label:musee de france,,,,
5050201,3446879240,Musée des Beaux-Arts,,Place du Champ de Mars,50000,Saint-Lô,France,fr,open,49.1170485,-1.0881118,,,,,2006,payant:9367;gratuit:0;total:9367;label-date:01/02/2003,label:musee de france,,,,
5052501,,Musée du Granit,,,,SAINT-MICHEL-DE-MONTJOIE,France,fr,open,,,,,,,2006,payant:2130;gratuit:94;total:2224;label-date:01/02/2003,label:musee de france,,,,
6116901,11561463,"La Ferme d'en Haut, Maison Folie",268,Rue Jules Guesde,59650,Villeneuve-d'Ascq,France,fr,open,50.638618050000005,3.1301791408474804,https://www.villeneuvedascq.fr/ferme_haut.html,+33 3 20 61 01 46,,lafermedenhaut@villeneuvedascq.fr,2006,payant:2393;gratuit:2537;total:4930;label-date:11/11/2002,label:musee de france,,,,
2716501,,Musée du Verre et de la Pierre,,,,CONCHES-EN-OUCHE,France,fr,open,,,,,,,2006,payant:1263;gratuit:2623;total:3886;label-date:01/02/2003,label:musee de france,,,,
2722901,,Musée de l'Ancien Evêché,,,,EVREUX,France,fr,open,,,,,,,2006,payant:9480;gratuit:0;total:9480;label-date:01/02/2003,label:musee de france,,,,
2718301,581537349,Musée des instruments à vent,,D 833,27750,La Couture-Boussey,France,fr,open,48.897542200000004,1.4077339068504382,,,,,2006,payant:2436;gratuit:852;total:3288;label-date:01/02/2003,label:musee de france,,Q3330251,,
7616402,2382698870,Maison des Templiers,,Rue Thomas Bazin,76490,Rouen,France,fr,open,49.5253513,0.7258829,,,,,2006,payant:546;gratuit:434;total:980;label-date:01/02/2003,label:musee de france,,,,
7616401,479793340,Museoseine,,Véloroute du Val de Seine,76490,Rouen,France,fr,open,49.5243684,0.7222076852299901,,,,,2006,payant:3142;gratuit:1146;total:4288;label-date:01/02/2003,label:musee de france,,,,
7625902,,Musée des Arts & de l'Enfance,,,,FECAMP,France,fr,closed,,,,,,,2006,payant:0;gratuit:0;total:;label-date:01/02/2003,label:musee de france,,,,
7649701,69426369,Musée Pierre Corneille,502,Rue Pierre Corneille,76650,Petit-Couronne,France,fr,open,49.38956865,1.0212361735096276,https://museepierrecorneille.fr,+33 2 35 68 13 89,,,2006,payant:1467;gratuit:4643;total:6110;label-date:01/02/2003,label:musee de france,,Q3329311,,
4410901,6742735,Muséum d'Histoire Naturelle de Nantes,12,Rue Voltaire,44000,Nantes,France,fr,open,47.2125868,-1.5647028649250418,,,,,2006,payant:12343;gratuit:39580;total:51923;label-date:06/01/2002,label:musee de france,,,,
4410904,6808838,Musée du Château des Ducs de Bretagne,4,Place Marc Elder,44000,Nantes,France,fr,closed,47.21609735,-1.5499958913608,,,,,2006,payant:0;gratuit:0;total:;label-date:01/02/2003,label:musee de france,,,,
4417501,,Musée du Chaume/Kerhinet - Pard Naturel Régional de Brière,,,,SAINT-LYPHARD,France,fr,open,,,,,,,2006,payant:3005;gratuit:1443;total:4448;label-date:01/02/2003,label:musee de france,,,,
4900703,624532610,Musée Jean Lurcat et de la Tapisserie Contemporaine,,Rue Gay-Lussac,49035,Angers,France,fr,open,47.4780639,-0.5575814,,,,,2006,payant:13267;gratuit:43474;total:56741;label-date:01/02/2003,label:musee de france,,,,
4901801,1455968994,Musée d’art et d’histoire de Baugé,,Rue du Mail,,Baugé,France,fr,open,47.5414021,-0.1018237,,,,,2006,payant:3503;gratuit:1068;total:4571;label-date:01/02/2003,label:musee de france,,,,
4929201,2427017251,Musée de la Vigne et du Vin d'Anjou,,Rue de la Coudraye,49750,Angers,France,fr,open,47.2999784,-0.6335965,,,,,2006,payant:4794;gratuit:1727;total:6521;label-date:17/06/2002,label:musee de france,,,,
5300301,277287315,Musée des Tisserands,,Place Billard de Veaux,53300,Ambrières-les-Vallées,France,fr,open,48.403429,-0.6308390478723407,http://www.ambriereslesvallees.mairie53.fr/musee-des-tisserands,,,,2006,payant:798;gratuit:91;total:889;label-date:01/02/2003,label:musee de france,,,M0761,
5306201,,Musée d'Art et d'Archéologie Hôtel Fouquet,,,,CHATEAU-GONTIER,France,fr,closed,,,,,,,2006,payant:0;gratuit:0;total:;label-date:01/02/2003,label:musee de france,,,,
5309601,,Musée Municipal,,,,ERNEE,France,fr,open,,,,,,,2006,payant:0;gratuit:0;total:;label-date:01/02/2003,label:musee de france,,,,
5312201,8292313,Musée Archéologique Départemental de Jublains,,Rue de la Libération,53160,Jublains,France,fr,open,48.2545411,-0.4975843742117564,,,,,2006,payant:9422;gratuit:23223;total:32645;label-date:18/07/2002,label:musee de france,,,,
7218101,31113389,Musée de Tessé,2,Avenue de Paderborn,72000,Le Mans,France,fr,open,48.01029025,0.20354701794554617,,,,,2006,payant:14485;gratuit:14312;total:28797;label-date:06/01/2002,label:musee de france,,,,
8501201,,Ecomusée du Marais Breton Vendéen,,,,LA BARRE-DE-MONTS,France,fr,open,,,,,,,2006,payant:20794;gratuit:9736;total:30530;label-date:01/02/2003,label:musee de france,,,,
8514601,76083845,Pavillon des Nourrices,,Place de l'Hôtel de Ville,85600,Montaigu,France,fr,open,46.974196,-1.3132451686989501,,,,,2006,payant:0;gratuit:1705;total:1705;label-date:01/02/2003,label:musee de france,,,,
8515401,,Musée Clemenceau et de Lattre-de-Tassigny,,,,MOUILLERON-EN-PAREDS,France,fr,open,,,,,,,2006,payant:1722;gratuit:2140;total:3862;label-date:06/01/2002,label:musee de france,,,,
0268401,,Musée de la Vie Rurale et Forestière,,,,SAINT-MICHEL-EN-THIERACHE,France,fr,open,,,,,,,2006,payant:3187;gratuit:0;total:3187;label-date:01/02/2003,label:musee de france,,,,
0269102,,Musée des Beaux-Arts Antoine Lecuyer,,,,SAINT-QUENTIN,France,fr,open,,,,,,,2006,payant:5670;gratuit:5870;total:11540;label-date:01/02/2003,label:musee de france,,,,
0281001,2306316571,Musée Alexandre Dumas,,Rue Démoustier,02600,Villers-Cotterêts,France,fr,open,49.2530103,3.0896156,,,,,2006,payant:1425;gratuit:0;total:1425;label-date:01/02/2003,label:musee de france,,,,
6047101,2403483347,Musée du Noyonnais,,Rue de l'Évéché,60400,Noyon,France,fr,open,49.5815691,3.0004427,,,,,2006,payant:676;gratuit:2778;total:3454;label-date:01/02/2003,label:musee de france,,,,
6061202,142255492,Musée d'Art et d'Archéologie,,Place Notre-Dame,60300,Senlis,France,fr,open,49.2064225,2.5866285006288354,,,,,2006,payant:3118;gratuit:1336;total:4454;label-date:01/02/2003,label:musee de france,,,,
8025301,53222058,Rue du Musée,,Rue du Musée,80600,Doullens,France,fr,closed,50.1546836,2.3437442,,,,,2006,payant:0;gratuit:0;total:;label-date:01/02/2003,label:musee de france,,,,
1716801,92529363,Musée Régional de Fouras,,Place Vauban,17450,Fouras,France,fr,open,45.986003999999994,-1.0975170518659043,,,,,2006,payant:5968;gratuit:5077;total:11045;label-date:01/02/2003,label:musee de france,,,,
1730002,2403784182,Musée du Nouveau Monde,,Rue Fleuriau,17000,La Rochelle,France,fr,open,46.161682,-1.1515984,,,,,2006,payant:10904;gratuit:0;total:10904;label-date:26/05/2002,label:musee de france,,,,
1721801,,Musée Cappon,,,,MARANS,France,fr,closed,,,,,,,2006,payant:0;gratuit:0;total:;label-date:01/02/2003,label:musee de france,,,,
1729902,90818543,Musée de la Maison de Pierre Loti,141,Rue Pierre Loti,17300,Rochefort,France,fr,open,45.934017499999996,-0.9629422086382118,,,,,2006,payant:26784;gratuit:2902;total:29686;label-date:28/03/2002,label:musee de france,,,,
7920201,7281748506,Musée d'Art et d'Histoire Georges Turpin,1,Rue de la Vau Saint-Jacques,79200,Parthenay,France,fr,open,46.6519796,-0.2493419,,,,,2006,payant:782;gratuit:5601;total:6383;label-date:01/02/2003,label:musee de france,,,,
8606603,,"Musée de la Moto, de l'Automobile et du Vélo",,,,CHATELLERAULT,France,fr,open,,,,,,,2006,payant:10089;gratuit:1734;total:11823;label-date:01/02/2003,label:musee de france,,,,
8613701,6957982158,Musée Charbonneau-Lassay,,Rue du Martray,86200,Loudun,France,fr,open,47.0100455,0.0757517,,,,,2006,payant:192;gratuit:124;total:316;label-date:01/02/2003,label:musee de france,,,,
0407001,570290612,Musée Gassendi,64,Boulevard Gassendi,04000,Digne-les-Bains,France,fr,open,44.09366125,6.238406603731345,,,,,2006,payant:9182;gratuit:0;total:9182;label-date:01/02/2003,label:musee de france,,,,
0602701,63863191,Musée-Château de Cagnes,,Chemin des Collettes,06800,Cagnes-sur-Mer,France,fr,open,43.667673699999995,7.156948252321393,,,,,2006,payant:15927;gratuit:16194;total:32121;label-date:01/02/2003,label:musee de france,,,,
0602901,64917198,Musée de la Castre,,Place de la Castre,,Cannes,France,fr,open,43.5501472,7.010204428560124,,,,,2006,payant:14831;gratuit:11406;total:26237;label-date:01/02/2003,label:musee de france,,,,
0606903,67332908,Musée International de la Parfumerie,,Boulevard du Jeu de Ballon,06130,Grasse,France,fr,closed,43.65805315,6.92185503385852,,,,,2006,payant:0;gratuit:0;total:;label-date:01/02/2003,label:musee de france,,,,
0603001,67152119,Musée Bonnard,,Rue des Prés,06110,Le Cannet,France,fr,closed,43.576493400000004,7.019928487377124,,,,,2006,payant:0;gratuit:0;total:;label-date:2006-12-06 00:00:00,label:musee de france,,,,
0608804,708311359,Musée d'Art Naïf Anatole Jakovsky,,Avenue du Rond-Point,06206,Nice,France,fr,open,43.685953749999996,7.232618735926904,,,,,2006,payant:4331;gratuit:16442;total:20773;label-date:01/02/2003,label:musee de france,,,,
0608809,,Musée du Vieux-Logis de Nice,,,,NICE,France,fr,open,,,,,,,2006,payant:0;gratuit:427;total:427;label-date:01/02/2003,label:musee de france,,,,
0608810,,Musée Archéologique - Site de Terra Amata,,,,NICE,France,fr,open,,,,,,,2006,payant:2459;gratuit:12055;total:14514;label-date:01/02/2003,label:musee de france,,,,
0609801,149921556,Ecomusée du Pays de la Roudoule,,Placette de l'Europe,06260,Puget-Rostang,France,fr,open,43.9741388,6.918903152040816,,,,,2006,payant:954;gratuit:750;total:1704;label-date:01/02/2003,label:musee de france,,,,
1300101,34505703,Musée Granet,,Rue Cardinale,13626,Aix-en-Provence,France,fr,open,43.5254678,5.4526102,,,,,2006,payant:4563;gratuit:9033;total:13596;label-date:01/02/2003,label:musee de france,,Q965780,,
1303801,,Musée Alphonse Daudet,,,,FONTVIEILLE,France,fr,open,,,,,,,2006,payant:35492;gratuit:804;total:36296;label-date:01/02/2003,label:musee de france,,,,
1301103,446697908,Musée des Santons,,Place Louis Jou,13520,Les Baux-de-Provence,France,fr,open,43.74474145,4.794991401666666,,,,,2006,payant:222072;gratuit:23343;total:245415;label-date:01/02/2003,label:musee de france,,Q47486159,,
1301104,,Fondation Louis Jou,,,,LES-BAUX-DE-PROVENCE,France,fr,open,,,,,,,2006,payant:357;gratuit:507;total:864;label-date:01/02/2003,label:musee de france,,,,
1305503,154561855,Musée Borély,,Avenue Clot Bey,13008,Marseille,France,fr,closed,43.2573485,5.381981791666665,,,,,2006,payant:0;gratuit:0;total:;label-date:01/02/2003,label:musee de france,,,,
1320601,69139913,Musée Cantini,,Rue Grignan,13006,Marseille,France,fr,open,43.292207399999995,5.378208413712626,,,,,2006,payant:30005;gratuit:30223;total:60228;label-date:01/02/2003,label:musee de france,,,,
1305601,99114044,Musée Ziem,,Boulevard du 14 Juillet,13500,Martigues,France,fr,open,43.408675849999995,5.054218764027318,,,,,2006,payant:0;gratuit:8226;total:8226;label-date:01/02/2003,label:musee de france,,,,
1309201,,Musée Municipal Paul Lafran,,,,SAINT-CHAMAS,France,fr,open,,,,,,,2006,payant:0;gratuit:2644;total:2644;label-date:01/02/2003,label:musee de france,,,,
1310302,,Musée de Salon et de la Crau,,,,SALON-DE-PROVENCE,France,fr,closed,,,,,,,2006,payant:0;gratuit:0;total:;label-date:01/02/2003,label:musee de france,,,,
8305004,2391557653,Musée de l'Artillerie,,Avenue des Ecoles Militaires,83300,Draguignan,France,fr,open,43.5269481,6.497204,,,,,2006,payant:0;gratuit:18172;total:18172;label-date:2006-07-05 00:00:00,label:musee de france,,,,
8306901,112363959,Musée de la Gendarmerie nationale,1-3,Rue Émile Leclerc,77000,Melun,France,fr,open,48.54554555,2.6529119346368715,http://www.gendarmerie.interieur.gouv.fr/musee/,+33 1 64 14 54 64,,,2006,payant:0;gratuit:48614;total:48614;label-date:01/02/2003,label:musee de france,,Q23057803,,
8311901,179780946,Musée de l'Annonciade,,Place Georges Grammont,83990,Saint-Tropez,France,fr,open,43.271077,6.637054030608436,,,,,2006,payant:35802;gratuit:6839;total:42641;label-date:01/02/2003,label:musee de france,,,,
8313701,3812465952,Muséum,,Avenue Louis Blériot,83200,Toulon,France,fr,open,43.1410822,5.910288,,,,,2006,payant:0;gratuit:29159;total:29159;label-date:01/02/2003,label:musee de france,,,,
8313703,2196651226,Musée d'Art,113,Boulevard Général Leclerc,83000,Toulon,France,fr,open,43.1263031,5.9272107,https://toulon.fr/envie-bouger/article/musee-d-art-de-toulon-mat,+33 4 94 36 81 01,,,2006,payant:0;gratuit:19726;total:19726;label-date:01/02/2003,label:musee de france,,Q3329600,M0943,
8400701,83784740,Musee Lapidaire,27,Rue de la République,84000,Avignon,France,fr,open,43.9458915,4.806026218689352,https://www.musee-lapidaire.org/,+33 4 90 14 62 45,,musee.calvet@mairie-avignon.com,2006,payant:0;gratuit:14011;total:14011;label-date:06/01/2002,label:musee de france,,Q15952870,,
8408701,219528069,Musée Municipal,,Rue Madeleine Roch,84100,Orange,France,fr,open,44.136139400000005,4.807732098364788,,,,,2006,payant:48004;gratuit:0;total:48004;label-date:01/02/2003,label:musee de france,,,,
0130501,6575792682,Musée Chintreuil,,Rue Borjon,01190,Pont-de-Vaux,France,fr,open,46.4303185,4.9377644,,,,,2006,payant:6093;gratuit:505;total:6598;label-date:01/02/2003,label:musee de france,,,,
2621801,,Musée d'Art Sacré,,,,MOURS SAINT-EUSEBE,France,fr,open,,,,,,,2006,payant:502;gratuit:1300;total:1802;label-date:01/02/2003,label:musee de france,,,,
2636401,,Musée du site Préhistorique,,,,VASSIEUX-EN-VERCORS,France,fr,open,,,,,,,2006,payant:15548;gratuit:0;total:15548;label-date:01/02/2003,label:musee de france,,,,
7401001,4891589833,Musée-château d'Annecy,,Rampe du Château,74000,Annecy,France,fr,open,45.8976583,6.1260527,,,,,2006,payant:42274;gratuit:46176;total:88450;label-date:01/02/2003,label:musee de france,,,,
3851601,192104327,Musée Hébert,,Musée Hébert,38700,La Tronche,France,fr,open,45.2057094,5.7489167,,,,,2006,payant:0;gratuit:16450;total:16450;label-date:01/02/2003,label:musee de france,,,,
4205203,2959298116,Musée Hospitalier,,Rue Jean Morel,42190,Charlieu,France,fr,open,46.159575,4.1712806,,,,,2006,payant:3769;gratuit:476;total:4245;label-date:01/02/2003,label:musee de france,,,,
4217301,,Musée du Vieux Pommiers,,,,POMMIERS-EN-FOREZ,France,fr,closed,,,,,,,2006,payant:0;gratuit:0;total:;label-date:01/02/2003,label:musee de france,,,,
4221804,49047701,Musée de la Mine / Site Couriot,3,Boulevard Maréchal Franchet d'Espèrey,69400,Saint-Étienne,France,fr,open,45.4382508,4.376131713032282,,,,,2006,payant:32616;gratuit:29133;total:61749;label-date:01/02/2003,label:musee de france,,,,
4221802,63340891,Musée d'Art et d'Industrie,2,Place Louis Comte,42000,Saint-Étienne,France,fr,open,45.4314634,4.386849541030928,,,,,2006,payant:21990;gratuit:23872;total:45862;label-date:01/02/2003,label:musee de france,,,,
6900601,312877023,Musée Barthélemy-Thimonnier,,Rue du Nord,69550,Amplepuis,France,fr,open,45.9729166,4.3306812,,,,,2006,payant:2193;gratuit:2517;total:4710;label-date:09/07/2005,label:musee de france,,,,
6901801,1788408922,Musée des Traditions Populaires Marius Audin,62,Place de l'Hôtel de Ville,69430,Beaujeu,France,fr,open,46.154402,4.5870811,,+33 4 74 69 22 88,,,2006,payant:2333;gratuit:513;total:2846;label-date:01/02/2003,label:musee de france,,,M1030,
6912304,4879822824,Le Musée,,Rue des Forces,69002,Lyon,France,fr,open,45.7645543,4.834654,,+33 4 78377154,,,2006,payant:0;gratuit:0;total:;label-date:19/07/2005,label:musee de france,,,,
6938501,700244364,Musées Gadagne,,Rue de la Fronde,69005,Lyon,France,fr,open,45.76405015,4.827286083631041,,,,,2006,payant:9007;gratuit:1825;total:10832;label-date:01/02/2003,label:musee de france,,,,
6924801,1714229898,Ecomusée du Haut Beaujolais,,Chemin des Pierres Plantées,69240,Marnand,France,fr,open,46.0380747,4.315875,,,,,2006,payant:454;gratuit:575;total:1029;label-date:09/07/2005,label:musee de france,,,,
7300601,,Musée archéologique et minéralogique Pierre Borrione,,,,AIME-EN-TARENTAISE Cedex,France,fr,open,,,,,,,2006,payant:1155;gratuit:483;total:1638;label-date:01/02/2003,label:musee de france,,,,
7301101,152123714,Musée Municipal d'Albertville-Conflans,,Place de Conflans,73200,Albertville,France,fr,open,45.670647,6.397100738095239,,,,,2006,payant:2231;gratuit:1818;total:4049;label-date:01/02/2003,label:musee de france,,,,
7306501,107343549,Musée des Beaux-Arts,,Passage Jules Daisay,73000,Chambéry,France,fr,open,45.56817235,5.919712942411912,,,,,2006,payant:3400;gratuit:14572;total:17972;label-date:06/01/2002,label:musee de france,,,,
