id,osm_id,name,number,street,postal_code,city,country,country_code,status,lat,lon,website,phone,fax,email,year,stats,tags,description,wikidata,museofile,mhs
6706101,2399054638,Musée du Pays de Hanau,,Rue du Canal,67330,Bouxwiller,France,fr,open,48.8249535,7.4835103,https://www.museedupaysdehanau.eu/,+33 3 88 00 38 39,,,2001,payant:1175;gratuit:215;total:1390,label:musee de france,,Q3330468,M0003,
6737201,158554855,Musée de l'Image Populaire de Pfaffenhoffen,,Rue du Docteur Albert Schweitzer,67350,Haguenau-Wissembourg,France,fr,open,48.84483,7.6115728636419755,,,,,2001,payant:2703;gratuit:702;total:3405,label:musee de france,,,,
6816201,,Musée d'Histoire Local,,,,KAYSERSBERG,France,fr,open,,,,,,,2001,payant:260;gratuit:100;total:360,label:musee de france,,,,
6822409,449007880,Cité de l’Automobile,,Autodrome du Musée de l'Automobile,68100,Mulhouse,France,fr,open,47.7612848,7.327971551196445,https://www.citedelautomobile.com/,+33 3 89 33 23 23,,message@collection-schlumpf.com,2001,payant:0;gratuit:150;total:150,label:musee de france,,Q867719,,
6834301,261857352,Ecomusée d'Alsace,,Chemin des Remparts,68190,Ungersheim,France,fr,open,47.85306625,7.2871333354354615,,,,,2001,payant:279588;gratuit:33947;total:313535,label:musee de france,,,,
2403701,369318223,Musée du Tabac,,Place du Feu,24100,Bergerac,France,fr,open,44.84971,0.4837602,,,,,2001,payant:5670;gratuit:2953;total:8623,label:musee de france,,,,
2417204,1708799591,Musée National de la Préhistoire,,Rue du Musée,24620,Sarlat-la-Canéda,France,fr,open,44.9362525,1.0135749,,,,,2001,payant:46324;gratuit:27961;total:74285,label:musee de france,,,,
3306701,,Musée de la Voiture à Cheval,,,,BOURG-SUR-GIRONDE,France,fr,open,,,,,,,2001,payant:4204;gratuit:0;total:4204,label:musee de france,,,,
3324301,,Musée des Beaux-Arts et d'Archéologie,,,,LIBOURNE,France,fr,open,,,,,,,2001,payant:2301;gratuit:5765;total:8066,label:musee de france,,,,
4008801,5223344896,Musée de Borda,11 bis,Rue des Carmes,40100,Dax,France,fr,open,43.7105638,-1.0538641,,,,,2001,payant:6853;gratuit:4495;total:11348,label:musee de france,,,,
4028201,5825880178,Musée d'Art et d'Histoire du Cap de Gascogne,,Rue du Général Lamarque,40500,Saint-Sever,France,fr,open,43.7585204,-0.5718845,,,,,2001,payant:0;gratuit:1950;total:1950,label:musee de france,,,,
4729201,5827779554,SauveTerre Musée de Préhistoire,,D 68,47500,Sauveterre-la-Lémance,France,fr,open,44.5904194,1.0137463,https://www.sauveterre-prehistoire.fr/,,,,2001,payant:752;gratuit:0;total:752,label:musee de france,,,,
6410201,631661850,Musée Basque et de l'Histoire de Bayonne,37,Quai des Corsaires,64100,Bayonne,France,fr,open,43.4910854,-1.473799,,,,,2001,payant:23907;gratuit:8373;total:32280,label:musee de france,,,,
6416001,209763123,Musée Edmond Rostand,,Avenue du Docteur Alexandre Camino,64250,Larressore,France,fr,open,43.36763065,-1.422666450245681,,,,,2001,payant:63794;gratuit:0;total:63794,label:musee de france,,,,
6424901,71287357,Musée Saraléguinéa,165,Avenue du Général de Gaulle,64210,Guéthary,France,fr,open,43.4210745,-1.6090083003559483,https://www.musee-de-guethary.fr,+33 5 59 54 86 37,,contact@musee-de-guethary.fr,2001,payant:534;gratuit:1982;total:2516,label:musee de france;label:monuments-historiques;type:monument-historique,,Q22975788,,PA00132937
0311801,387245355,Musée Yves-Machelon,,Esplanade Pierre-Roch-Jurien-de-la-Gravière,03800,Gannat,France,fr,open,46.10151045,3.1965522151680728,,,,,2001,payant:1055;gratuit:0;total:1055,label:musee de france,,,,
0318501,2511432939,MuPop,,Rue Notre-Dame,03100,Montluçon,France,fr,open,46.3408843,2.6055312,http://www.mupop.fr,+33 4 70 02 19 60,,,2001,payant:1859;gratuit:854;total:2713,label:musee de france,,,M0104,
0319501,,Musée Rieckotter,,,,NERIS-LES-BAINS,France,fr,open,,,,,,,2001,payant:1229;gratuit:0;total:1229,label:musee de france,,,,
1501401,2085157238,musée du Veinazes,,Rue des Fourmillères,15120,Lacapelle-del-Fraisse,France,fr,open,44.7599649,2.4617902,,,,,2001,payant:17179;gratuit:4630;total:21809,label:musee de france,,Q3330396,,
4311701,,Musée des Arts et Traditions Populaires de Haute Loire,,,,LAVAUDIEU,France,fr,open,,,,,,,2001,payant:13403;gratuit:559;total:13962,label:musee de france,,,,
4316201,,Musée des Manufactures de Dentelles,,,,RETOURNAC,France,fr,open,,,,,,,2001,payant:2693;gratuit:0;total:2693,label:musee de france,,,,
6311305,67015490,Musée d'Art Roger Quilliot,,Place Louis Deteix,63100,Clermont-Ferrand,France,fr,open,45.79392705,3.1162223146769588,https://www.clermontmetropole.eu/bouger-se-divertir/le-dynamisme-culturel/les-musees-de-clermont-auvergne-metropole/marq-musee-dart-roger-quilliot/,+33 4 43 76 25 25,,,2001,payant:8670;gratuit:27937;total:36607,label:musee de france,,Q1495869,M0121,
2105402,371712800,Musée des Beaux-Arts,,Rempart Madeleine,21200,Beaune,France,fr,open,47.0214963,4.8398035,,,,,2001,payant:3399;gratuit:5598;total:8997,label:musee de france,,,,
2111401,272998829,Les Forges de Buffon,,D 905,21500,Buffon,France,fr,closed,47.64955205,4.261698831211838,http://grandeforgedebuffon.monsite.orange.fr/index.jhtml,+33 3 80 92 10 35,,,2001,payant:0;gratuit:0;total:,label:musee de france,,,M0135,
2123102,1493118991,Musée Archéologique,,Place Saint-Bénigne,21000,Dijon,France,fr,open,47.3216174,5.0348411,,,,,2001,payant:4483;gratuit:14852;total:19335,label:musee de france,,,,
2146401,4737197736,Musée Municipal,,Rue Camille Rodier,21700,Nuits-Saint-Georges,France,fr,open,47.1386701,4.9505695,,,,,2001,payant:2011;gratuit:402;total:2413,label:musee de france,,,,
5806202,3618004518,Musée du Septennat de François Mitterrand,,Place du Château,58120,Château-Chinon (Ville),France,fr,open,47.0672537,3.9351818,http://www.mitterrand.org/Chateau-Chinon-Musee-du-Septennat.html,+33 3 86 85 19 23,,,2001,payant:4922;gratuit:937;total:5859,label:musee de france,,Q979000,M0149,
5815101,228160124,Musée de la Mine,,Rue Paul et Auguste Couture,58260,La Machine,France,fr,open,46.88884495,3.463816769519121,,,,,2001,payant:6907;gratuit:974;total:7881,label:musee de france,,,,
5819403,339392015,Musée du Palais Ducal,,Rue des Ouches,58000,Nevers,France,fr,closed,46.9882494,3.1580768,,,,,2001,payant:0;gratuit:0;total:,label:musee de france,,,,
7101402,2380355755,Musée Rolin,,Place Saint-Louis,71400,Autun,France,fr,open,46.9456553,4.2993665,,,,,2001,payant:19321;gratuit:3800;total:23121,label:musee de france,,,,
7101401,7419064532,Musée Verger Tarin,,Rue des Marbres,71400,Autun,France,fr,closed,46.9490737,4.3029239,,,,,2001,payant:0;gratuit:0;total:,label:musee de france,,,,
7104701,,Musée Saint-Nazaire,,,,BOURBON-LANCY,France,fr,open,,,,,,,2001,payant:0;gratuit:1674;total:1674,label:musee de france,,,,
7107601,,Musée Denon,,,,CHALON-SUR-SAONE,France,fr,open,,,,,,,2001,payant:1574;gratuit:7951;total:9525,label:musee de france,,,,
7107602,121572642,Musée Nicéphore Niepce,,Quai des Messageries,71100,Chalon-sur-Saône,France,fr,open,46.7802664,4.8554572593273075,,,,,2001,payant:8526;gratuit:10466;total:18992,label:musee de france,,,,
7110601,7419064524,Musée René Davoine,32,Rue René Davoine,71120,Charolles,France,fr,open,46.4312242,4.2732669,,,,,2001,payant:277;gratuit:0;total:277,label:musee de france,,,,
7127001,700244362,Musée des Ursulines,,Rue des Ursulines,71000,Saint-Clément,France,fr,open,46.307027,4.833142197130883,,,,,2001,payant:2345;gratuit:7252;total:9597,label:musee de france,,,,
7135101,3617522815,Pierre-de-Bresse,,Rue du Château,71270,Pierre-de-Bresse,France,fr,open,46.8828547,5.2614005,,3631,,,2001,payant:23643;gratuit:3878;total:27521,label:musee de france,,,,
7127201,6575800688,Musée Départemental du Compagnonnage,,Rue Pierre François Guillon,71570,Romanèche-Thorins,France,fr,open,46.1880514,4.733891,,,,,2001,payant:2394;gratuit:546;total:2940,label:musee de france,,,,
8947201,,Musée d'Art et d'Histoire du Puisaye,,,,VILLIERS-SAINT-BENOIT,France,fr,open,,,,,,,2001,payant:1777;gratuit:1440;total:3217,label:musee de france,,,,
2901902,5882540291,Musée de la Marine,,Rue Franklin Roosevelt,29200,Brest,France,fr,open,48.381272,-4.4923642,http://www.musee-marine.fr/brest,,,,2001,payant:47207;gratuit:0;total:47207,label:musee de france,,Q3330709,,
2903801,,Ecomusée des Monts d'Arrée - Moulins de Kerouat & Maison Cornec de Rivoal,,,,COMMANA,France,fr,open,,,,,,,2001,payant:17847;gratuit:5762;total:23609,label:musee de france,,,,
2903901,3986935,Musée de la Pêche,,Rue Militaire,29900,Concarneau,France,fr,open,47.87218475,-3.916013041508858,,,,,2001,payant:44000;gratuit:4500;total:48500,label:musee de france,,,,
2923202,94312010,Musée Départemental Breton,1,Rue du Roi Gradlon,29000,Quimper,France,fr,open,47.9953725,-4.1025369543379,,,,,2001,payant:44343;gratuit:0;total:44343,label:musee de france,,,,
5626002,145189774,Musée d'Histoire et d'Archéologie de Vannes,2,Rue Noé,56000,Vannes,France,fr,open,47.6568685,-2.7579838224637703,,,,,2001,payant:3933;gratuit:695;total:4628,label:musee de france,,,,
5626003,,"La Cohue, Musée des Beaux-Arts de vannes",,,,VANNES,France,fr,open,,,,,,,2001,payant:20367;gratuit:8943;total:29310,label:musee de france,,,,
1803302,64598357,Musée des Arts Décoratifs,,Rue de l'Hôtel Lallemant,18000,Bourges,France,fr,open,47.0850865,2.3983016387544134,,,,,2001,payant:0;gratuit:19307;total:19307,label:musee de france,,,,
1803303,64604953,Musée du Berry,4,Rue des Arènes,18000,Bourges,France,fr,open,47.085300149999995,2.39267207904075,,,,,2001,payant:0;gratuit:20022;total:20022,label:musee de france,,,,
2828001,6528325404,Château Musée des Comtes du Perche,,Rue des Marches du Saint-Jean,28400,Nogent-le-Rotrou,France,fr,open,48.3143308,0.820474,http://www.ville-nogent-le-rotrou.fr/chateau-des-comtes-du-perche,+33 2 37 52 18 02,,musee@chateau-nogentlerotrou.fr,2001,payant:7349;gratuit:7462;total:14811,label:musee de france,,,,
2836301,7659392646,Musée Farcot,,Rue de la Porte d'Étampes,28700,Sainville,France,fr,closed,48.4154704,1.8793028,,,,,2001,payant:0;gratuit:0;total:,label:musee de france,,,,
3601001,,Château Musée,,,,AZAY-LE-FERRON,France,fr,open,,,,,,,2001,payant:1852;gratuit:0;total:1852,label:musee de france,,,,
3608801,238746663,Musée de l'Hospice Saint-Roch,,Rue de l'Hospice Saint-Roch,36100,Issoudun,France,fr,open,46.944976,1.9942319952380998,,,,,2001,payant:0;gratuit:16409;total:16409,label:musee de france,,,,
3609201,149263965,Musée L,3,Place des Sciences,1348,Ottignies-Louvain-la-Neuve,België / Belgique / Belgien,be,closed,50.6682538,4.620109526811595,http://www.museel.be,+32 10 47 48 41,,info@museel.be,2001,payant:0;gratuit:0;total:,label:musee de france,,Q48773771,,
3601801,214892,Château de Fontainebleau,,Cour du Cheval Blanc,77300,Fontainebleau,France,fr,open,48.4023346,2.7005387366907625,http://www.musee-chateau-fontainebleau.fr,+33 1 60 71 50 70,,,2001,payant:4790;gratuit:2937;total:7727,label:musee de france,,Q201428,M5013,
3700301,1517051946,Musée de l'Hôtel de Ville,,Rue François 1er,37400,Amboise,France,fr,open,47.4131973,0.9839918,,,,,2001,payant:0;gratuit:1983;total:1983,label:musee de france,,Q23571290,,
3724201,207799176,Ecomusée du Véron,80,Route de Candes,37420,Savigny-en-Véron,France,fr,open,47.20943595,0.1244346983061503,,,,,2001,payant:0;gratuit:0;total:,label:musee de france,,,,
3726101,38576800,Muséum d'Histoire Naturelle,3,Rue du Président Merville,37000,Tours,France,fr,open,47.39461145,0.6836901302839116,,,,,2001,payant:5464;gratuit:16200;total:21664,label:musee de france,,,,
3726104,969140682,Musée des Vins de Touraine,16,Jardin du Musée des Vins de Touraine,37010,Tours,France,fr,open,47.3958548,0.6869467,,,,,2001,payant:2195;gratuit:3155;total:5350,label:musee de france,,,,
3726102,73677174,Musée des Beaux-Arts,,Rue Fleury,37000,Tours,France,fr,open,47.39526145000001,0.6950591874529539,,,,,2001,payant:15011;gratuit:24804;total:39815,label:musee de france,,,,
4113601,86513731,Musée de la villa Montebello,,Rue du Général Leclerc,14360,Trouville-sur-Mer,France,fr,open,49.3713839,0.08430517462516637,https://www.trouville.fr/MuseeVillaMontebello/,+33 2 31 88 51 33,,,2001,payant:975;gratuit:0;total:975,label:musee de france;label:monuments-historiques;type:monument-historique,,Q3329757,M0671,PA00111769
4515501,211497871,Faïencerie de Gien,,Rue de la Fabrique,45500,Gien,France,fr,open,47.688558650000004,2.6211297937493194,,,,,2001,payant:22584;gratuit:4039;total:26623,label:musee de france,,,,
4520802,95074878,Musée Girodet,2,Rue du Faubourg de la Chaussée,45200,Montargis,France,fr,open,47.997254999999996,2.7365194242424016,,,,,2001,payant:1061;gratuit:870;total:1931,label:musee de france,,,,
0840901,1874188907,Maison de la derniere Cartouche,,Avenue de la Dernière Cartouche,08140,Bazeilles,France,fr,open,49.6817859,4.9754729,http:///www.culture.gouv.fr/champagne-ardenne/2culture/musee_france/musee_bazeilles.html,+33 3 24 27 15 86,,,2001,payant:55289;gratuit:0;total:55289,label:musee de france,,Q3279770,M0290,
1026101,,Musée de la Résistance,,,,MUSSY-SUR-SEINE,France,fr,open,,,,,,,2001,payant:127;gratuit:280;total:407,label:musee de france,,,,
1038705,,Maison de l'Outil  et de la Pensée Ouvrière,,,,TROYES,France,fr,open,,,,,,,2001,payant:15500;gratuit:0;total:15500,label:musee de france,,,,
5110803,2260860300,Musée Garinet,13,Rue Pasteur,51000,Châlons-en-Champagne,France,fr,open,48.9558943,4.3664214,,,,,2001,payant:808;gratuit:0;total:808,label:musee de france,,,,
5123001,183978059,Musée de l'Ours des Cavernes,,D 45,73670,Entremont-le-Vieux,France,fr,closed,45.451615000000004,5.882174889178614,,,,,2001,payant:0;gratuit:0;total:,label:musee de france,,,,
5145401,733881096,Musée des Beaux-Arts de Saint-Denis,,,51100,Reims,France,fr,open,49.252981500000004,4.030427080857688,,,,,2001,payant:12372;gratuit:22266;total:34638,label:musee de france,,,,
2A00403,66274796,Musée Palais Fesch,50-52,Rue Cardinal Fesch,20000,Ajaccio,France,fr,open,41.9218958,8.738913555286306,,,,,2001,payant:41052;gratuit:11489;total:52541,label:musee de france,,,,
2B09601,6234663071,Musée de la Corse,,Place du Poilu,20250,Corte,France,fr,open,42.3058166,9.1484352,,,,,2001,payant:55884;gratuit:6610;total:62494,label:musee de france,,,,
2538802,7372375792,Musée du Château des Ducs de Wurtemberg,,Square Beurnier,25200,Montbéliard,France,fr,open,47.5098603,6.79769,,,,,2001,payant:15377;gratuit:13352;total:28729,label:musee de france,,,,
2546201,34418085,Musée de Pontarlier,2,,25300,Pontarlier,France,fr,open,46.904336799999996,6.354752112674423,,,,,2001,payant:4810;gratuit:4829;total:9639,label:musee de france,,,,
7024501,192995465,Ecomusée du Pays de la Cerise,,Le Petit Fahys,70220,Lure,France,fr,open,47.90680895,6.4023357809508346,,,,,2001,payant:6069;gratuit:200;total:6269,label:musee de france,,,,
7013901,,Musée Départemental de la Montagne Albert Demard,,,,LE HAUT-DU-THEM,France,fr,open,,,,,,,2001,payant:8930;gratuit:2140;total:11070,label:musee de france,,,,
3933301,201412221,Musée du Jouet,5,Rue du Murgin,39260,Moirans-en-Montagne,France,fr,open,46.4325233,5.727012940707623,,,,,2001,payant:42288;gratuit:4377;total:46665,label:musee de france,,,,
9004101,2647243377,Forge-Musée,,Rue de Rougemont,90170,Étueffont,France,fr,open,47.7224462,6.920875,,,,,2001,payant:2830;gratuit:582;total:3412,label:musee de france,,,,
9711201,6042462812,Ecomusée de Marie-Galante,,Route de Grand-Bourg à Capesterre,97140,Grand-Bourg,France,fr,closed,15.8784483,-61.2995603,,,,,2001,payant:0;gratuit:0;total:,label:musee de france,,,,
9712001,65841412,Musée Saint-John Perse,,Rue Nozières,97110,Pointe-à-Pitre,France,fr,open,16.2364273,-61.53584126806761,,+590 105178,,,2001,payant:9112;gratuit:684;total:9796,label:musee de france;label:monuments-historiques;type:monument-historique,,Q3329337,M1062,PA00105868
9106401,7035962879,Musée Français de la Photographie,,Rue de Paris,91570,Bièvres,France,fr,open,48.762826,2.225102,,,,,2001,payant:3800;gratuit:0;total:3800,label:musee de france,,,,
9201203,2701140971,Musée Départemental Albert-Kahn,10,Rue du Port,92100,Boulogne-Billancourt,France,fr,open,48.8414886,2.2270833,,,,,2001,payant:64237;gratuit:13328;total:77565,label:musee de france,,,,
9204801,137829073,Musée d'Art et d'Histoire,11,Rue des Pierres,92190,Meudon,France,fr,open,48.806285,2.2350911702464784,,,,,2001,payant:1195;gratuit:5779;total:6974,label:musee de france,,,,
9204802,,Musée - Atelier Rodin (Annexe du musée de Paris),,,,MEUDON,France,fr,open,,,,,,,2001,payant:2855;gratuit:1828;total:4683,label:musee de france,,,,
9205101,82241201,Musée Roybet Fould,178,Boulevard Saint-Denis,92400,Courbevoie,France,fr,closed,48.90043675,2.2718533501517357,,+33 1 71 05 77 92,,,2001,payant:0;gratuit:0;total:,label:musee de france;label:monuments-historiques;type:monument-historique,,Q22924332,,PA00088106
9206303,,Musée d'Histoire Locale - Mémoire de la Ville,,,,RUEIL-MALMAISON,France,fr,open,,,,,,,2001,payant:0;gratuit:0;total:,label:musee de france,,,,
9206301,2703428029,Atelier Grognard,,Avenue du Château de la Malmaison,92500,Rueil-Malmaison,France,fr,open,48.8737321,2.1687097,http://www.mairie-rueilmalmaison.fr/rueil-pratique/culture-tourisme/atelier-grognard,+33147141163;+33147323575,,expositions.ateliergrognard@mairie-rueilmalmaison.fr,2001,payant:39307;gratuit:22000;total:61307,label:musee de france,,,,
7510901,251318666,Musée National Gustave Moreau,,Rue de La Rochefoucauld,75009,Paris,France,fr,open,48.8779237,2.3345515,,,,,2001,payant:15684;gratuit:8695;total:24379,label:musee de france,,,,
7510517,237003117,Musée de l'Assistance Publique - Hôpitaux de Paris,,Quai de la Tournelle,75005,Paris,France,fr,open,48.850724,2.3518758,,,,,2001,payant:9617;gratuit:6359;total:15976,label:musee de france,,,,
7511502,1212876,Musée Bourdelle,16,Rue Antoine Bourdelle,75015,Paris,France,fr,open,48.843215,2.318663236817872,,,,,2001,payant:11934;gratuit:22986;total:34920,label:musee de france,,,,
7510305,57745741,Musée National Picasso,5,Rue de Thorigny,75003,Paris,France,fr,open,48.8598698,2.3621151762679444,,,,,2001,payant:280514;gratuit:190943;total:471457,label:musee de france,,,,
7510801,,Musée Nissim de Camondo (Union Centrale des Arts Décoratifs),,,,PARIS,France,fr,open,,,,,,,2001,payant:47938;gratuit:0;total:47938,label:musee de france,,,,
7510303,56687783,Musée d'Art et d'Histoire du Judaïsme,,Passage Sainte-Avoie,75003,Paris,France,fr,open,48.861266400000005,2.3554416476457307,,,,,2001,payant:66696;gratuit:23187;total:89883,label:musee de france,,,,
7510304,5918699678,Le Musée,,Rue Joliot-Curie,91190,Le Moulon,France,fr,open,48.7094092,2.1666145,,,,,2001,payant:149442;gratuit:0;total:149442,label:musee de france,,,,
7710801,1564237,Musée Alfred Bonno,,Rue Louis Eterlet,77500,Chelles,France,fr,open,48.8778455,2.591143882278835,,,,,2001,payant:0;gratuit:3199;total:3199,label:musee de france,,Q23599848,,
7724301,113256131,Musée Gatien Bonnet,,Cour Pierre Herbin,77400,Lagny-sur-Marne,France,fr,open,48.879835,2.707439,,,,,2001,payant:0;gratuit:1700;total:1700,label:musee de france,,,,
7728802,112363959,Musée de la Gendarmerie nationale,1-3,Rue Émile Leclerc,77000,Melun,France,fr,open,48.54554555,2.6529119346368715,http://www.gendarmerie.interieur.gouv.fr/musee/,+33 1 64 14 54 64,,,2001,payant:4050;gratuit:5387;total:9437,label:musee de france,,Q23057803,,
7733301,2177750355,Château-Musée de Nemours,,Cours du Château,77140,Nemours,France,fr,open,48.2655865,2.6970907,http://www.nemours.fr/culture-et-sport/le-chateau-musee,+33 1 64 28 27 42,,,2001,payant:4559;gratuit:20768;total:25327,label:musee de france,,Q2970121,M0381,
9304601,145134117,Musée technique des Poudres de l'Armement René Amiable,,Rue du Docteur Roux,93190,Livry-Gargan,France,fr,open,48.934633649999995,2.5517116365355736,,,,,2001,payant:0;gratuit:9931;total:9931,label:musee de france,,,,
9741101,146919869,Musée Léon Dierx,,Rue Sainte Marie,97400,Saint-Denis,France,fr,open,-20.883840050000003,55.450058317623416,,,,,2001,payant:0;gratuit:12171;total:12171,label:musee de france,,Q3329255,,
1120601,799714487,Musée Petiet,,Avenue Fabre d'Églantine,11300,Limoux,France,fr,open,43.0534043,2.2144622,,,,,2001,payant:1637;gratuit:3261;total:4898,label:musee de france,,,,
1126201,92058703,Musée Lapidaire,,Rue des Jacobins,11100,Narbonne,France,fr,open,43.1809595,3.004147255208337,,,,,2001,payant:4445;gratuit:9563;total:14008,label:musee de france;label:monuments-historiques;type:monument-historique,,Q3344678,,PA00102802
1137901,,Musée des Corbières,,,,SIGEAN,France,fr,open,,,,,,,2001,payant:400;gratuit:1400;total:1800,label:musee de france,,,,
3403901,277812836,Musée de l'Etang de Thau,,Chemin du Belvédère,34140,Bouzigues,France,fr,open,43.446872,3.6617685,,,,,2001,payant:19584;gratuit:222;total:19806,label:musee de france,,,,
3400302,1131132,Musée de l'Ephèbe,,Place du Père Marcel Astruc,34300,Agde,France,fr,open,43.2868906,3.5137320418987343,,,,,2001,payant:12523;gratuit:1681;total:14204,label:musee de france,,,,
3415801,2622894330,Musée Archéologique,,Place du Monument,34210,Minerve,France,fr,open,43.3543868,2.7460475,,,,,2001,payant:7040;gratuit:0;total:7040,label:musee de france,,,,
3417206,2192962,Agropolis-Muséum,,Avenue Agropolis,34093,Montpellier,France,fr,open,43.6462942,3.8679405365376005,,,,,2001,payant:3182;gratuit:13945;total:17127,label:musee de france,,,,
3417901,239313434,Musée Archéologique Paul Soyris,,Rue de la Mairie,34570,Murviel-lès-Montpellier,France,fr,open,43.604634,3.737293733606559,,,,,2001,payant:244;gratuit:85;total:329,label:musee de france,,,,
3428401,178387339,Musée de Préhistoire Régionale,,Passage de la Pourtanelle,34220,Saint-Pons-de-Thomières,France,fr,open,43.488682499999996,2.758707373774508,,,,,2001,payant:1776;gratuit:269;total:2045,label:musee de france,,,,
6605301,,Musée d'Art Moderne - Fonds Peskè,,,,COLLIOURE,France,fr,open,,,,,,,2001,payant:6297;gratuit:1906;total:8203,label:musee de france,,,,
6613602,4375669286,Musée des Monnaies et Médailles Joseph Puig,,Avenue de Grande-Bretagne,66000,Perpignan,France,fr,open,42.6994256,2.8833946,,,,,2001,payant:1964;gratuit:0;total:1964,label:musee de france,,,,
6613601,1227556,Musée d'art Hyacinthe Rigaud,,Rue de l'Ange,66000,Perpignan,France,fr,open,42.6979518,2.8933879010617485,http://www.musee-rigaud.fr/fr,+33 4 68 66 19 83,,,2001,payant:29315;gratuit:0;total:29315,label:musee de france,,Q3329201,M0491,
1925101,950074172,Musée du Président Jacques Chirac,,Route du Musée,19800,Sarran,France,fr,open,45.4079599,1.9398374,,,,,2001,payant:66776;gratuit:0;total:66776,label:musee de france,,,,
2309601,6222152324,Musée de l'électrification,,Route de la Cascade,23400,Bourganeuf,France,fr,open,45.9496263,1.7563312,,,,,2001,payant:4462;gratuit:8377;total:12839,label:musee de france,,Q3329870,,
8708501,70412845,Musée de l'Evêché,,Place de l'Évêché,,Limoges,France,fr,open,45.82801675,1.2663821963307735,,,,,2001,payant:0;gratuit:62419;total:62419,label:musee de france,,,,
5427401,99542401,Musée de l'Histoire du Fer,,Avenue Général de Gaulle,54140,Jarville-la-Malgrange,France,fr,open,48.666507499999994,6.208713471590913,,,,,2001,payant:1612;gratuit:1336;total:2948,label:musee de france,,,,
5432301,81536134,Musée des émaux et faïences,,Rue de la Manutention,54400,Longwy,France,fr,open,49.522562449999995,5.7633683152419355,,,,,2001,payant:5482;gratuit:762;total:6244,label:musee de france,,,,
5439506,753920204,Musée des Beaux-Arts de Nancy,,Rue Stanislas,54100,Nancy,France,fr,open,48.6936593,6.1818995387620195,,,,,2001,payant:0;gratuit:0;total:,label:musee de france,,,,
5443101,,"""Musée """"au Fil du Papier""""""",,,,PONT-A-MOUSSON,France,fr,open,,,,,,,2001,payant:2844;gratuit:2931;total:5775,label:musee de france,,,,
5535101,,Musée Jules Bastien-Lepage - Musée de la Fortification,,,,MONTMEDY,France,fr,open,,,,,,,2001,payant:19382;gratuit:0;total:19382,label:musee de france,,,,
5763101,228213586,Musée du Verre,,Place Robert Schuman,57960,Meisenthal,France,fr,open,48.96507149999999,7.352640225880503,http://site-verrier-meisenthal.fr,+33 3 87 96 91 51,,,2001,payant:12508;gratuit:15710;total:28218,label:musee de france,,Q3556076,M0528,
5763102,,Moulin de la Blies - Musée des Techniques Faïencières,,,,SARREGUEMINES,France,fr,open,,,,,,,2001,payant:14188;gratuit:0;total:14188,label:musee de france,,,,
5767201,,La Tour aux Puces - Musée du Pays Thionvillois,,,,THIONVILLE,France,fr,open,,,,,,,2001,payant:497;gratuit:757;total:1254,label:musee de france,,,,
8838302,2582715284,Musée Charles Friry,12,Rue du Général Humbert,88200,Remiremont,France,fr,open,48.0151071,6.5897788,,,,,2001,payant:426;gratuit:2830;total:3256,label:musee de france,,,,
9720902,4807601528,Musée Régional d'Histoire et d'Éthnographie,10,Boulevard Général de Gaulle,97200,Fort-de-France,France,fr,open,14.6063988,-61.0657667,,,,,2001,payant:3294;gratuit:1732;total:5026,label:musee de france,,Q15818376,M1066,
1209601,152864630,Musée du Rouergue,,Place Pierre Frontin,12500,Espalion,France,fr,open,44.5211405,2.7606325085458474,http://musees.aveyron.fr,+33 5 65 44 19 91,,,2001,payant:0;gratuit:0;total:,label:musee de france,,,M0547,
1220202,124625419,Musée des Beaux-Arts Denys Puech,,Place Clemenceau,12000,Rodez,France,fr,open,44.348890499999996,2.5783265775714277,,,,,2001,payant:1819;gratuit:6949;total:8768,label:musee de france,,,,
1225401,1434993410,Musée du Rouergue des Arts et Métiers traditionnels,,C 2,12330,Salles-la-Source,France,fr,open,44.437582,2.5141463,,+33565672896,,,2001,payant:9430;gratuit:0;total:9430,label:musee de france,,,,
3211901,110292132,Musée Archéologique,,Rue Marpoy,32800,Eauze,France,fr,open,43.8609266,0.10142317069741685,,,,,2001,payant:6257;gratuit:1334;total:7591,label:musee de france,,,,
3225601,2923353853,Musée des Beaux-Arts et des Arts Décoratifs,,Rue de l'Évêché,32300,Mirande,France,fr,open,43.5153164,0.40345,,,,,2001,payant:937;gratuit:435;total:1372,label:musee de france,,,,
3155509,134123637,Muséum d'Histoire Naturelle,,Allée des Justes des Nations,31400,Toulouse,France,fr,closed,43.59334975,1.4495300359978467,,,,,2001,payant:0;gratuit:0;total:,label:musee de france,,,,
3155501,22718219,Musée des Augustins,,Rue Antonin Mercié,31000,Toulouse,France,fr,open,43.6009417,1.4463433320120154,https://www.augustins.org/,+33 5 61 22 21 82,,,2001,payant:91706;gratuit:83764;total:175470,label:musee de france;label:monuments-historiques;type:monument-historique,,Q3001664,M0562,PA00094510
3155505,63801451,Musée Georges Labit,17,Rue du Japon,31400,Toulouse,France,fr,open,43.59109665,1.4584515191136354,,,,,2001,payant:4703;gratuit:11030;total:15733,label:musee de france,,,,
4630901,1074571594,Musée de l'Automate,,Place de l'Abbaye,46200,Souillac,France,fr,open,44.8936695,1.4768774,,,,,2001,payant:29465;gratuit:3112;total:32577,label:musee de france,,,,
4633001,2271992489,Musée d'Uxellodunum,,Impasse Lucterius,46110,Vayrac,France,fr,open,44.952451,1.703678,,,,,2001,payant:267;gratuit:59;total:326,label:musee de france,,,,
8106901,,Musée d'Art et d'Histoire Charles Portal,,,,CORDES-SUR-CIEL,France,fr,open,,,,,,,2001,payant:1024;gratuit:550;total:1574,label:musee de france,,,,
8207501,89104903,Musée Théodore Calbet,15,Rue Jean de Comère,82170,Grisolles,France,fr,open,43.827752000000004,1.2947097401960788,,,,,2001,payant:0;gratuit:937;total:937,label:musee de france,,,,
8212101,127805191,Musée Ingres,,Rue Marie Lafon,82000,Montauban,France,fr,open,44.01688865,1.3514607739557976,https://museeingresbourdelle.com/,+33 5 63 22 12 92,,,2001,payant:962;gratuit:3792;total:4754,label:musee de france;label:monuments-historiques;type:monument-historique,,Q2843748,M0607,PA00095805
5905301,,"Forum Antique de Bavay, Musée Archéologique du Département du Nord",,,,BAVAY,France,fr,open,,,,,,,2001,payant:7837;gratuit:3687;total:11524,label:musee de france,,,,
5920501,1719221067,Musée Municipal d'Escaudain,,Rue Paul Bert,59124,Escaudain,France,fr,open,50.3330601,3.3443559,,,,,2001,payant:0;gratuit:973;total:973,label:musee de france,,,,
5929501,238855854,Rue du Musée,,Rue du Musée,59190,Hazebrouck,France,fr,open,50.7213028,2.5350201,,,,,2001,payant:736;gratuit:2259;total:2995,label:musee de france,,,,
5934501,,"Musée de la Mine, Centre Historique Minier",,,,LEWARDE,France,fr,open,,,,,,,2001,payant:113880;gratuit:13961;total:127841,label:musee de france,,,,
5935002,152835085,Palais des Beaux-Arts de Lille,,Place de la République,59000,Lille,France,fr,open,50.630458149999995,3.0628110944444478,,,,,2001,payant:120614;gratuit:36921;total:157535,label:musee de france,,,,
5937501,,Musée Municipal d'Histoire Locale,,,,MARCHIENNES,France,fr,open,,,,,,,2001,payant:515;gratuit:640;total:1155,label:musee de france,,,,
6219301,,Musée des Beaux-Arts et de la Dentelle,,,,CALAIS,France,fr,open,,,,,,,2001,payant:3170;gratuit:14887;total:18057,label:musee de france,,,,
1437002,2405267465,Musée de la Meunerie - Moulin de Marcy,,Rue de Marcy,14330,Littry,France,fr,open,49.2277192,-0.9045211,,,,,2001,payant:6389;gratuit:1266;total:7655,label:musee de france,,,,
1436601,130317028,Musée d'Art et d'Histoire de Lisieux,,Rue du Bon Ange,14100,Lisieux,France,fr,open,49.144569000000004,0.21921411544037808,,,,,2001,payant:510;gratuit:3752;total:4262,label:musee de france,,,,
1451201,7579732101,Musée de l'imprimerie,,Rue des Léopards,14110,Vire,France,fr,open,48.8589438,-0.5682422,,,,,2001,payant:6125;gratuit:0;total:6125,label:musee de france,,,,
1458201,329998597,Château de Saint-Germain de Livet,,D 268,14100,Saint-Germain-de-Livet,France,fr,open,49.0890928,0.2143756760222387,,,,,2001,payant:14475;gratuit:8422;total:22897,label:musee de france,,,,
5021803,135528003,Musée Christian Dior,,Rue du Docteur Ollivier,50400,Granville,France,fr,open,48.8429745,-1.592543481481478,,,,,2001,payant:13500;gratuit:2500;total:16000,label:musee de france,,,,
5052501,,Musée du Granit,,,,SAINT-MICHEL-DE-MONTJOIE,France,fr,open,,,,,,,2001,payant:1384;gratuit:0;total:1384,label:musee de france,,,,
5056201,39578602,Musée Maritime de l'Île Tatihou,,Le Run,50550,,France,fr,open,49.59021435,-1.2467517830058594,,,,,2001,payant:47000;gratuit:0;total:47000,label:musee de france,,Q1799471,,
2718301,581537349,Musée des instruments à vent,,D 833,27750,La Couture-Boussey,France,fr,open,48.897542200000004,1.4077339068504382,,,,,2001,payant:2000;gratuit:500;total:2500,label:musee de france,,Q3330251,,
7635102,,Abbaye de Graville - Musée du Prieuré de Graville,,,,LE HAVRE,France,fr,open,,,,,,,2001,payant:2116;gratuit:13392;total:15508,label:musee de france,,,,
7647401,121934820,Musée Industriel de la Corderie Vallois,185,Route de Dieppe,76960,Notre-Dame-de-Bondeville,France,fr,open,49.4951715,1.0479190217391308,,,,,2001,payant:3675;gratuit:9187;total:12862,label:musee de france,,,,
7654005,64181527,Musée des Beaux-Arts,,Esplanade Marcel Duchamp,76000,Rouen,France,fr,open,49.44473675,1.0945818804156213,,,,,2001,payant:44072;gratuit:33425;total:77497,label:musee de france,,,,
7654002,64717877,Centre de ressources du Munaé,6,Rue de Bihorel,76000,Rouen,France,fr,open,49.44841715,1.102956596817131,https://www.reseau-canope.fr,+33 2 32 08 71 00,,,2001,payant:1302;gratuit:0;total:1302,label:musee de france,,,,
7675801,122011226,Musée des ivoires,8,Place du Maréchal Joffre,76190,Yvetot,France,fr,open,49.6173905,0.7551113568840564,,,,,2001,payant:305;gratuit:172;total:477,label:musee de france,,,,
4909901,1782756206,Musée d'Art et d'Histoire,,Avenue de l’Abreuvoir,49300,Cholet,France,fr,open,47.0583944,-0.8807128,,,,,2001,payant:5213;gratuit:12900;total:18113,label:musee de france,,,,
4935301,125991770,Musée de l'Ardoise,32,Chemin de la Maraichère,49800,Trélazé,France,fr,open,47.446912,-0.48919949107143107,,,,,2001,payant:5317;gratuit:4244;total:9561,label:musee de france,,,,
5312201,8292313,Musée Archéologique Départemental de Jublains,,Rue de la Libération,53160,Jublains,France,fr,open,48.2545411,-0.4975843742117564,,,,,2001,payant:8377;gratuit:25626;total:34003,label:musee de france,,,,
7218199,65554014,Musée Vert Véron-de-Forbonnais,204,Avenue Jean Jaurès,72100,Le Mans,France,fr,open,47.98672035,0.20791745340231066,,,,,2001,payant:12436;gratuit:0;total:12436,label:musee de france,,,,
8501201,,Ecomusée du Marais Breton Vendéen,,,,LA BARRE-DE-MONTS,France,fr,open,,,,,,,2001,payant:18185;gratuit:9500;total:27685,label:musee de france,,,,
0238101,4239502337,Musée Alfred Desmasure,,Impasse du Château,02500,Hirson,France,fr,open,49.9260179,4.0792224,,,,,2001,payant:0;gratuit:1075;total:1075,label:musee de france,,,,
6005701,556458814,MUDO – Musée de l'Oise,,Rue Saint-Pierre,60000,Beauvais,France,fr,open,49.4329907,2.0796036241134193,http://www.mudo.oise.fr,+33 3 44 10 40 50,,,2001,payant:7454;gratuit:6736;total:14190,label:musee de france,,Q3330521,M0798,
6066401,,Musée Archéologique de la région de Breteuil,,,,VENDEUIL-CAPLY,France,fr,open,,,,,,,2001,payant:4134;gratuit:0;total:4134,label:musee de france,,,,
8000101,638296084,Musée Boucher-de-Perthes,,Rue Gontier Patin,80100,Abbeville,France,fr,open,50.1071737,1.8333893,,,,,2001,payant:0;gratuit:18158;total:18158,label:musee de france,,,,
8062002,193012404,Musée-Historial de la Grande Guerre,,Rue de la Résistance,80200,Péronne,France,fr,open,49.929138,2.9306000138110875,,,,,2001,payant:79776;gratuit:0;total:79776,label:musee de france,,,,
7904201,1405861,Musée des Tumulus de Bougon,,Route de Pamproux,79800,Bougon,France,fr,open,46.3779715,-0.06712564274678495,,,,,2001,payant:35907;gratuit:0;total:35907,label:musee de france,,,,
7920201,7281748506,Musée d'Art et d'Histoire Georges Turpin,1,Rue de la Vau Saint-Jacques,79200,Parthenay,France,fr,open,46.6519796,-0.2493419,,,,,2001,payant:0;gratuit:9580;total:9580,label:musee de france,,,,
7921601,,Musée des Ruralies,,,,PRAHECQ,France,fr,open,,,,,,,2001,payant:9213;gratuit:2000;total:11213,label:musee de france,,,,
8607001,7280016472,Musée des Traditions Populaires et d'Archéologie,,Impasse Saint-Martial,86300,Chauvigny,France,fr,open,46.5705939,0.6481047,,,,,2001,payant:7185;gratuit:3429;total:10614,label:musee de france,,,,
0407001,570290612,Musée Gassendi,64,Boulevard Gassendi,04000,Digne-les-Bains,France,fr,closed,44.09366125,6.238406603731345,,,,,2001,payant:0;gratuit:0;total:,label:musee de france,,,,
0411101,5921065703,"Salagon, Musée et Jardins",,D 13,04300,Mane,France,fr,open,43.9352027,5.7592489,www.musee-de-salagon.com,+33 4 92 75 70 50,,info-salagon@le04.fr,2001,payant:27421;gratuit:4468;total:31889,label:musee de france,,Q2400780,,
0601801,1416739719,Musée Fernand Léger,,Chemin du Val de Pome,06410,Biot,France,fr,open,43.6212652,7.1123586,,,,,2001,payant:17043;gratuit:4313;total:21356,label:musee de france,,,,
0602902,2824215844,Musée de la Mer,,Allée des Eucalyptus,06407,Cannes,France,fr,open,43.523904,7.0453202,,,,,2001,payant:37752;gratuit:20657;total:58409,label:musee de france,,,,
0608303,137783866,Musée de Préhistoire Régionale,,Rue Lieutenant Bosano,06500,Menton,France,fr,open,43.777006,7.503394160358056,,,,,2001,payant:0;gratuit:11334;total:11334,label:musee de france,,,,
0608805,,Musée Archéologique - Site de  Cimiez,,,,NICE,France,fr,open,,,,,,,2001,payant:9393;gratuit:12880;total:22273,label:musee de france,,,,
0608802,2264574278,Musée d'Art et d'Histoire,,Fossés de la Citadelle,06230,Villefranche-sur-Mer,France,fr,closed,43.701601,7.3106059,,,,,2001,payant:0;gratuit:0;total:,label:musee de france,,,,
0608813,1949582,Musée d'Art Moderne et d'Art Contemporain,,Place Yves Klein,06300,Nice,France,fr,open,43.701442,7.27822756843373,,,,,2001,payant:54909;gratuit:70870;total:125779,label:musee de france,,,,
0609801,149921556,Ecomusée du Pays de la Roudoule,,Placette de l'Europe,06260,Puget-Rostang,France,fr,open,43.9741388,6.918903152040816,,,,,2001,payant:6010;gratuit:2214;total:8224,label:musee de france,,,,
0615901,1297270381,Musée Volti,,Fossés de la Citadelle,06230,Villefranche-sur-Mer,France,fr,open,43.7017095,7.310623,https://villefranche-sur-mer.fr/volti/,+33 4 93 76 33 27,,,2001,payant:0;gratuit:32898;total:32898,label:musee de france,,,M0893,
1300102,88614075,Hôtel d'Estienne de Saint-Jean,,Rue des Bremondis,13626,Aix-en-Provence,France,fr,open,43.530754849999994,5.447239307551794,,+33 4 42 91 89 78,,,2001,payant:11496;gratuit:2508;total:14004,label:musee de france;label:monuments-historiques;type:monument-historique,,Q3145725,M0898,PA00081031
1300106,,Musée Paul Arbaud,,,,AIX-EN-PROVENCE,France,fr,open,,,,,,,2001,payant:1573;gratuit:0;total:1573,label:musee de france,,,,
1300105,88614075,Hôtel d'Estienne de Saint-Jean,,Rue des Bremondis,13626,Aix-en-Provence,France,fr,open,43.530754849999994,5.447239307551794,,+33 4 42 91 89 78,,,2001,payant:80775;gratuit:0;total:80775,label:musee de france;label:monuments-historiques;type:monument-historique,,Q3145725,M0898,PA00081031
1320401,68976388,Musée des Beaux-Arts de Marseille,,Rue Édouard Stéphan,13004,Marseille,France,fr,open,43.304596450000005,5.394039596087057,,,,,2001,payant:7178;gratuit:22176;total:29354,label:musee de france,,,,
1305505,2499522058,Musée d'Histoire de Marseille,,Square Belsunce,13001,Marseille,France,fr,closed,43.2975573,5.3756864,,,,,2001,payant:0;gratuit:0;total:,label:musee de france,,,,
1320801,168685674,Musée des Civilisations de l'Europe et de la Méditerranée,7,Promenade Robert Laffont,13002,Marseille,France,fr,open,43.29672875,5.361025473368164,http://www.mucem.org/,+33 4 84 35 13 13,,reservation@mucem.org,2001,payant:5529;gratuit:10191;total:15720,label:musee de france,,Q2808698,,
1305507,4945719803,Musée d'Archéologie Méditerranéenne,,Rue de la Vieille Tour,13000,Marseille,France,fr,open,43.3005836,5.3682814,,,,,2001,payant:19599;gratuit:0;total:19599,label:musee de france,,,,
1305601,99114044,Musée Ziem,,Boulevard du 14 Juillet,13500,Martigues,France,fr,open,43.408675849999995,5.054218764027318,,,,,2001,payant:0;gratuit:0;total:,label:musee de france,,,,
1310301,,Musée de l'Empéri de Salon et de la Crau,,,,SALON-DE-PROVENCE,France,fr,open,,,,,,,2001,payant:11987;gratuit:4594;total:16581,label:musee de france,,,,
8311801,130473371,Musée archéologique de Saint-Raphaël,,Rue de la Vieille Église,83700,Saint-Raphaël,France,fr,open,43.42600365,6.769243065966667,http://www.musee-saintraphael.com/,,,,2001,payant:6500;gratuit:600;total:7100,label:musee de france,,Q3329530,,
8313701,3812465952,Muséum,,Avenue Louis Blériot,83200,Toulon,France,fr,open,43.1410822,5.910288,,,,,2001,payant:0;gratuit:19364;total:19364,label:musee de france,,,,
8407201,,Musée Municipal Camille Pautet,,,,MAZAN,France,fr,open,,,,,,,2001,payant:0;gratuit:811;total:811,label:musee de france,,,,
8408701,219528069,Musée Municipal,,Rue Madeleine Roch,84100,Orange,France,fr,open,44.136139400000005,4.807732098364788,,,,,2001,payant:76737;gratuit:1131;total:77868,label:musee de france,,,,
0119201,1357668479,Musée Archéologique,,Place de l'Église,01580,Izernore,France,fr,open,46.220134,5.5548124,,,,,2001,payant:0;gratuit:204;total:204,label:musee de france,,,,
0129001,50265723,Musée du Vieux Pérouges,,Place du Tilleul,01800,Pérouges,France,fr,open,45.903389,5.179223907398141,,,,,2001,payant:17700;gratuit:0;total:17700,label:musee de france,,,,
2636201,,Musée des Beaux-Arts,,,,VALENCE,France,fr,open,,,,,,,2001,payant:15435;gratuit:7300;total:22735,label:musee de france,,,,
2636401,,Musée du site Préhistorique,,,,VASSIEUX-EN-VERCORS,France,fr,open,,,,,,,2001,payant:19823;gratuit:0;total:19823,label:musee de france,,,,
7415201,7049144505,Musée Léon Marès,,Allée du Château,74330,Lovagny,France,fr,open,45.8988203,6.0391237,,,,,2001,payant:24948;gratuit:0;total:24948,label:musee de france,,,,
3808201,,Musée - Parc Archéologique du Lac de Paladru,,,,CHARAVINES,France,fr,open,,,,,,,2001,payant:14039;gratuit:0;total:14039,label:musee de france,,,,
3815101,81099317,Musée Géo-Charles,,Rue Géo Charles,38130,Échirolles,France,fr,open,45.149279250000006,5.699500421398306,,,,,2001,payant:4054;gratuit:0;total:4054,label:musee de france,,,,
3818507,2388638743,Musée Stendhal,20,Grande Rue,38000,Grenoble,France,fr,open,45.1915799,5.7281471,,,,,2001,payant:0;gratuit:6896;total:6896,label:musee de france,,,,
3818502,1102624,Musée Dauphinois,30,Rue Maurice Gignoux,38031,Grenoble,France,fr,open,45.19514890000001,5.727071788552173,,,,,2001,payant:50267;gratuit:0;total:50267,label:musee de france,,,,
3800501,171257717,Musée EDF Hydrélec,,Le Verney,38114,Vaujany,France,fr,open,45.1463919,6.049412773128473,,,,,2001,payant:0;gratuit:12073;total:12073,label:musee de france,,,,
3854401,3034478021,Musée de la minéralogie et pétrographie,,Avenue de la Libération,87240,Ambazac,France,fr,open,45.9575558,1.4001491,,,,,2001,payant:5249;gratuit:6623;total:11872,label:musee de france,,,,
3854403,2675390826,Musée des Beaux-Arts et d'Archéologie,,Place Miremont,38200,Vienne,France,fr,open,45.5239956,4.8748576,,,,,2001,payant:1791;gratuit:892;total:2683,label:musee de france,,,,
4205901,6050847032,Atelier - Musée du Chapeau,31,Rue Martouret,42140,Chazelles-sur-Lyon,France,fr,open,45.6386575,4.395141,,,,,2001,payant:19977;gratuit:2823;total:22800,label:musee de france,,,,
4218701,,Musée des Beaux-Arts et d'Archéologie J. Dechelette,,,,ROANNE,France,fr,open,,,,,,,2001,payant:10926;gratuit:13059;total:23985,label:musee de france,,,,
4221804,49047701,Musée de la Mine / Site Couriot,3,Boulevard Maréchal Franchet d'Espèrey,69400,Saint-Étienne,France,fr,open,45.4382508,4.376131713032282,,,,,2001,payant:35681;gratuit:18815;total:54496,label:musee de france,,,,
4227901,2471969138,Musée des Civilisations : Daniel Pouget,,Square de la Résistance,42170,Saint-Just-Saint-Rambert,France,fr,open,45.5008625,4.2426518,,,,,2001,payant:8325;gratuit:0;total:8325,label:musee de france,,,,
6938501,700244364,Musée Gadagne,,Rue de la Fronde,69005,Lyon,France,fr,open,45.76405015,4.827286083631041,,,,,2001,payant:34493;gratuit:0;total:34493,label:musee de france,,,,
6938602,51263801,Muséum d'Histoire Naturelle,,Avenue de Lyon,73000,Chambéry,France,fr,open,45.564102399999996,5.916291852044658,,,,,2001,payant:58652;gratuit:84400;total:143052,label:musee de france,,,,
6938604,1851239924,Musée Guimet,,Rue Morellet,69006,Lyon,France,fr,open,45.774489,4.8484697,,,,,2001,payant:0;gratuit:0;total:,label:musee de france,,,,
6730001,58887086,Musée de la Chartreuse,,Rue des Étudiants,67120,Molsheim,France,fr,open,48.5428428,7.490422123361975,,,,,2001,payant:3160;gratuit:0;total:3160,label:musee de france,,,,
6732401,,Maison de l'Archéologie des Vosges du Nord,,,,NIEDERBRONN-LES-BAINS,France,fr,open,,,,,,,2001,payant:3182;gratuit:271;total:3453,label:musee de france,,,,
6748207,22290183,Musée Historique,2,Rue du Vieux Marché aux Poissons,67065,Strasbourg,France,fr,closed,48.579946,7.750767983802181,,,,,2001,payant:0;gratuit:0;total:,label:musee de france,,,,
6748210,459628388,Musée Zoologique de Strasbourg,,Boulevard de la Victoire,67085,Strasbourg,France,fr,open,48.5827722,7.7647316,,,,,2001,payant:28126;gratuit:21931;total:50057,label:musee de france,,,,
6748204,239825781,Musée des Arts Décoratifs,,Place du Marché aux Poissons,67065,Strasbourg,France,fr,open,48.5807532,7.7523558,,,,,2001,payant:22361;gratuit:24520;total:46881,label:musee de france,,,,
6800401,5144762817,Musee de Sapeur-Pompier d'Alsace,38,Rue de Luppach,68480,Vieux-Ferrette,France,fr,open,47.5040397,7.3041592,http://www.musee-sapeur-pompier.fr,+33 6 11 68 75 13,,info@sundgau-sudalsace.fr,2001,payant:1203;gratuit:508;total:1711,label:musee de france,,,M0038,
6803601,685084692,Musée Gallo-Romain,,Rue des Capucins,68600,Biesheim,France,fr,open,48.039525,7.5455969,,,,,2001,payant:1299;gratuit:5601;total:6900,label:musee de france,,,,
6822405,4551159534,Cité du Train,,Rue Alfred de Glehn,68200,Mulhouse,France,fr,open,47.7500026,7.2938678,,,,,2001,payant:96882;gratuit:0;total:96882,label:musee de france,,,,
6822403,449007880,Musée National de l'Automobile - Collection Schlumpf,,Autodrome du Musée de l'Automobile,68100,Mulhouse,France,fr,open,47.7612848,7.327971551196445,,,,,2001,payant:211540;gratuit:0;total:211540,label:musee de france,,,,
6833401,218472174,Ecomusée Textile,,Rue du Parc,68470,Husseren-Wesserling,France,fr,open,47.885102,6.996263986308496,,,,,2001,payant:939;gratuit:136;total:1075,label:musee de france,,,,
2406401,5089643323,Musée Fernand Desmoulin,,Boulevard Charlemagne,24310,Nontron,France,fr,open,45.3641641,0.6468008,,,,,2001,payant:1906;gratuit:0;total:1906,label:musee de france,,,,
2429101,,Musée Eugène Le Roy et des Vieux Métiers,,,,MONTIGNAC,France,fr,closed,,,,,,,2001,payant:0;gratuit:0;total:,label:musee de france,,,,
2431101,,Musée Départemental de la Poupée et du Jouet,,,,NONTRON,France,fr,closed,,,,,,,2001,payant:0;gratuit:0;total:,label:musee de france,,,,
3306304,80024893,Musée d'Aquitaine,,Musée d'Aquitaine,33000,Bordeaux,France,fr,open,44.8356189,-0.5746906101232725,,,,,2001,payant:12640;gratuit:44105;total:56745,label:musee de france,,,,
3306310,6912095875,Musée Goupil,,Cours Pasteur,33000,Bordeaux,France,fr,closed,44.8358149,-0.5749304,,,,,2001,payant:0;gratuit:0;total:,label:musee de france,,,,
3306303,79979299,Musée des Beaux-Arts,,Rue Dufau,33000,Bordeaux,France,fr,open,44.837340600000005,-0.5806817120198913,,,,,2001,payant:17039;gratuit:23887;total:40926,label:musee de france,,,,
4016701,,Atelier-Musée  (Ecomusée de la Grande Landes),,,,LUXEY,France,fr,open,,,,,,,2001,payant:8903;gratuit:0;total:8903,label:musee de france,,,,
4019201,580649793,Musée Despiau-Wlérick,6,Place Marguerite de Navarre,40000,Mont-de-Marsan,France,fr,open,43.8925268,-0.4993529,,,,,2001,payant:2028;gratuit:8399;total:10427,label:musee de france,,,,
6444501,,Musée Municipal des Beaux-Arts,,,,PAU,France,fr,open,,,,,,,2001,payant:10495;gratuit:7089;total:17584,label:musee de france,,,,
6444502,62924897,Musée Bernadotte,8,Rue Tran,64000,Pau,France,fr,open,43.2973383,-0.37256092903587607,,,,,2001,payant:1918;gratuit:1309;total:3227,label:musee de france,,,,
0304801,,Musée Charles-Louis Philippe,,,,CERILLY,France,fr,open,,,,,,,2001,payant:107;gratuit:0;total:107,label:musee de france,,,,
0327501,38196164,Maison du braconnage,,Rue de Vouzon,41600,Chaon,France,fr,open,47.609893150000005,2.165856899999999,,,,,2001,payant:4078;gratuit:476;total:4554,label:musee de france,,,,
1501402,6580283562,Musée d'Art et d'Archéologie,,Rue des Carmes,15000,Aurillac,France,fr,open,44.9253069,2.4420708,,,,,2001,payant:944;gratuit:30741;total:31685,label:musee de france,,,,
1518702,243472225,Musée d'art et d'histoire Alfred Douët,,Place d'Armes,15100,Saint-Flour,France,fr,open,45.0340635,3.095191787174098,,,,,2001,payant:6316;gratuit:0;total:6316,label:musee de france,,,,
6301001,4008056943,Musée de la Dentelle,,Ancienne Route Nationale,63220,Arlanc,France,fr,open,45.4143324,3.7244768,,,,,2001,payant:2786;gratuit:264;total:3050,label:musee de france,,,,
6311301,67015490,Musée d'Art Roger Quilliot,,Place Louis Deteix,63100,Clermont-Ferrand,France,fr,open,45.79392705,3.1162223146769588,https://www.clermontmetropole.eu/bouger-se-divertir/le-dynamisme-culturel/les-musees-de-clermont-auvergne-metropole/marq-musee-dart-roger-quilliot/,+33 4 43 76 25 25,,,2001,payant:2259;gratuit:8192;total:10451,label:musee de france,,Q1495869,M0121,
6319501,700609620,Musée Départemental de la Céramique Gallo-Romaine,,Rue du Musée,63190,Lezoux,France,fr,open,45.82572555,3.3847440065878374,,,,,2001,payant:1384;gratuit:2200;total:3584,label:musee de france,,,,
6343001,161471210,Musée Municipal de la Coutellerie,,Rue de la Coutellerie,63300,Thiers,France,fr,open,45.852432,3.54815385,,,,,2001,payant:42894;gratuit:5936;total:48830,label:musee de france,,,,
2100801,,Musée Alésia,,,,ALISE-SAINTE-REINE,France,fr,open,,,,,,,2001,payant:15243;gratuit:1443;total:16686,label:musee de france,,,,
2103801,7419064530,Musée Bonaparte,,Place du Château,21130,Auxonne,France,fr,open,47.1915827,5.3833549,,,,,2001,payant:0;gratuit:3070;total:3070,label:musee de france,,,,
2105404,1681385,Hospices de Beaune,,Place des Halles,21200,Beaune,France,fr,open,47.0221265,4.836843691477009,,+33 3 80 24 56 92,,,2001,payant:2770;gratuit:1336;total:4106,label:musee de france;label:monuments-historiques;type:monument-historique,,Q1284848,M1206,PA00112112
2123105,255935624,Muséum - Jardin des Sciences,,Avenue Albert 1er,21000,Dijon,France,fr,open,47.3218523,5.0289424,,,,,2001,payant:7099;gratuit:89127;total:96226,label:musee de france,,,,
5821501,,Musée Ernest Guédon,,,,POUILLY-SUR-LOIRE,France,fr,closed,,,,,,,2001,payant:0;gratuit:0;total:,label:musee de france,,,,
7104001,153902869,Musée de la Mine et des Hommes,,Rue du Bois Clair,71450,Blanzy,France,fr,open,46.701234,4.382382640756303,,+33 3 85 68 22 85,,,2001,payant:11879;gratuit:2493;total:14372,label:musee de france,,Q3330032,M0163,
7113701,142255492,Musée d'Art et d'Archéologie,,Place Notre-Dame,60300,Senlis,France,fr,open,49.2064225,2.5866285006288354,,,,,2001,payant:79124;gratuit:18240;total:97364,label:musee de france,,,,
7115301,2018713809,Ecomusée de la Communauté Le Creusot-Monceau-Les-Mines,,Rue Jules Guesde,71200,Le Creusot,France,fr,open,46.8055361,4.424299,,,,,2001,payant:14012;gratuit:4779;total:18791,label:musee de france,,,,
7152601,1153618944,Musée de Préhistoire de Solutré,,Chemin de la Roche,71960,Solutré-Pouilly,France,fr,open,46.2976296,4.718872,http://rochedesolutre.com/musee-et-jardin-archeo/,+33 3 85 35 85 24,,,2001,payant:19877;gratuit:5594;total:25471,label:musee de france,,,M0180,
8902401,62627118,La Maison,,Rue Jeanne d'Arc,89000,Auxerre,France,fr,open,47.7970869,3.5618150624042473,,+33386729060,+33386513780,,2001,payant:1186;gratuit:11129;total:12315,label:musee de france,,,,
8902402,62636018,Musée d'Art et d'Histoire,,Rue Cochois,89000,Auxerre,France,fr,open,47.8005184,3.5725156901166075,,,,,2001,payant:14721;gratuit:20188;total:34909,label:musee de france,,,,
8927901,,Musée des Arts Naïfs et Populaires de Noyers sur Serein,,,,NOYERS-SUR-SEREIN,France,fr,open,,,,,,,2001,payant:2370;gratuit:1183;total:3553,label:musee de france,,,,
2901901,730880579,Musée des Beaux-Arts de Brest,24,Rue Traverse,29200,Brest,France,fr,open,48.38506775,-4.4901760751918545,,,,,2001,payant:1068;gratuit:10729;total:11797,label:musee de france,,,,
2915101,2628944132,Musée de Morlaix,,Hameau des Rochers,29410,Le Cloître-Saint-Thégonnec,France,fr,open,48.4797924,-3.7964981,,,,,2001,payant:10810;gratuit:13556;total:24366,label:musee de france,,,,
2922001,,Musée Bigouden,,,,PONT-L'ABBE,France,fr,open,,,,,,,2001,payant:11323;gratuit:0;total:11323,label:musee de france,,,,
2928901,1458523215,Musée de l'Ecole Rurale en Bretagne,,Route Départementale Numéro 60 de Landévennec à Dinéault,29560,Trégarvan,France,fr,open,48.2448847,-4.2263366,,,,,2001,payant:13521;gratuit:0;total:13521,label:musee de france,,,,
3523803,178814913,Ecomusée du Pays de Rennes,,Route de Châtillon-Sur-Seiche,35230,Noyal-Châtillon-sur-Seiche,France,fr,open,48.07772335,-1.6663543566452403,,,,,2001,payant:20313;gratuit:21456;total:41769,label:musee de france,,,,
5602301,449218730,Ecomusée de Saint-Dégan,,Rue Park Segal,56400,Brech,France,fr,open,47.7090601,-2.9935749,,,,,2001,payant:9501;gratuit:0;total:9501,label:musee de france,,,,
5609001,2210062014,Ecomusée des Forges,,Mail François Giovannelli,56650,Inzinzac-Lochrist,France,fr,open,47.8238742,-3.2535283,http://www.inzinzac-lochrist.fr/Ecomusee-des-Forges.6681.0.html,+33 2 97 36 98 21,,,2001,payant:6672;gratuit:4323;total:10995,label:musee de france,,,M0223,
5618102,2854735857,Musée de la Compagnie des Indes,,Grand pont,56290,Port-Louis,France,fr,open,47.7106223,-3.3637818,,,,,2001,payant:66137;gratuit:0;total:66137,label:musee de france,,,,
1827901,622149606,Musée Laumônier de la locomotive à vapeur,,Rue de la Société Française,18100,Vierzon,France,fr,open,47.2249147,2.0602204,,,,,2001,payant:0;gratuit:325;total:325,label:musee de france,,,,
2808504,255603,Mainvilliers,,,28300,Mainvilliers,France,fr,open,48.4489382,1.4580047,,,,,2001,payant:50290;gratuit:0;total:50290,label:musee de france,,Q1081448,,
3604601,,Musée George Sand et de la Vallée Noire,,,,LA CHATRE,France,fr,open,,,,,,,2001,payant:4357;gratuit:1481;total:5838,label:musee de france,,,,
3620001,275239079,Musée Archéologique d'Argentomagus,,Impasse du Clos des Mersans,36200,Saint-Marcel,France,fr,open,46.600498,1.5163171900000003,,,,,2001,payant:19553;gratuit:0;total:19553,label:musee de france,,,,
3700302,62782286,Château du Clos-Lucé,2,Rue du Clos Lucé,37400,Amboise,France,fr,closed,47.41032365,0.9921089543099333,http://www.vinci-closluce.com,,,,2001,payant:0;gratuit:0;total:,label:musee de france;label:monuments-historiques;type:monument-historique,,Q1122731,,PA00097504
3707201,62476444,Musée du Vieux Chinon,,Rue Voltaire,37500,Chinon,France,fr,open,47.167215049999996,0.23917757377302834,,,,,2001,payant:2000;gratuit:0;total:2000,label:musee de france,,,,
3711501,65229447,"""""""Maison Musée"""" René Descartes""",29,Rue Descartes,37160,Descartes,France,fr,open,46.972620899999995,0.6999355493597434,,,,,2001,payant:809;gratuit:0;total:809,label:musee de france,,,,
3719601,,Musée de l'Hôtel de Ville,,,,RICHELIEU,France,fr,open,,,,,,,2001,payant:10501;gratuit:0;total:10501,label:musee de france,,,,
4101804,118645362,Maison de la Magie,,Grands Degrés du Château,41000,Blois,France,fr,open,47.5864248,1.333133645374559,,,,,2001,payant:49527;gratuit:0;total:49527,label:musee de france,,,,
4101801,7170311044,Château Musées de Blois,,Petits Degrés du Château,41000,Blois,France,fr,open,47.5857788,1.3313739,,,,,2001,payant:290615;gratuit:0;total:290615,label:musee de france,,,,
4119401,106812759,Musée de Sologne,,Avenue François Mitterrand,41200,Romorantin-Lanthenay,France,fr,open,47.3558188,1.750180813971796,,,,,2001,payant:5211;gratuit:7107;total:12318,label:musee de france,,,,
4500802,,Musée Municipal Théâtre Forain et Archéologique,,,,ARTENAY,France,fr,open,,,,,,,2001,payant:3655;gratuit:5596;total:9251,label:musee de france,,,,
4520301,,Musée Gaston Couté,,,,MEUNG-SUR-LOIRE,France,fr,open,,,,,,,2001,payant:317;gratuit:276;total:593,label:musee de france,,,,
4520801,95074878,Musée Girodet,2,Rue du Faubourg de la Chaussée,45200,Montargis,France,fr,open,47.997254999999996,2.7365194242424016,http://www.musee-girodet.fr,+33 2 38 98 07 81,,,2001,payant:314;gratuit:198;total:512,label:musee de france,,Q3329176,M0284,
4523402,367781410,French Cable Station Museum,41,South Orleans Road,02653,Orleans,United States,us,open,41.7878404,-69.987513,,,,,2001,payant:3472;gratuit:0;total:3472,label:musee de france,,Q5501700,,
4523403,152119467,Musée des Beaux-Arts,1,Rue Fernand Rabier,45000,Orléans,France,fr,open,47.90265,1.9097666942148757,,,,,2001,payant:9106;gratuit:22463;total:31569,label:musee de france,,,,
0810501,91146071,Musée Arthur Rimbaud,,Passerelle du Mont Olympe,08000,Charleville-Mézières,France,fr,open,49.775734650000004,4.7220587026654695,,,,,2001,payant:7605;gratuit:0;total:7605,label:musee de france,,,,
1026801,,Musée Paul Dubois - Alfred Boucher,,,,NOGENT-SUR-SEINE,France,fr,open,,,,,,,2001,payant:0;gratuit:3018;total:3018,label:musee de france,,,,
5212101,,Musée des Beaux-Arts et d'Archéologie,,,,CHAUMONT,France,fr,open,,,,,,,2001,payant:881;gratuit:6664;total:7545,label:musee de france,,,,
5226901,489598272,Musée d'Art et d'Histoire Guy Baillet,,Rue de la Coutellerie,52200,Langres,France,fr,closed,47.8646223,5.333331557244431,http://www.musees-langres.fr,+33 3 25 86 86 86,,,2001,payant:0;gratuit:0;total:,label:musee de france;label:monuments-historiques;type:monument-historique,,Q22985193,M0321,PA00079095
5235301,5915925232,Musée de la Coutellerie,,Place Charles de Gaulle,52800,Nogent,France,fr,open,48.0275986,5.3411994,,,,,2001,payant:6300;gratuit:996;total:7296,label:musee de france,,,,
5145404,1347407,Musée Saint-Rémi,,Rue Simon,51100,Reims,France,fr,open,49.243337,4.040392199495639,,,,,2001,payant:0;gratuit:0;total:,label:musee de france,,,,
5150702,,Musée de l'Argonne Viard-Morel,,,,SAINTE-MENEHOULD,France,fr,open,,,,,,,2001,payant:0;gratuit:1200;total:1200,label:musee de france,,,,
2A00402,2627082116,Musée de la Maison Bonaparte,,Rue Saint-Charles,20000,Ajaccio,France,fr,open,41.9179847,8.7385137,,,,,2001,payant:50266;gratuit:15840;total:66106,label:musee de france,,,,
2505605,6354947603,Musée de la résistance et de la Déportation,,Chemin de Ronde de la Citadelle,25000,Besançon,France,fr,open,47.2290324,6.0349109,,,,,2001,payant:79188;gratuit:0;total:79188,label:musee de france,,,,
2543401,87617807,Musée Courbet,1,Rue de la Froidière,25290,Ornans,France,fr,open,47.1050435,6.147763179625452,http://musee-courbet.doubs.fr/,+33 3 81 86 22 88,,,2001,payant:20698;gratuit:237;total:20935,label:musee de france,,Q3329121,M0339,
3936801,486032307,Viséum-Musée de la Lunette,,Place Jean Jaurès,39400,Morez,France,fr,open,46.5205705,6.0226517,,,,,2001,payant:8420;gratuit:424;total:8844,label:musee de france,,,,
9122301,3407370497,Musée Volant Salis,,Chemin du Fourneou,91590,Cerny,France,fr,open,48.4959939,2.343302,http://www.musee-volant-salis.fr/,,,,2001,payant:910;gratuit:4070;total:4980,label:musee de france,,,,
9201202,,Musée-Jardin Paul Landowski,,,,BOULOGNE-BILLANCOURT,France,fr,open,,,,,,,2001,payant:0;gratuit:1700;total:1700,label:musee de france,,,,
9202501,79575406,Musée d'Art et d'Histoire,,Place du Général Leclerc,92700,Colombes,France,fr,open,48.9234139,2.2520804122623574,https://www.colombes.fr/patrimoine-historique/decouvrez-le-musee-dart-et-dhistoire-745.html,+33147863885,,,2001,payant:0;gratuit:0;total:,label:musee de france,,,,
9202502,,"Musée des Transports Urbains, Interurbains et Ruraux",,,,COLOMBES,France,fr,closed,,,,,,,2001,payant:0;gratuit:0;total:,label:musee de france,,,,
9204001,,Musée Français de la Carte à Jouer,,,,ISSY-LES-MOULINEAUX,France,fr,open,,,,,,,2001,payant:5477;gratuit:6261;total:11738,label:musee de france,,,,
7511609,4580960201,Musée du Parfum Fragonard,,Impasse Sandrié,75009,Paris,France,fr,open,48.8718005,2.3292337,https://fragonard.com,+33140061009,,,2001,payant:84964;gratuit:26427;total:111391,label:musee de france,,Q4820646,,
7511605,247618453,Musée des Arts et Métiers,,Rue Réaumur,75003,Paris,France,fr,open,48.8660977,2.3554138,http://www.arts-et-metiers.net,+33 1 53 01 82 20,+33 1 53 01 82 01,,2001,payant:13313;gratuit:26758;total:40071,label:musee de france,,Q1538826,M5065,
7511601,80848762,Musée d'Ennery,,Avenue Foch,75116,Paris,France,fr,closed,48.8714924,2.2814348372921613,,,,,2001,payant:0;gratuit:0;total:,label:musee de france,,,,
7510602,395785603,Musée National Eugène Delacroix,,Rue Jacob,75006,Paris,France,fr,open,48.85464155,2.335393670592886,,,,,2001,payant:21740;gratuit:22378;total:44118,label:musee de france,,,,
7511701,84326105,Musée National Jean-Jacques Henner,,Rue Fortuny,75017,Paris,France,fr,open,48.88297625,2.3076796906695947,,,,,2001,payant:2013;gratuit:2424;total:4437,label:musee de france,,,,
7511603,,Musée des Arts Asiatiques Guimet,,,,PARIS,France,fr,open,,,,,,,2001,payant:319747;gratuit:117807;total:437554,label:musee de france,,,,
7511503,,Mémorial du Maréchal Leclerc et de la Libération de Paris - Musée Jean Moulin,,,,PARIS,France,fr,open,,,,,,,2001,payant:4785;gratuit:6127;total:10912,label:musee de france,,,,
7510107,,Musée de la Mode et du Textile (Union Centrale des Arts Décoratifs),,,,PARIS,France,fr,open,,,,,,,2001,payant:0;gratuit:0;total:,label:musee de france,,,,
7510705,63178753,Musée national d'Orsay,1,Rue de la Légion d'Honneur,75007,Paris,France,fr,open,48.85991785,2.326582834696561,,,,,2001,payant:1088049;gratuit:576629;total:1664678,label:musee de france,,,,
7510301,156973373,Musée de la Chasse et de la Nature,62,Rue des Archives,75003,Paris,France,fr,open,48.86125555,2.358782698354484,,,,,2001,payant:15648;gratuit:0;total:15648,label:musee de france,,,,
7510807,,"Musée Cernuschi, Musée des Arts de l'Asie de la ville de Paris",,,,PARIS,France,fr,open,,,,,,,2001,payant:41377;gratuit:23331;total:64708,label:musee de france,,,,
7740501,,Musée des Pays de Seine-et-Marne,,,,SAINT-CYR-SUR-MORIN,France,fr,open,,,,,,,2001,payant:2151;gratuit:4231;total:6382,label:musee de france,,,,
7753301,249312019,Musée Stéphane-Mallarmé,,Quai Stéphane Mallarmé,77870,Vulaines-sur-Seine,France,fr,open,48.43122295,2.747069924160446,http://www.seine-et-marne.fr/front/go.do?sid=mus_es_d_partementaux_112599978102422014,+33 1 64 23 73 27,,,2001,payant:3648;gratuit:694;total:4342,label:musee de france,,,M0386,
9301301,,Musée de l'Air et de l'Espace,,,,LE BOURGET Cedex,France,fr,open,,,,,,,2001,payant:226743;gratuit:0;total:226743,label:musee de france,,,,
9306601,63992928,Les Réserves du Musée des Arts et Métiers,,Avenue Amilcar Cabral,93210,Saint-Denis,France,fr,open,48.91430945,2.3603233844227383,,,,,2001,payant:23299;gratuit:0;total:23299,label:musee de france,,,,
9307001,12625911,Channel Islands Military Museum,,Route des Laveurs,JE3 7FQ,St. Ouen,Jersey,je,closed,49.2291856,-2.2343313,,,,,2001,payant:0;gratuit:0;total:,label:musee de france,,,,
9405201,1788374144,Musée de Nogent-Sur-Marne,36,Boulevard Gallieni,94130,Nogent-sur-Marne,France,fr,open,48.840397,2.4849183,,,,,2001,payant:0;gratuit:4000;total:4000,label:musee de france,,,,
9501801,80773777,Château de Rubelles,,Rue de Rubelles,95390,Saint-Prix,France,fr,open,49.01175795,2.264040737016648,,,,,2001,payant:1045;gratuit:0;total:1045,label:musee de france,,,,
9542801,4459265327,Musée jean-Jacques Rousseau,,Rue du Mont Louis,95160,Montmorency,France,fr,open,48.9869805,2.3215161,,,,,2001,payant:1708;gratuit:1336;total:3044,label:musee de france,,,,
9550001,43971811,Musée Tavet Delacour,,Rue Lemercier,95300,Pontoise,France,fr,open,49.051103499999996,2.0996586365287904,,,,,2001,payant:2780;gratuit:1382;total:4162,label:musee de france,,,,
7835001,111722627,Musée du Domaine royal de Marly,1,Route de la Grille Royale,78160,Marly-le-Roi,France,fr,open,48.85892685,2.1055024916555407,https://musee-domaine-marly.fr/,+33139690626,+33130820995,,2001,payant:5295;gratuit:686;total:5981,label:musee de france,,,,
7842001,,Musée-Maison Maurice Ravel,,,,MONTFORT-L'AMAURY,France,fr,closed,,,,,,,2001,payant:0;gratuit:0;total:,label:musee de france,,,,
7851702,130921984,Musée Rambolitrain,,Avenue du Maréchal Foch,78120,Rambouillet,France,fr,open,48.6460441,1.8241725980003551,,,,,2001,payant:18878;gratuit:0;total:18878,label:musee de france,,,,
1119401,186119163,Musée Municipal,,Route des Châteaux,11600,Lastours,France,fr,closed,43.3345386,2.378578108690959,,,,,2001,payant:0;gratuit:0;total:,label:musee de france,,,,
3003201,1754343,Musée,,Rue de la Grille,30300,Beaucaire,France,fr,open,43.807104499999994,4.645857409267913,,,,,2001,payant:896;gratuit:2699;total:3595,label:musee de france;label:monuments-historiques;type:monument-historique,,Q22953563,,PA00103019
3035001,2363137316,Musée Cévenol,1,Rue des Calquières,30120,Le Vigan,France,fr,open,43.9889631,3.6072627,,,,,2001,payant:4317;gratuit:1228;total:5545,label:musee de france,,,,
3403202,1474240591,Musée du Biterrois,,Rampe du 96e Régiment d'Infanterie,34500,Béziers,France,fr,open,43.3382478,3.2149323,,,,,2001,payant:4251;gratuit:8736;total:12987,label:musee de france,,,,
3415301,78355378,Maison des Consuls,,Rue des Consuls,34270,Les Matelles,France,fr,open,43.73108725,3.809882717302635,http://www.cc-grandpicsaintloup.fr/-Maison-des-Consuls-.html,+33 4 99 63 25 46,,,2001,payant:772;gratuit:1182;total:1954,label:musee de france,,,M0473,
3417209,598184808,Musée du Vieux Montpellier,,Place Pétrarque,34062,Montpellier,France,fr,open,43.6106627,3.8785261,,,,,2001,payant:0;gratuit:5248;total:5248,label:musee de france,,,,
3430101,2244412926,Musée Paul Valéry,,Rue François Desnoyer,34200,Sète,France,fr,open,43.3953827,3.6906637,,,,,2001,payant:7541;gratuit:6411;total:13952,label:musee de france,,,,
6613605,81599130,Musée Archéologique de Ruscino,,Chemin de Château-Roussillon,66000,Perpignan,France,fr,closed,42.70817275,2.9460336688120714,,,,,2001,payant:0;gratuit:0;total:,label:musee de france,,,,
1927501,1243279,Musée du Pays d'Ussel,,Rue Michelet,19200,Ussel,France,fr,open,45.546807799999996,2.3074353973684123,,,,,2001,payant:0;gratuit:2419;total:2419,label:musee de france,,,,
5439501,49791497,Musée de l'Ecole de Nancy,,Rue du Sergent Blandan,54100,Nancy,France,fr,open,48.680552000000006,6.166075819038056,,,,,2001,payant:29930;gratuit:18965;total:48895,label:musee de france,,,,
5439502,753920204,Musée des Beaux-Arts,,Rue Stanislas,54100,Nancy,France,fr,open,48.6936593,6.1818995387620195,https://musee-des-beaux-arts.nancy.fr/,+33 3 83853072,+33 3 83853076,,2001,payant:35781;gratuit:14209;total:49990,label:musee de france,,Q428765,M0512,
5452801,1198779245,Musée d’Art et d’Histoire Michel Hachet,25,Rue Gouvion Saint-Cyr,54200,Toul,France,fr,open,48.6784079,5.8911945,http://www.toul.fr,+33 3 83 64 13 38,,,2001,payant:1341;gratuit:3998;total:5339,label:musee de france,,Q3329626,M0515,
5502901,1491444871,Musée du Barrois,,,55000,Bar-le-Duc,France,fr,open,48.7717157,5.1560282,https://www.meusegrandsud.fr/vivre/vos-loisirs/ma-culture/musee-barrois.html,+33 3 29 76 14 67,,,2001,payant:9000;gratuit:0;total:9000,label:musee de france,,,,
5550202,134231670,Musée de la Bière et du Pays de Stenay,17,Rue du Moulin,55700,Stenay,France,fr,open,49.488918999999996,5.186675922267025,,,,,2001,payant:14678;gratuit:0;total:14678,label:musee de france,,,,
5554501,1369481,Musée de la Princerie,,Impasse de la Magdeleine,55100,Verdun,France,fr,open,49.161075,5.382631625025933,,,,,2001,payant:3067;gratuit:1409;total:4476,label:musee de france,,,,
5725601,309445273,Musée de la guerre de 1870,11,Rue de Metz,57130,Gravelotte,France,fr,closed,49.114021050000005,6.029759781346406,http://www.mosellepassion.fr/index.php/les-sites-moselle-passion/musee-de-la-guerre-de-1870,+33 3 87 33 69 40,,,2001,payant:0;gratuit:0;total:,label:musee de france,,,M0526,
5753701,823312790,Musée de la Mine - Carreau Wendel,,Rue Saint-Charles,57540,Petite-Rosselle,France,fr,open,49.2039277,6.8630557,,,,,2001,payant:2703;gratuit:1053;total:3756,label:musee de france,,,,
5763001,2351192125,Musée du Pays de Sarrebourg,,Rue de la Paix,57400,Sarrebourg,France,fr,open,48.7352213,7.05534,,,,,2001,payant:1478;gratuit:479;total:1957,label:musee de france,,,,
5771201,227335819,Musée Départemental Georges de la Tour,,Place Jeanne D'Arc,57630,Vic-sur-Seille,France,fr,closed,48.781924000000004,6.531002917135707,,,,,2001,payant:0;gratuit:0;total:,label:musee de france,,,,
8835101,,Musée Louis Français,,,,PLOMBIERES-LES-BAINS,France,fr,open,,,,,,,2001,payant:241;gratuit:149;total:390,label:musee de france,,,,
8838301,5390940587,Musée Charles de Bruyères,,Rue Charles de Gaulle,88200,Remiremont,France,fr,open,48.0161212,6.593241,,,,,2001,payant:1324;gratuit:4454;total:5778,label:musee de france,,,,
0916001,7228420483,Musée du Textile et du Peigne en Corne,65,Rue Jean Canal,09300,Lavelanet,France,fr,open,42.9296646,1.8454676,,,,,2001,payant:4732;gratuit:328;total:5060,label:musee de france,,,,
0918101,3127357651,Musée de la Préhistoire,,Place de l'Église,09290,Le Mas-d'Azil,France,fr,open,43.0800307,1.3600366,,,,,2001,payant:28599;gratuit:3039;total:31638,label:musee de france,,,,
0921101,1751723922,Musée d'Archéologie,,D 409,09300,Montségur,France,fr,open,42.8716796,1.8332911,,,,,2001,payant:31679;gratuit:0;total:31679,label:musee de france,,,,
1208901,4163135490,Musée Pierre Vetter,,Rue Emma Calvé,12300,Saint-Michel,France,fr,open,44.5542939,2.2583993,,+33 5 65 43 30 08,,museevetter.decazeville@wanadoo.fr,2001,payant:2651;gratuit:0;total:2651,label:musee de france,,,,
3216001,43270337,Musée Campanaire,,Place de l'Hôtel de Ville,32600,L'Isle-Jourdain,France,fr,open,43.6130002,1.082133198397282,,,,,2001,payant:8583;gratuit:1468;total:10051,label:musee de france,,,,
3155502,261558997,Musée Saint-Raymond,1,Place Saint-Sernin,31000,Toulouse,France,fr,open,43.60783095,1.4411195508590957,,,,,2001,payant:53425;gratuit:0;total:53425,label:musee de france,,,,
3155504,22718219,Musée des Augustins,,Rue Antonin Mercié,31000,Toulouse,France,fr,open,43.6009417,1.4463433320120154,,,,,2001,payant:75948;gratuit:35700;total:111648,label:musee de france,,,,
6505902,70833199,Musée Salies,,Place des Thermes,65200,Bagnères-de-Bigorre,France,fr,open,43.06271375,0.14619557596196836,,,,,2001,payant:2449;gratuit:382;total:2831,label:musee de france,,,,
6528601,4716535332,Musée Pyrénéen,25,Rue du Fort,65100,Lourdes,France,fr,open,43.096493,-0.0490182,,,,,2001,payant:84895;gratuit:0;total:84895,label:musee de france,,,,
6529501,5859599904,Musée municipal de Luz-Saint-Sauveur,,Place de la Comporte,65120,Luz-Saint-Sauveur,France,fr,open,42.8714666,-0.003485,,+33 5 62 92 32 88,,,2001,payant:0;gratuit:0;total:,label:musee de france,,Q23719047,M0589,
6530601,,Musée-château Gaston Phébus,,,,MAUVEZIN,France,fr,open,,,,,,,2001,payant:30546;gratuit:0;total:30546,label:musee de france,,,,
4604201,62114469,Musée Henri Martin,,Rue Émile Zola,46000,Cahors,France,fr,open,44.4484051,1.4381918459159788,,,,,2001,payant:1915;gratuit:4872;total:6787,label:musee de france,,,,
4610201,6407717146,Musée du Vieux Figeac,,Route de Cahors,46330,Orniac,France,fr,open,44.5194917,1.6810841,,,,,2001,payant:558;gratuit:0;total:558,label:musee de france,,,,
4618501,,Musée Gallo-Romain d'Uxellodunum,,,,MARTEL,France,fr,open,,,,,,,2001,payant:250;gratuit:40;total:290,label:musee de france,,,,
8101201,3134866346,Musée Eugénie et Maurice Guérin,,Sentier Littéraire,81140,Andillac,France,fr,open,44.0098937,1.8996887,,,,,2001,payant:2281;gratuit:2865;total:5146,label:musee de france,,,,
8109901,1794967910,Musée des Beaux-Arts,,Boulevard Foucault,81600,Gaillac,France,fr,open,43.8949812,1.8980683,,,,,2001,payant:3894;gratuit:2150;total:6044,label:musee de france,,,,
8109902,60929966,Rue Philadelphe Thomas,,Rue Philadelphe Thomas,81600,Gaillac,France,fr,open,43.8993239,1.8943379,,,,,2001,payant:1330;gratuit:2789;total:4119,label:musee de france,,,,
8114001,,Musée du Pays Vaurais,,,,LAVAUR,France,fr,open,,,,,,,2001,payant:0;gratuit:0;total:,label:musee de france,,,,
8114501,,Musée Raymond Lafage,,,,LISLE-SUR-TARN,France,fr,open,,,,,,,2001,payant:0;gratuit:2138;total:2138,label:musee de france,,,,
5912201,6098585497,Musée de Cambrai,15,Rue de l'Épée,59400,Cambrai,France,fr,open,50.1734096,3.2299021,http://www.villedecambrai.com/culture/le-musee-des-beaux-arts/,,,,2001,payant:5484;gratuit:15291;total:20775,label:musee de france,,Q3228695,M0615,
5917801,83720907,Musée de la Chartreuse,,Rue des Chartreux,59500,Douai,France,fr,open,50.3746382,3.075940072347347,,,,,2001,payant:36503;gratuit:0;total:36503,label:musee de france,,,,
5918301,,Musée des Beaux-Arts,,,,DUNKERQUE,France,fr,open,,,,,,,2001,payant:19787;gratuit:0;total:19787,label:musee de france,,,,
5951201,,Musée des Beaux-Arts,,,,ROUBAIX,France,fr,open,,,,,,,2001,payant:99278;gratuit:0;total:99278,label:musee de france,,,,
5900901,153320966,"LaM Lille Métropole - Musée d'Art Moderne, d'Art Comptemporain et d'Art Brut",1,Allée du Musée,59650,Villeneuve-d'Ascq,France,fr,open,50.6375976,3.150668386787098,http://www.musee-lam.fr,+33 3 20 19 68 68,,info@musee-lam.fr,2001,payant:22466;gratuit:63945;total:86411,label:musee de france,,Q1607765,M0639,
6211901,8264025342,Musée de la Mine,457,Cours Promenade Kennedy,62700,Bruay-la-Buissière,France,fr,closed,50.4787367,2.5372076,,,,,2001,payant:0;gratuit:0;total:,label:musee de france,,,,
1411801,315032925,Musée des Beaux-Arts,,Chemin des Fossés du Château,14000,Caen,France,fr,open,49.1862879,-0.3615817,,,,,2001,payant:15992;gratuit:35147;total:51139,label:musee de france,,,,
1437001,8193839563,Musée de la Mine,,Rue de la Fosse Frandemiche,14330,Le Molay-Littry,France,fr,open,49.2426092,-0.8788501,,,,,2001,payant:7522;gratuit:1408;total:8930,label:musee de france,,,,
1447801,5867247985,Musée Municipal,107,Rue Grande,14290,Orbec,France,fr,open,49.0222179,0.4065429,,,,,2001,payant:0;gratuit:3199;total:3199,label:musee de france,,,,
1471501,86513731,Musée de la villa Montebello,,Rue du Général Leclerc,14360,Trouville-sur-Mer,France,fr,open,49.3713839,0.08430517462516637,https://www.trouville.fr/MuseeVillaMontebello/,+33 2 31 88 51 33,,,2001,payant:2559;gratuit:15792;total:18351,label:musee de france;label:monuments-historiques;type:monument-historique,,Q3329757,M0671,PA00111769
5008201,,Musée du Vieux Château,,,,BRICQUEBEC-EN-COTENTIN,France,fr,open,,,,,,,2001,payant:846;gratuit:0;total:846,label:musee de france,,,,
5012901,1932681880,Muséum Emmanuel Liais,,Rue de l'Abbaye,50100,Cherbourg-en-Cotentin,France,fr,open,49.6429877,-1.6294662,,,,,2001,payant:1813;gratuit:4697;total:6510,label:musee de france,,,,
2716501,,Musée du Verre et de la Pierre,,,,CONCHES-EN-OUCHE,France,fr,open,,,,,,,2001,payant:1240;gratuit:260;total:1500,label:musee de france,,,,
2768101,1612275797,Musée Alphonse Georges Poulain,,Rue du Pont,27200,Vernon,France,fr,open,49.094892,1.4850183,,,,,2001,payant:2299;gratuit:5251;total:7550,label:musee de france,,Q3329050,,
7616402,2382698870,Maison des Templiers,,Rue Thomas Bazin,76490,Rouen,France,fr,open,49.5253513,0.7258829,,,,,2001,payant:359;gratuit:169;total:528,label:musee de france,,,,
7621701,387891590,Château-Musée de Dieppe,,Rue de Sygogne,76200,Dieppe,France,fr,open,49.924208899999996,1.0707435133141803,,,,,2001,payant:42822;gratuit:0;total:42822,label:musee de france,,,,
7625901,,Musée des Terres-Neuvas et de la Pêche,,,,FECAMP,France,fr,open,,,,,,,2001,payant:17045;gratuit:22778;total:39823,label:musee de france,,,,
7635101,69981531,Musée Malraux,2,Boulevard Clemenceau,76600,Le Havre,France,fr,open,49.48501735,0.10265666643901614,,,,,2001,payant:44658;gratuit:0;total:44658,label:musee de france,,,,
7649701,69426369,Musée Pierre Corneille,502,Rue Pierre Corneille,76650,Petit-Couronne,France,fr,open,49.38956865,1.0212361735096276,https://museepierrecorneille.fr,+33 2 35 68 13 89,,,2001,payant:970;gratuit:1989;total:2959,label:musee de france,,Q3329311,,
7654007,64180707,Muséum d'Histoire Naturelle,198,Rue Beauvoisine,76000,Rouen,France,fr,closed,49.44710085,1.0990036003098362,,,,,2001,payant:0;gratuit:0;total:,label:musee de france,,,,
4402101,3339518562,Musée du Pays de Retz,,Rue des Moines,44580,Saint-Nazaire,France,fr,open,47.0422902,-1.9521029,,,,,2001,payant:5215;gratuit:728;total:5943,label:musee de france,,,,
4416801,,Musées du Parc Naturel Régional de Brière,,,,SAINT-JOACHIM,France,fr,open,,,,,,,2001,payant:3647;gratuit:0;total:3647,label:musee de france,,,,
4417501,,Musée du Chaume/Kerhinet - Parc Naturel Régional de Brière,,,,SAINT-LYPHARD,France,fr,open,,,,,,,2001,payant:7206;gratuit:0;total:7206,label:musee de france,,,,
4418401,182415,Saint-Nazaire,,,44600,Saint-Nazaire,France,fr,open,47.2733517,-2.2138905,http://www.mairie-saintnazaire.fr/,,,,2001,payant:0;gratuit:136229;total:136229,label:musee de france,,Q152027,,
4900701,126965407,Musée des Beaux-Arts,14,Rue du Musée,49100,Angers,France,fr,closed,47.4689171,-0.5545021308806701,,,,,2001,payant:0;gratuit:0;total:,label:musee de france,,,,
4923401,238336580,Musée Jules-Desbois,,Place Jules Desbois,49390,Parçay-les-Pins,France,fr,open,47.4364575,0.16001628939992282,,,,,2001,payant:1074;gratuit:852;total:1926,label:musee de france,,,,
5309601,,Musée Municipal,,,,ERNEE,France,fr,open,,,,,,,2001,payant:0;gratuit:0;total:,label:musee de france,,,,
5314701,1934021701,Musée du Château de Mayenne,,Quai Carnot,53100,Mayenne,France,fr,closed,48.3028395,-0.6179027,,,,,2001,payant:0;gratuit:0;total:,label:musee de france,,,,
7207101,240371913,Musée de l’Audiovisuel et de la communication,,Allée des Vertolines,72500,La Flèche,France,fr,closed,47.69509155,0.4204272235550677,,,,,2001,payant:0;gratuit:0;total:,label:musee de france,,,,
8508701,620726971,Centre Minier de Faymoreau,,Rue de la Cour,85240,Faymoreau,France,fr,open,46.55511285,-0.6311954483215672,,,,,2001,payant:23189;gratuit:2177;total:25366,label:musee de france,,,,
8509201,107599748,Musée Vendéen,,Place du 137e Regiment d'Infanterie,85200,Fontenay-le-Comte,France,fr,open,46.467419,-0.8075718066037738,,,,,2001,payant:2147;gratuit:3638;total:5785,label:musee de france,,,,
8514601,76083845,Pavillon des Nourrices,,Place de l'Hôtel de Ville,85600,Montaigu,France,fr,open,46.974196,-1.3132451686989501,,,,,2001,payant:0;gratuit:695;total:695,label:musee de france,,,,
8515401,,Musée Clemenceau et de Lattre-de-Tassigny,,,,MOUILLERON-EN-PAREDS,France,fr,open,,,,,,,2001,payant:1571;gratuit:814;total:2385,label:musee de france,,,,
8528401,,Musée Milcendeau Jean-Yole,,,,SOULLANS,France,fr,open,,,,,,,2001,payant:1947;gratuit:1050;total:2997,label:musee de france,,,,
0240802,202812175,Musée des Temps Barbares,,Rue des Moulins,02250,Marle,France,fr,open,49.7417279,3.771423276198486,https://www.museedestempsbarbares.fr/,,,,2001,payant:2218;gratuit:2399;total:4617,label:musee de france,,Q18578032,,
0269102,,Musée des Beaux-Arts Antoine Lecuyer,,,,SAINT-QUENTIN,France,fr,open,,,,,,,2001,payant:3943;gratuit:8983;total:12926,label:musee de france,,,,
6015903,105680987,Musée d'art et d'histoire Antoine Vivenel,,Rue de la Baguette,60200,Compiègne,France,fr,open,49.417504449999996,2.8211998626844323,,,,,2001,payant:0;gratuit:0;total:,label:musee de france,,Q3329058,,
6015901,1789074264,Musée du Château de Compiègne,,Place du Général de Gaulle,60200,Compiègne,France,fr,open,49.4188454,2.830196,,,,,2001,payant:39878;gratuit:71138;total:111016,label:musee de france,,,,
6017601,,Musée de l'Archerie et de l'Art Sacré,,,,CREPY-EN-VALOIS,France,fr,open,,,,,,,2001,payant:3772;gratuit:0;total:3772,label:musee de france,,,,
1610201,65523448,Musée d'art et d'histoire,48,Boulevard Denfert-Rochereau,16100,Cognac,France,fr,open,45.695926150000005,-0.32557439625392126,http://www.musees-cognac.fr/,,,,2001,payant:2970;gratuit:10464;total:13434,label:musee de france,,,,
1715301,81375628,Maison de la Baie du Marais Poitevin,,Rue de l'Église,17137,Esnandes,France,fr,open,46.2492163,-1.1099362669636277,,,,,2001,payant:3014;gratuit:0;total:3014,label:musee de france,,Q3279675,,
1730002,2403784182,Musée du Nouveau Monde,,Rue Fleuriau,17000,La Rochelle,France,fr,open,46.161682,-1.1515984,,,,,2001,payant:4808;gratuit:6728;total:11536,label:musee de france,,,,
1730003,1445028137,Musée des Beaux-Arts,,Rue Gargoulleau,17000,La Rochelle,France,fr,open,46.1621097,-1.1515809,,,,,2001,payant:2010;gratuit:4789;total:6799,label:musee de france,,,,
1730005,368061866,Musée Protestant,,Siwanoy Trail,10475,New York,United States,us,open,40.8717809,-73.8056401,,,,,2001,payant:1295;gratuit:331;total:1626,label:musee de france,,,,
1729903,90816483,Musée d'Art et d'Histoire,63-65,Avenue Charles de Gaulle,17300,Rochefort,France,fr,open,45.93581045,-0.9626472956666667,,,,,2001,payant:0;gratuit:8713;total:8713,label:musee de france,,,,
1741501,2400379556,Musée de l'Echevinage,,Place de l'Échevinage,17100,Saintes,France,fr,open,45.7459257,-0.6333715,,,,,2001,payant:179;gratuit:4389;total:4568,label:musee de france,,,,
1738501,1846520665,Musée de l'Ile d'Oléron,,Rue Aliénor d'Aquitaine,17310,Saint-Pierre-d'Oléron,France,fr,open,45.9428107,-1.3066515,,,,,2001,payant:2090;gratuit:75;total:2165,label:musee de france,,,,
8606602,2541482016,Hôtel Sully,,Rue du Vieux Palais,86100,Châtellerault,France,fr,open,46.8158293,0.5419934,,,,,2001,payant:1826;gratuit:1353;total:3179,label:musee de france,,,,
8613701,6957982158,Musée Charbonneau-Lassay,,Rue du Martray,86200,Loudun,France,fr,open,47.0100455,0.0757517,,,,,2001,payant:356;gratuit:0;total:356,label:musee de france,,,,
8619401,1392914253,Musée Rupert de Chièvres,,Rue Charles Gide,86000,Poitiers,France,fr,open,46.5807401,0.338418,,,,,2001,payant:2110;gratuit:417;total:2527,label:musee de france,,,,
8619403,40140547,Musée Sainte-Croix,,Rue Paschal le Coq,86000,Poitiers,France,fr,closed,46.57912245,0.34775441471496493,,+33 5 49 41 07 53,,,2001,payant:0;gratuit:0;total:,label:musee de france,,Q772297,,
0422701,7973813938,Musée de la Béate,,Venelle de la Béate,43600,Sainte-Sigolène,France,fr,open,45.2575515,4.2167147,,,,,2001,payant:2134;gratuit:0;total:2134,label:musee de france,,,,
0601802,,Musée d'Histoire Locale,,,,BIOT,France,fr,open,,,,,,,2001,payant:4367;gratuit:0;total:4367,label:musee de france,,,,
0608804,708311359,Musée d'Art Naïf Anatole Jakovsky,,Avenue du Rond-Point,06206,Nice,France,fr,open,43.685953749999996,7.232618735926904,,,,,2001,payant:7963;gratuit:11029;total:18992,label:musee de france,,,,
0608809,,Musée du Vieux-Logis de Nice,,,,NICE,France,fr,open,,,,,,,2001,payant:0;gratuit:1216;total:1216,label:musee de france,,,,
0608808,578023554,Musée du Palais Lascaris,15,Rue Droite,06300,Nice,France,fr,open,43.6974774,7.2772468,,,,,2001,payant:0;gratuit:38036;total:38036,label:musee de france,,,,
1300402,102077401,Musée Camarguais,,Rue Yvan Audouard,13200,Pont-de-Crau,France,fr,open,43.673154249999996,4.639065631892316,,,,,2001,payant:26815;gratuit:0;total:26815,label:musee de france,,,,
1305504,178808268,Musée des Docks Romains,,Place Vivaux,13002,Marseille,France,fr,open,43.29679,5.368048871902269,,,,,2001,payant:6483;gratuit:0;total:6483,label:musee de france,,,,
1310302,,Musée de Salon et de la Crau,,,,SALON-DE-PROVENCE,France,fr,open,,,,,,,2001,payant:5496;gratuit:0;total:5496,label:musee de france,,,,
0506101,1255767096,Musée Départemental des Hautes-Alpes,,Avenue du Maréchal Foch,05000,Gap,France,fr,open,44.5622653,6.0858366,,,,,2001,payant:2784;gratuit:8996;total:11780,label:musee de france,,,,
8305001,179782164,Musée de la gendarmerie et du cinéma,2,Place Blanqui,83990,Saint-Tropez,France,fr,open,43.2696385,6.635539872302159,https://www.saint-tropez.fr/fr/Culture/Mus%C3%A9es/Mus%C3%A9edelagendarmerieetducin%C3%A9ma/tabid/632/Default.aspx,,,,2001,payant:0;gratuit:8027;total:8027,label:musee de france,,Q29734225,,
8306201,,Musée Jean Aicard,,,,LE POUVEREL LA GARDE,France,fr,open,,,,,,,2001,payant:0;gratuit:1527;total:1527,label:musee de france,,,,
8311901,179780946,Musée de l'Annonciade,,Place Georges Grammont,83990,Saint-Tropez,France,fr,open,43.271077,6.637054030608436,,,,,2001,payant:55000;gratuit:0;total:55000,label:musee de france,,,,
8403501,5111377213,Musée juif comtadin,,Rue Hébraïque,84300,Cavaillon,France,fr,open,43.8371707,5.0385983,,,,,2001,payant:6983;gratuit:0;total:6983,label:musee de france,,,,
8403503,5111377213,Musée Jouve,,Rue Hébraïque,84300,Cavaillon,France,fr,closed,43.8371707,5.0385983,,,,,2001,payant:0;gratuit:0;total:,label:musee de france,,,,
0106401,427193998,Parking du Musée,,,01470,Briord,France,fr,open,45.7830187,5.459009317341641,,,,,2001,payant:62;gratuit:38;total:100,label:musee de france,,,,
0126901,138473284,Musée de la Résistance et de la Déportation de l'Ain,3,Montée de l'Abbaye,01130,Nantua,France,fr,open,46.1525,5.60827747048556,,,,,2001,payant:7238;gratuit:0;total:7238,label:musee de france,,,,
0130501,6575792682,Musée Chintreuil,,Rue Borjon,01190,Pont-de-Vaux,France,fr,open,46.4303185,4.9377644,,,,,2001,payant:3299;gratuit:922;total:4221,label:musee de france,,,,
0134301,148365323,Musée de la Bresse - Domaine des Planons,,Chemin des Seiglières,01380,Saint-Cyr-sur-Menthon,France,fr,open,46.28177465,4.98246243180243,,,,,2001,payant:20115;gratuit:0;total:20115,label:musee de france,,,,
0716801,271465,Orgnac-l'Aven,,,07150,Orgnac-l'Aven,France,fr,open,44.3055791,4.4333406,,,,,2001,payant:115997;gratuit:0;total:115997,label:musee de france,,Q326573,,
2619801,3847795321,Musée d'Art conteporain Saint Martin,,Place Saint-Martin,26200,Montélimar,France,fr,open,44.5622891,4.7528529,,,,,2001,payant:13521;gratuit:0;total:13521,label:musee de france,,,,
2628101,61078917,Musée International de la Chaussure,,Rue Saint-Just,26100,Romans-sur-Isère,France,fr,open,45.04446045,5.054248261970345,,,,,2001,payant:19494;gratuit:19779;total:39273,label:musee de france,,,,
3819001,1869973658,Musée-Maison du Patrimoine,,Montée de la Cure,38118,Hières-sur-Amby,France,fr,open,45.7970511,5.2932086,http://www.musee-larina-hieres.com/,+33 4 74 95 19 10,,,2001,payant:2846;gratuit:0;total:2846,label:musee de france,,,M0999,
3826901,1654912102,Musée Matheysin,,Rue Colonel Escallon,38350,La Mure,France,fr,open,44.9046933,5.7845917,,,,,2001,payant:3650;gratuit:1600;total:5250,label:musee de france,,,,
3851601,192104327,Musée Hébert,,Musée Hébert,38700,La Tronche,France,fr,open,45.2057094,5.7489167,,,,,2001,payant:0;gratuit:20000;total:20000,label:musee de france,,,,
3813001,615739719,Musée Hector Berlioz,69,Rue de la République,38260,La Côte-Saint-André,France,fr,open,45.3933564,5.2612214,,,,,2001,payant:5856;gratuit:0;total:5856,label:musee de france,,,,
3854402,135880564,Musée Lapidaire Saint-Pierre,,Rue Delorme,38200,Vienne,France,fr,open,45.522842999999995,4.871060720000006,,,,,2001,payant:3833;gratuit:1374;total:5207,label:musee de france,,,,
4200301,3667424925,Musée Alice Taverne,89,Rue de la Grye,42820,Ambierle,France,fr,open,46.1054907,3.8958563,,,,,2001,payant:7029;gratuit:1124;total:8153,label:musee de france,,,,
4209401,346317680,Musée d'Archéologie,,Rue Victor de Laprade,42110,Feurs,France,fr,open,45.7442509,4.2195524,,,,,2001,payant:5679;gratuit:0;total:5679,label:musee de france,,,,
4221803,,Musée Folklorique du Vieux Saint-Etienne,,,,SAINT-ETIENNE,France,fr,open,,,,,,,2001,payant:887;gratuit:0;total:887,label:musee de france,,,,
4231801,,Musée Rural,,,,USSON-EN-FOREZ,France,fr,open,,,,,,,2001,payant:7958;gratuit:1596;total:9554,label:musee de france,,,,
6912301,188157107,Musée des Tissus et des Arts décoratifs,,Rue de la Charité,69002,Lyon,France,fr,open,45.7533945,4.831325634804587,https://www.museedestissus.fr/,+33 4 78 38 42 07,,,2001,payant:69296;gratuit:13600;total:82896,label:musee de france,,Q3330146,M1038,
6938701,26131828,Centre d'Histoire de la Résistance et de la Déportation,,Rue Étienne Rognon,69007,Lyon,France,fr,open,45.7464306,4.8359519,,,,,2001,payant:17070;gratuit:37709;total:54779,label:musee de france,,,,
7301101,152123714,Musée Municipal d'Albertville-Conflans,,Place de Conflans,73200,Albertville,France,fr,open,45.670647,6.397100738095239,,,,,2001,payant:6136;gratuit:0;total:6136,label:musee de france,,,,
7305401,5858569185,Musée des Minéraux Alpins,,Rue des Vergers,73700,Bourg-Saint-Maurice,France,fr,open,45.6178322,6.7704898,,,,,2001,payant:1409;gratuit:541;total:1950,label:musee de france,,,,
7306504,51263801,Muséum d'histoire naturelle,,Avenue de Lyon,73000,Chambéry,France,fr,open,45.564102399999996,5.916291852044658,,,,,2001,payant:1931;gratuit:1232;total:3163,label:musee de france,,,,
7318101,,Musée de l'Académie de La Val d'Isère,,,,MOÛTIERS,France,fr,open,,,,,,,2001,payant:256;gratuit:174;total:430,label:musee de france,,,,
