id,osm_id,name,number,street,postal_code,city,country,country_code,status,lat,lon,website,phone,fax,email,year,stats,tags,description,wikidata,museofile,mhs
6706101,2399054638,Musée du Pays de Hanau,,Rue du Canal,67330,Bouxwiller,France,fr,open,48.8249535,7.4835103,https://www.museedupaysdehanau.eu/,+33 3 88 00 38 39,,,2013,payant:5106;gratuit:0;total:5106;mdf-date:01/02/2003,osm:museum;type:museum;label:musee de france,,Q3330468,M0003,
6748206,491674514,Musée de l'Œuvre Notre-Dame,,Rue du Dévidoir,67065,Strasbourg,France,fr,open,48.580848200000005,7.751242401547248,,,,,2013,payant:15657;gratuit:22897;total:38554;mdf-date:01/02/2003,osm:museum;type:museum;label:musee de france,,,,
6748208,239813123,Musée Alsacien,23,Quai Saint-Nicolas,67065,Strasbourg,France,fr,open,48.5791319,7.7506043,,,,,2013,payant:30492;gratuit:31869;total:62361;mdf-date:01/02/2003,osm:museum;type:museum;label:musee de france,,,,
6754401,167263621,Musée Westercamp,,Rue du Musée,67160,Wissembourg,France,fr,open,49.0389525,7.944872205882353,,,,,2013,payant:0;gratuit:5576;total:5576;mdf-date:01/02/2003,osm:museum;type:museum;label:musee de france,,,,
6806603,47576073,Musée Bartholdi,30,Rue des Marchands,68000,Colmar,France,fr,open,48.0766092,7.357482163734775,,,,,2013,payant:11458;gratuit:4817;total:16275;mdf-date:01/02/2003,osm:museum;type:museum;label:musee de france,,,,
6822401,343385574,Musée des Beaux-Arts,,Rue Guillaume Tell,68100,Mulhouse,France,fr,open,47.7457898,7.3384212,,,,,2013,payant:0;gratuit:18405;total:18405;mdf-date:01/02/2003,osm:museum;type:museum;label:musee de france,,,,
6823101,6795990385,Musée Vauban,,Place de la Porte de Belfort,68600,Neuf-Brisach,France,fr,open,48.0153387,7.526694,,,,,2013,payant:2151;gratuit:0;total:2151;mdf-date:01/02/2003,osm:museum;type:museum;label:musee de france,,,,
6824801,,Maison du Sundgau - Musée Paysan,,,,OLTINGUE,France,fr,open,,,,,,,2013,payant:895;gratuit:300;total:1195;mdf-date:01/02/2003,osm:museum;type:a classer;label:musee de france,,,,
6827702,1138681,Musée du Dolder,16,Rue du Général de Gaulle,68340,Riquewihr,France,fr,open,48.166885,7.298560434089087,,,,,2013,payant:1666;gratuit:467;total:2133;mdf-date:01/02/2003,osm:museum;type:museum;label:musee de france,,,,
6827801,1936849476,Musée du Papier Peint,28,Rue Zuber,68170,Rixheim,France,fr,open,47.7444268,7.3972851,,,,,2013,payant:7148;gratuit:4857;total:12005;mdf-date:01/02/2003,osm:museum;type:museum;label:musee de france,,,,
6833401,218472174,Ecomusée Textile,,Rue du Parc,68470,Husseren-Wesserling,France,fr,open,47.885102,6.996263986308496,,,,,2013,payant:597;gratuit:1325;total:1922;mdf-date:01/02/2003,osm:museum;type:museum;label:musee de france,,,,
6834301,261857352,Ecomusée d'Alsace,,Chemin des Remparts,68190,Ungersheim,France,fr,open,47.85306625,7.2871333354354615,,,,,2013,payant:158563;gratuit:21390;total:179953;mdf-date:01/02/2003,osm:museum;type:museum;label:musee de france,,,,
2415201,4364598320,Musée Paul Reclus,,Rue Paul Reclus,24250,Domme,France,fr,open,44.8028038,1.2138053,,,,,2013,payant:141;gratuit:13569;total:13710;mdf-date:01/02/2003,osm:museum;type:museum;label:musee de france,,,,
3305801,,Musée d'Art et d'Histoire du Pays Blayais,,,,BLAYE,France,fr,closed,,,,,,,2013,payant:0;gratuit:0;total:;mdf-date:01/02/2003,osm:museum;type:a classer;label:musee de france,,,,
3306304,80024893,Musée d'Aquitaine,,Musée d'Aquitaine,33000,Bordeaux,France,fr,open,44.8356189,-0.5746906101232725,,,,,2013,payant:16796;gratuit:130263;total:147059;mdf-date:06/01/2002,osm:museum;type:museum;label:musee de france,,,,
3354701,161041079,Musée Municipal,,Impasse Dupeyron,33730,Villandraut,France,fr,closed,44.457179,-0.372994201515152,,,,,2013,payant:0;gratuit:0;total:;mdf-date:01/02/2003,osm:museum;type:museum;label:musee de france,,,,
4019401,5825921907,Musée de la Chalosse,118,Avenue de la Gare,40380,Montfort-en-Chalosse,France,fr,open,43.7121874,-0.8378504,,,,,2013,payant:5729;gratuit:2412;total:8141;mdf-date:01/02/2003,osm:museum;type:museum;label:musee de france,,,,
4719501,175744724,La Maison de la Pêche et de l'Eau,3,Rue Sederie,47600,Nérac,France,fr,open,44.1360265,0.3418098475080772,,,,contact@acqua-viva.com,2013,payant:17469;gratuit:8353;total:25822;mdf-date:01/02/2003,osm:museum;type:museum;label:musee de france,,,,
4729201,5827779554,SauveTerre Musée de Préhistoire,,D 68,47500,Sauveterre-la-Lémance,France,fr,open,44.5904194,1.0137463,https://www.sauveterre-prehistoire.fr/,,,,2013,payant:2836;gratuit:663;total:3499;mdf-date:01/02/2003,osm:museum;type:museum;label:musee de france,,,,
6410202,72701913,Musée Bonnat-Helleu - Musée des Beaux-Arts de Bayonne,,Rue Frédéric Bastiat,64100,Bayonne,France,fr,closed,43.49209785,-1.4720849092568902,,,,,2013,payant:0;gratuit:0;total:;mdf-date:01/02/2003,osm:museum;type:museum;label:musee de france,,,,
6416001,209763123,Musée Edmond Rostand,,Avenue du Docteur Alexandre Camino,64250,Larressore,France,fr,open,43.36763065,-1.422666450245681,,,,,2013,payant:72065;gratuit:11321;total:83386;mdf-date:01/02/2003,osm:museum;type:museum;label:musee de france,,,,
6444503,6815484814,Musée,,Rue Mathieu Lalanne,64000,Pau,France,fr,open,43.2977315,-0.3645267,,,,,2013,payant:52299;gratuit:38269;total:90568;mdf-date:06/01/2002,osm:museum;type:defibrillator;label:musee de france,,,,
6444501,,Musée Municipal des Beaux-Arts,,,,PAU,France,fr,open,,,,,,,2013,payant:7207;gratuit:10219;total:17426;mdf-date:01/02/2003,osm:museum;type:a classer;label:musee de france,,,,
6444502,62924897,Musée Bernadotte,8,Rue Tran,64000,Pau,France,fr,open,43.2973383,-0.37256092903587607,,,,,2013,payant:1345;gratuit:3205;total:4550;mdf-date:01/02/2003,osm:museum;type:museum;label:musee de france,,,,
0331002,90587179,Musée des Arts D'Afrique et D'Asie,16,Avenue Thermale,03200,Vichy,France,fr,open,46.128228,3.419954892380618,,,,,2013,payant:2980;gratuit:1895;total:4875;mdf-date:01/02/2003,osm:museum;type:museum;label:musee de france,,,,
1516801,6838400485,La Prade Haute,,,15320,Ruynes-en-Margeride,France,fr,open,44.9961982,3.207524,,,,,2013,payant:7460;gratuit:1467;total:8927;mdf-date:01/02/2003,osm:museum;type:hamlet;label:musee de france,,,,
6319501,700609620,Musée Départemental de la Céramique Gallo-Romaine,,Rue du Musée,63190,Lezoux,France,fr,open,45.82572555,3.3847440065878374,,,,,2013,payant:6673;gratuit:4762;total:11435;mdf-date:01/02/2003,osm:museum;type:museum;label:musee de france,,,,
6324701,,Musée des Peintres de l'Ecole de Murols,,,,MUROL,France,fr,open,,,,,,,2013,payant:3913;gratuit:203;total:4116;mdf-date:01/02/2003,osm:museum;type:a classer;label:musee de france,,,,
6330003,700609623,Musée Régional d'Auvergne,,Rue Delille,63200,Riom,France,fr,open,45.8949948,3.116100670697047,,,,,2013,payant:357;gratuit:1227;total:1584;mdf-date:01/02/2003,osm:museum;type:museum;label:musee de france,,,,
6347001,300341262,Musée Marcel Sahut,,Rue des Écoles,63530,Volvic,France,fr,closed,45.872425,3.038987176470588,www.ville-volvic.fr/html/sahut.html,+33 4 73 33 57 33,,,2013,payant:0;gratuit:0;total:;mdf-date:01/02/2003,osm:museum;type:museum;label:musee de france,,,M0130,
2103801,7419064530,Musée Bonaparte,,Place du Château,21130,Auxonne,France,fr,closed,47.1915827,5.3833549,,,,,2013,payant:0;gratuit:0;total:;mdf-date:01/02/2003,osm:museum;type:museum;label:musee de france,,,,
2111401,272998829,Les Forges de Buffon,,D 905,21500,Buffon,France,fr,closed,47.64955205,4.261698831211838,http://grandeforgedebuffon.monsite.orange.fr/index.jhtml,+33 3 80 92 10 35,,,2013,payant:0;gratuit:0;total:;mdf-date:01/02/2003,osm:museum;type:museum;label:musee de france,,,M0135,
2142502,,Musée des Beaux-Arts,,,,MONTBARD,France,fr,open,,,,,,,2013,payant:0;gratuit:1770;total:1770;mdf-date:01/02/2003,osm:museum;type:a classer;label:musee de france,,,,
5806202,3618004518,Musée du Septennat de François Mitterrand,,Place du Château,58120,Château-Chinon (Ville),France,fr,open,47.0672537,3.9351818,http://www.mitterrand.org/Chateau-Chinon-Musee-du-Septennat.html,+33 3 86 85 19 23,,,2013,payant:3881;gratuit:1527;total:5408;mdf-date:01/02/2003,osm:museum;type:museum;label:musee de france,,Q979000,M0149,
5821501,,Musée Ernest Guédon,,,,POUILLY-SUR-LOIRE,France,fr,closed,,,,,,,2013,payant:0;gratuit:0;total:;mdf-date:01/02/2003,osm:museum;type:a classer;label:musee de france,,,,
5830401,1356183136,Musée Auguste Grasset,,Rue de la Caserne,58210,Varzy,France,fr,open,47.3586963,3.3887096,,,,,2013,payant:2288;gratuit:0;total:2288;mdf-date:01/02/2003,osm:museum;type:museum;label:musee de france,,,,
7101403,3234274490,Musée Lapidaire Saint-Nicolas,,Rue Saint-Nicolas,71400,Autun,France,fr,closed,46.9553471,4.3003744,,,,,2013,payant:0;gratuit:0;total:;mdf-date:01/02/2003,osm:museum;type:museum;label:musee de france,,,,
7101401,7419064532,Musée Verger Tarin,,Rue des Marbres,71400,Autun,France,fr,closed,46.9490737,4.3029239,,,,,2013,payant:0;gratuit:0;total:;mdf-date:01/02/2003,osm:museum;type:museum;label:musee de france,,,,
7107601,,Musée Denon,,,,CHALON-SUR-SAONE,France,fr,open,,,,,,,2013,payant:0;gratuit:9937;total:9937;mdf-date:01/02/2003,osm:museum;type:a classer;label:musee de france,,,,
7110602,2239784876,Musée du Prieuré de Charolles,4,Rue du Prieuré,71120,Charolles,France,fr,open,46.4323423,4.2799145,,,,,2013,payant:1148;gratuit:1260;total:2408;mdf-date:01/02/2003,osm:museum;type:museum;label:musee de france,,,,
7113701,142255492,Musée d'Art et d'Archéologie,,Place Notre-Dame,60300,Senlis,France,fr,open,49.2064225,2.5866285006288354,,,,,2013,payant:8865;gratuit:5288;total:14153;mdf-date:01/02/2003,osm:museum;type:museum;label:musee de france,,,,
7127001,700244362,Musée des Ursulines,,Rue des Ursulines,71000,Saint-Clément,France,fr,open,46.307027,4.833142197130883,,,,,2013,payant:1974;gratuit:20177;total:22151;mdf-date:01/02/2003,osm:museum;type:museum;label:musee de france,,,,
7134201,121382168,Musée Eucharistique du Hiéron,13,Rue de la Paix,71600,Paray-le-Monial,France,fr,open,46.45203975,4.12306320795283,,,,,2013,payant:3593;gratuit:3518;total:7111;mdf-date:01/02/2003,osm:museum;type:museum;label:musee de france,,,,
7135101,3617522815,Pierre-de-Bresse,,Rue du Château,71270,Pierre-de-Bresse,France,fr,open,46.8828547,5.2614005,,3631,,,2013,payant:25249;gratuit:17980;total:43229;mdf-date:01/02/2003,osm:museum;type:post_office;label:musee de france,,,,
7127201,6575800688,Musée Départemental du Compagnonnage,,Rue Pierre François Guillon,71570,Romanèche-Thorins,France,fr,open,46.1880514,4.733891,,,,,2013,payant:2137;gratuit:1635;total:3772;mdf-date:01/02/2003,osm:museum;type:museum;label:musee de france,,,,
8902403,1256497741,Musée,,Rue Gaston Gallimard,89600,Saint-Florentin,France,fr,open,48.0013166,3.7283151,,,,,2013,payant:0;gratuit:882;total:882;mdf-date:01/02/2003,osm:museum;type:museum;label:musee de france,,,,
8936801,2598935771,Musée Colette,,Place du Château,89520,Saint-Sauveur-en-Puisaye,France,fr,open,47.6173071,3.1989776,,,,,2013,payant:6121;gratuit:1057;total:7178;mdf-date:01/02/2003,osm:museum;type:museum;label:musee de france,,,,
8941801,70591575,Hôpital,,Rue du Prieuré,89700,Tonnerre,France,fr,closed,47.856170750000004,3.9753439945533167,http://www.tonnerre.fr/hotel-dieu.htm,,,,2013,payant:0;gratuit:0;total:;mdf-date:01/02/2003,osm:museum;mhs-date:1862;type:museum;label:musee de france;label:monuments-historiques,,Q1862683,M0190,PA00113907
8944601,2628533133,Musée Zervos - Maison Romain Rolland,,,89450,Vézelay,France,fr,open,47.4638215,3.743302,,,,,2013,payant:2110;gratuit:6766;total:8876;mdf-date:01/02/2003,osm:museum;type:museum;label:musee de france,,,,
5618101,2854735858,Musée National de la Marine,,Grand pont,56290,Port-Louis,France,fr,open,47.7102292,-3.3642103,,,,,2013,payant:33877;gratuit:26931;total:60808;mdf-date:01/02/2003,osm:museum;type:museum;label:musee de france,,,,
5626002,145189774,Musée d'Histoire et d'Archéologie de Vannes,2,Rue Noé,56000,Vannes,France,fr,open,47.6568685,-2.7579838224637703,,,,,2013,payant:2162;gratuit:4507;total:6669;mdf-date:01/02/2003,osm:museum;type:museum;label:musee de france,,,,
1803306,6604772585,Musée des Meilleurs Ouvriers de France,,Place Étienne Dolet,18000,Bourges,France,fr,open,47.0814193,2.3993842,,,,,2013,payant:0;gratuit:18298;total:18298;mdf-date:01/02/2003,osm:museum;type:museum;label:musee de france,,,,
1827901,622149606,Musée Laumônier de la locomotive à vapeur,,Rue de la Société Française,18100,Vierzon,France,fr,open,47.2249147,2.0602204,,,,,2013,payant:0;gratuit:7088;total:7088;mdf-date:01/02/2003,osm:museum;type:museum;label:musee de france,,,,
3601001,,Château Musée,,,,AZAY-LE-FERRON,France,fr,open,,,,,,,2013,payant:12295;gratuit:2739;total:15034;mdf-date:01/02/2003,osm:museum;type:a classer;label:musee de france,,,,
3604401,,Musées de Châteauroux - Hôtel Bertrand,,,,CHATEAUROUX,France,fr,open,,,,,,,2013,payant:236;gratuit:17195;total:17431;mdf-date:01/02/2003,osm:museum;type:a classer;label:musee de france,,,,
3707201,62476444,Musée du Vieux Chinon,,Rue Voltaire,37500,Chinon,France,fr,open,47.167215049999996,0.23917757377302834,,,,,2013,payant:754;gratuit:742;total:1496;mdf-date:01/02/2003,osm:museum;type:museum;label:musee de france,,,,
3722601,2180497491,Maison du Souvenir,1,Rue de la Paix,37800,Maillé,France,fr,open,47.0523157,0.5806916,,,,,2013,payant:0;gratuit:256;total:256;mdf-date:01/02/2003,osm:museum;type:museum;label:musee de france,,,,
3724801,1935506460,"Musée Rabelais, Maison La Devinière",,Rue de La Devinière,37500,Seuilly,France,fr,open,47.1405133,0.1784807,http://www.monuments-touraine.fr,+33 2 47 95 91 18,,,2013,payant:8913;gratuit:3594;total:12507;mdf-date:30/04/2002,osm:museum;type:museum;label:musee de france,,Q3329324,M0264,
3726105,40514601,Musée du Compagnonnage,2,Place Anatole France,37000,Tours,France,fr,open,47.39641815,0.6869935971502714,,,,,2013,payant:26217;gratuit:17016;total:43233;mdf-date:01/02/2003,osm:museum;type:museum;label:musee de france,,,,
3726102,73677174,Musée des Beaux-Arts,,Rue Fleury,37000,Tours,France,fr,open,47.39526145000001,0.6950591874529539,,,,,2013,payant:17547;gratuit:36723;total:54270;mdf-date:06/01/2002,osm:museum;type:museum;label:musee de france,,,,
4502801,7689503538,Musée Daniel Vannier,,Place Dunois,45190,Beaugency,France,fr,closed,47.7777641,1.6336664,,,,,2013,payant:0;gratuit:0;total:;mdf-date:01/02/2003,osm:museum;type:museum;label:musee de france,,,,
4508201,91175188,Musée de la Marine de Loire,,Allée de Lamballe,45110,Châteauneuf-sur-Loire,France,fr,open,47.864703,2.2173067297297298,,,,,2013,payant:7403;gratuit:3769;total:11172;mdf-date:01/02/2003,osm:museum;type:museum;label:musee de france,,,,
4520301,,Musée Gaston Couté,,,,MEUNG-SUR-LOIRE,France,fr,open,,,,,,,2013,payant:0;gratuit:2264;total:2264;mdf-date:01/02/2003,osm:museum;type:a classer;label:musee de france,,,,
4520801,95074878,Musée Girodet,2,Rue du Faubourg de la Chaussée,45200,Montargis,France,fr,closed,47.997254999999996,2.7365194242424016,http://www.musee-girodet.fr,+33 2 38 98 07 81,,,2013,payant:0;gratuit:0;total:;mdf-date:27/12/2002,osm:museum;type:museum;label:musee de france,,Q3329176,M0284,
4523402,367781410,French Cable Station Museum,41,South Orleans Road,02653,Orleans,United States,us,open,41.7878404,-69.987513,,,,,2013,payant:997;gratuit:8165;total:9162;mdf-date:01/02/2003,osm:museum;type:museum;label:musee de france,,Q5501700,,
0805301,1874188907,Musée de la Maison de la Dernière Cartouche,,Avenue de la Dernière Cartouche,08140,Bazeilles,France,fr,open,49.6817859,4.9754729,,,,,2013,payant:1173;gratuit:865;total:2038;mdf-date:01/02/2003,osm:museum;type:museum;label:musee de france,,,,
0840901,1874188907,Maison de la derniere Cartouche,,Avenue de la Dernière Cartouche,08140,Bazeilles,France,fr,open,49.6817859,4.9754729,http:///www.culture.gouv.fr/champagne-ardenne/2culture/musee_france/musee_bazeilles.html,+33 3 24 27 15 86,,,2013,payant:50794;gratuit:1777;total:52571;mdf-date:01/02/2003,osm:museum;type:museum;label:musee de france,,Q3279770,M0290,
5206001,,Musée Municipal,,,,BOURBONNE-LES-BAINS,France,fr,open,,,,,,,2013,payant:0;gratuit:2403;total:2403;mdf-date:01/02/2003,osm:museum;type:a classer;label:musee de france,,,,
5145401,733881096,Musée des Beaux-Arts de Saint-Denis,,,51100,Reims,France,fr,open,49.252981500000004,4.030427080857688,,,,,2013,payant:21312;gratuit:29699;total:51011;mdf-date:06/01/2002,osm:museum;type:construction;label:musee de france,,,,
2B16901,,Musée Départemental Pascal Paoli,,,,MOROSAGLIA,France,fr,open,,,,,,,2013,payant:7136;gratuit:2351;total:9487;mdf-date:01/02/2003,osm:museum;type:a classer;label:musee de france,,,,
2505607,7345774337,Muséum de Besançon,,Chemin de Ronde de la Citadelle,25000,Besançon,France,fr,open,47.2285217,6.034794,,,,,2013,payant:240320;gratuit:28107;total:268427;mdf-date:01/02/2003,osm:museum;type:museum;label:musee de france,,,,
2505605,6354947603,Musée de la résistance et de la Déportation,,Chemin de Ronde de la Citadelle,25000,Besançon,France,fr,open,47.2290324,6.0349109,,,,,2013,payant:51706;gratuit:0;total:51706;mdf-date:01/02/2003,osm:museum;type:museum;label:musee de france,,,,
2505601,9493688,Musée des Beaux-Arts et d'Archéologie,,Place de la Révolution,25000,Besançon,France,fr,open,47.2402151,6.023512568897798,,,,,2013,payant:12;gratuit:44878;total:44890;mdf-date:06/01/2002,osm:museum;type:museum;label:musee de france,,,,
7012201,87526037,Musée départemental d'Arts et Traditions Populaires,,Place de la Mairie,70600,Champlitte,France,fr,open,47.61684495,5.514228248646819,http://www.cg70.fr/decouvertes/musee/,+33 3 84 67 82 00,,,2013,payant:6627;gratuit:5308;total:11935;mdf-date:01/02/2003,osm:museum;type:museum;label:musee de france;label:monuments-historiques,,Q15950769,M0354,PA00102130
7027901,7508378482,Musée Baron Martin,,Tertre du Château,70100,Gray,France,fr,open,47.4464565,5.5938421,,,,,2013,payant:3548;gratuit:2658;total:6206;mdf-date:01/02/2003,osm:museum;type:museum;label:musee de france,,,,
3901302,2637893946,Musée de la Vigne et du Vin,,Passage Saint-Vernier,39600,Arbois,France,fr,open,46.9035466,5.7751443,,,,,2013,payant:3795;gratuit:2576;total:6371;mdf-date:01/02/2003,osm:museum;type:museum;label:musee de france,,,,
3930002,631011962,Musée des Beaux-Arts,,Place Philibert de Chalon,39000,Lons-le-Saunier,France,fr,open,46.6760636,5.5535325,,,,,2013,payant:790;gratuit:2902;total:3692;mdf-date:01/02/2003,osm:museum;type:museum;label:musee de france,,,,
3943401,7554007745,Musée Municipal de Poligny,49,Grande Rue,39800,Poligny,France,fr,closed,46.8364264,5.708932,,,,,2013,payant:0;gratuit:0;total:;mdf-date:01/02/2003,osm:museum;type:museum;label:musee de france,,,,
9712003,65839623,Musée l'Herminier,,Rue Sadi Carnot,97110,Pointe-à-Pitre,France,fr,closed,16.238335,-61.537012293084736,,,,,2013,payant:0;gratuit:0;total:;mdf-date:01/02/2003,osm:museum;type:museum;label:musee de france,,,,
9712002,,Musée Départemental Victor Schoelcher,,,,POINTE-A-PITRE,France,fr,open,,,,,,,2013,payant:4669;gratuit:3518;total:8187;mdf-date:01/02/2003,osm:museum;type:a classer;label:musee de france,,,,
9730901,9598387,Musée des Cultures Guyanaises,54,Rue Madame Payé,97300,Cayenne,France,fr,open,4.9412531,-52.32960007270078,,,,,2013,payant:1103;gratuit:8823;total:9926;mdf-date:01/02/2003,osm:museum;type:museum;label:musee de france,,,,
9122301,3407370497,Musée Volant Salis,,Chemin du Fourneou,91590,Cerny,France,fr,open,48.4959939,2.343302,http://www.musee-volant-salis.fr/,,,,2013,payant:616;gratuit:6062;total:6678;mdf-date:01/02/2003,osm:museum;type:museum;label:musee de france,,,,
9204801,137829073,Musée d'Art et d'Histoire,11,Rue des Pierres,92190,Meudon,France,fr,open,48.806285,2.2350911702464784,,,,,2013,payant:3318;gratuit:7063;total:10381;mdf-date:01/02/2003,osm:museum;type:museum;label:musee de france,,,,
9206303,,Musée d'Histoire Locale - Mémoire de la Ville,,,,RUEIL-MALMAISON,France,fr,open,,,,,,,2013,payant:0;gratuit:3812;total:3812;mdf-date:01/02/2003,osm:museum;type:a classer;label:musee de france,,,,
9207201,7325289618,Cité,,Rue de la Cité,79000,Niort,France,fr,open,46.312254,-0.4461027,,,,,2013,payant:23858;gratuit:22331;total:46189;mdf-date:06/01/2002,osm:museum;type:bus_stop;label:musee de france,,,,
7510512,7444,Paris,,,,Paris,France,fr,closed,48.8566969,2.3514616,http://www.paris.fr,,,,2013,payant:0;gratuit:0;total:;mdf-date:06/01/2002,osm:museum;type:administrative;label:musee de france,,Q90,,
7511603,,Etablissement Public du Musée des Arts Asiatiques Guimet,,,,PARIS,France,fr,open,,,,,,,2013,payant:219929;gratuit:168693;total:388622;mdf-date:06/01/2002,osm:museum;type:a classer;label:musee de france,,,,
7510901,251318666,Musée National Gustave Moreau,,Rue de La Rochefoucauld,75009,Paris,France,fr,open,48.8779237,2.3345515,,,,,2013,payant:10273;gratuit:12102;total:22375;mdf-date:06/01/2002,osm:museum;type:museum;label:musee de france,,,,
7510517,237003117,Musée de l'Assistance Publique - Hôpitaux de Paris,,Quai de la Tournelle,75005,Paris,France,fr,closed,48.850724,2.3518758,,,,,2013,payant:0;gratuit:0;total:;mdf-date:02/10/2002,osm:museum;type:museum;label:musee de france,,,,
7510706,895871273,Musée National de la Légion d'Honneur et des Ordres de Chevalerie,,Rue de la Légion d'Honneur,75007,Paris,France,fr,open,48.8602845,2.3247488,,,,,2013,payant:0;gratuit:49531;total:49531;mdf-date:06/01/2002,osm:museum;type:museum;label:musee de france,,,,
7510905,84511123,Musée de la Vie Romantique,16,Rue Chaptal,75009,Paris,France,fr,open,48.88120505,2.333539383011497,,,,,2013,payant:6455;gratuit:69212;total:75667;mdf-date:08/07/2004,osm:museum;type:museum;label:musee de france,,,,
7511502,1212876,Musée Bourdelle,16,Rue Antoine Bourdelle,75015,Paris,France,fr,open,48.843215,2.318663236817872,,,,,2013,payant:12433;gratuit:54170;total:66603;mdf-date:08/07/2004,osm:museum;type:museum;label:musee de france,,,,
7510703,472159547,Musée Rodin,,Rue de Varenne,75007,Paris,France,fr,open,48.85474735,2.3158669998625365,http://www.musee-rodin.fr,+33 1 44 18 61 10,,,2013,payant:442403;gratuit:247479;total:689882;mdf-date:06/01/2002,osm:museum;type:museum;label:musee de france,,Q650519,M5044,
7511201,,Etablissement public de la Porte Dorée - Aquarium Tropical,,,,PARIS,France,fr,open,,,,,,,2013,payant:137305;gratuit:75192;total:212497;mdf-date:06/01/2002,osm:museum;type:a classer;label:musee de france,,,,
7511202,,Établissement Public de la Porte Dorée - Cité Nationale de l’Histoire de l’Immigration,,,,PARIS,France,fr,open,,,,,,,2013,payant:38486;gratuit:53594;total:92080;mdf-date:16/11/2006,osm:museum;type:a classer;label:musee de france,,,,
7510106,7515426,Musée du Louvre,,Rue Croix des Petits Champs,75001,Paris,France,fr,open,48.8611473,2.33802768704666,,,,,2013,payant:5635387;gratuit:3498880;total:9134267;mdf-date:06/01/2002,osm:museum;type:museum;label:musee de france,,,,
7510602,395785603,Musée National Eugène Delacroix,,Rue Jacob,75006,Paris,France,fr,open,48.85464155,2.335393670592886,,,,,2013,payant:42756;gratuit:21652;total:64408;mdf-date:06/01/2002,osm:museum;type:museum;label:musee de france,,,,
7510807,,"Musée Cernuschi, Musée des Arts de l'Asie de la ville de Paris",,,,PARIS,France,fr,open,,,,,,,2013,payant:25254;gratuit:50683;total:75937;mdf-date:08/07/2004,osm:museum;type:a classer;label:musee de france,,,,
7510305,57745741,Musée National Picasso,5,Rue de Thorigny,75003,Paris,France,fr,closed,48.8598698,2.3621151762679444,,,,,2013,payant:0;gratuit:0;total:;mdf-date:06/01/2002,osm:museum;type:museum;label:musee de france,,,,
7510107,,Musée de la Mode et du Textile (Union Centrale des Arts Décoratifs),,,,PARIS,France,fr,open,,,,,,,2013,payant:0;gratuit:0;total:;mdf-date:06/01/2002,osm:museum;type:a classer;label:musee de france,,,,
7511620,,Musée National du Sport (transfert à Nice),,,,PARIS,France,fr,closed,,,,,,,2013,payant:0;gratuit:0;total:;mdf-date:16/12/2003,osm:museum;type:a classer;label:musee de france,,,,
7510304,5918699678,Le Musée,,Rue Joliot-Curie,91190,Le Moulon,France,fr,open,48.7094092,2.1666145,,,,,2013,payant:134156;gratuit:155230;total:289386;mdf-date:06/01/2002,osm:museum;type:cafe;label:musee de france,,,,
7510516,1142933435,Musée du Service de Santé des Armées du Val-de-Grâce,1,Place Alphonse Laveran,75005,Paris,France,fr,open,48.8403652,2.3414281,,,,,2013,payant:8423;gratuit:9020;total:17443;mdf-date:06/12/2006,osm:museum;type:museum;label:musee de france,,,,
7510709,17954721,Musée du Quai Branly - Jacques Chirac,37,Quai Branly,75007,Paris,France,fr,open,48.8609943,2.297969635195826,,,,,2013,payant:334417;gratuit:735042;total:1069459;mdf-date:09/12/2004,osm:museum;type:museum;label:musee de france,,,,
7702201,113288014,Musée Départemental de l'Ecole de Barbizon - Auberge Ganne,92,Grande Rue,77630,Barbizon,France,fr,open,48.4461862,2.602608897820088,,,,,2013,payant:11754;gratuit:7079;total:18833;mdf-date:01/02/2003,osm:museum;type:museum;label:musee de france,,,,
7728803,112363959,Musée de la Gendarmerie Nationale,1-3,Rue Émile Leclerc,77000,Melun,France,fr,closed,48.54554555,2.6529119346368715,,,,,2013,payant:0;gratuit:0;total:;mdf-date:14/01/2011,osm:museum;type:museum;label:musee de france,,,,
7744501,4895409053,Ecomusée,,Rue de la Libération,77176,Savigny-le-Temple,France,fr,open,48.5745236,2.5833427,,,,,2013,payant:665;gratuit:7914;total:8579;mdf-date:01/02/2003,osm:museum;type:bus_stop;label:musee de france,,,,
9304801,4247776290,Musée de l'Histoire Vivante,31,Boulevard Théophile Sueur,93100,Bobigny,France,fr,open,48.8660128,2.4718198,,,,,2013,payant:0;gratuit:0;total:;mdf-date:01/02/2003,osm:museum;type:museum;label:musee de france,,,,
9406801,,Musée de Saint-Maur - Villa Médicis,,,,LA VARENNE-SAINT-HILAIRE,France,fr,open,,,,,,,2013,payant:104;gratuit:9044;total:9148;mdf-date:11/01/2003,osm:museum;type:a classer;label:musee de france,,,,
9550002,41467265,Musée Camille Pissarro,17,Rue du Château,95300,Pontoise,France,fr,open,49.0482376,2.0999530104316726,,,,,2013,payant:0;gratuit:4003;total:4003;mdf-date:01/02/2003,osm:museum;type:museum;label:musee de france,,,,
7842001,,Musée-Maison Maurice Ravel,,,,MONTFORT-L'AMAURY,France,fr,open,,,,,,,2013,payant:1913;gratuit:0;total:1913;mdf-date:01/02/2003,osm:museum;type:a classer;label:musee de france,,,,
7820801,1290290099,Musée de la Ville,,Quai François Truffaut,78180,Montigny-le-Bretonneux,France,fr,open,48.7831521,2.042426,,,,,2013,payant:4241;gratuit:3759;total:8000;mdf-date:01/02/2003,osm:museum;type:museum;label:musee de france,,,,
7864602,,Etablissement Public du Musée et du Domaine National de Versailles,,,,VERSAILLES,France,fr,open,,,,,,,2013,payant:5663007;gratuit:1904001;total:7567008;mdf-date:06/01/2002,osm:museum;type:a classer;label:musee de france,,,,
1104901,1722803126,Eburomagus Musée Archéologique,2,Avenue du Razès,11150,Bram,France,fr,open,43.2438113,2.1161341,,,,,2013,payant:1747;gratuit:1366;total:3113;mdf-date:23/02/2012,osm:museum;type:museum;label:musee de france,,,,
1106901,842466709,Musée des Beaux-Arts,,Rue de Verdun,11000,Carcassonne,France,fr,open,43.212599,2.3550441,,,,,2013,payant:0;gratuit:49366;total:49366;mdf-date:01/02/2003,osm:museum;type:museum;label:musee de france,,,,
1137901,,Musée des Corbières,,,,SIGEAN,France,fr,open,,,,,,,2013,payant:265;gratuit:667;total:932;mdf-date:01/02/2003,osm:museum;type:a classer;label:musee de france,,,,
3020202,73758873,Musée Départemental d'Art Sacré du Gard,,Rue Saint-Jacques,30130,Pont-Saint-Esprit,France,fr,open,44.25521465,4.65104364282573,,,,,2013,payant:152;gratuit:9041;total:9193;mdf-date:01/02/2003,osm:museum;type:museum;label:musee de france,,,,
3025801,3549720940,Musée de la Maison Romane,,Rue Maison Romane,30800,Saint-Gilles,France,fr,open,43.6769345,4.4310858,,,,,2013,payant:1360;gratuit:1335;total:2695;mdf-date:01/02/2003,osm:museum;type:museum;label:musee de france,,,,
3033401,2910313011,Musée George Borias,,Promendade Racine,30700,Uzès,France,fr,open,44.0124548,4.422769,http://uzesmusee.blogspot.fr/,+33 4 66 22 40 23,,,2013,payant:1831;gratuit:1356;total:3187;mdf-date:01/02/2003,osm:museum;type:museum;label:musee de france,,,,
3410801,1964228636,Musée international des Arts modestes,27,Quai du Maréchal de Lattre de Tassigny,34200,Sète,France,fr,closed,43.4060674,3.6961935,https://miam.org/,,,,2013,payant:0;gratuit:0;total:;mdf-date:01/02/2003,osm:museum;type:museum;label:musee de france,,Q3330617,,
3412901,,Site Archéologique Lattara - Musée Henri Prades de Montpellier Agglomération,,,,LATTES,France,fr,open,,,,,,,2013,payant:15792;gratuit:10758;total:26550;mdf-date:01/02/2003,osm:museum;type:a classer;label:musee de france,,,,
3400302,1131132,Musée de l'Ephèbe,,Place du Père Marcel Astruc,34300,Agde,France,fr,open,43.2868906,3.5137320418987343,,,,,2013,payant:9060;gratuit:6899;total:15959;mdf-date:01/02/2003,osm:museum;type:museum;label:musee de france,,,,
3417203,1226892,Musée Fabre,,Cour de la Mosaïque,34062,Montpellier,France,fr,open,43.6117542,3.8801274326001858,,,,,2013,payant:195794;gratuit:86275;total:282069;mdf-date:06/01/2002,osm:museum;type:museum;label:musee de france,,,,
3417901,239313434,Musée Archéologique Paul Soyris,,Rue de la Mairie,34570,Murviel-lès-Montpellier,France,fr,open,43.604634,3.737293733606559,,,,,2013,payant:115;gratuit:440;total:555;mdf-date:01/02/2003,osm:museum;type:museum;label:musee de france,,,,
3428401,178387339,Musée de Préhistoire Régionale,,Passage de la Pourtanelle,34220,Saint-Pons-de-Thomières,France,fr,open,43.488682499999996,2.758707373774508,,,,,2013,payant:923;gratuit:658;total:1581;mdf-date:01/02/2003,osm:museum;type:museum;label:musee de france,,,,
6604902,2004488993,Musée d'Art Moderne,,Boulevard du Maréchal Joffre,66400,Céret,France,fr,open,42.4859058,2.7484863,http://www.musee-ceret.com,+33 4 68 87 27 76,,,2013,payant:52179;gratuit:25814;total:77993;mdf-date:01/02/2003,osm:museum;type:museum;label:musee de france,,Q3329642,M0488,
6605301,,Musée d'Art Moderne - Fonds Peskè,,,,COLLIOURE,France,fr,open,,,,,,,2013,payant:10505;gratuit:3969;total:14474;mdf-date:01/02/2003,osm:museum;type:a classer;label:musee de france,,,,
6613604,81558950,Muséum d'Histoire Naturelle,,Place Joseph Deloncle,66000,Perpignan,France,fr,open,42.69731995,2.8996247968495945,,,,,2013,payant:0;gratuit:11811;total:11811;mdf-date:01/02/2003,osm:museum;type:museum;label:musee de france,,,,
5439501,49791497,Musée de l'Ecole de Nancy,,Rue du Sergent Blandan,54100,Nancy,France,fr,open,48.680552000000006,6.166075819038056,,,,,2013,payant:24411;gratuit:19700;total:44111;mdf-date:01/02/2003,osm:museum;type:museum;label:musee de france,,,,
5439504,,Palais des ducs de Lorraine - Musée Historique Lorrain,,,,NANCY,France,fr,open,,,,,,,2013,payant:26174;gratuit:37053;total:63227;mdf-date:01/02/2003,osm:museum;type:a classer;label:musee de france,,,,
5512201,1874334984,Musée de la Céramique et de l'Ivoire,,Avenue Carcano,55200,Commercy,France,fr,open,48.7634869,5.589335,,,,,2013,payant:1276;gratuit:394;total:1670;mdf-date:01/02/2003,osm:museum;type:museum;label:musee de france,,,,
5535101,,Musée Jules Bastien-Lepage - Musée de la Fortification,,,,MONTMEDY,France,fr,open,,,,,,,2013,payant:13906;gratuit:3055;total:16961;mdf-date:01/02/2003,osm:museum;type:a classer;label:musee de france,,,,
5744801,253993536,Musée Départemental du Sel,,D 38A,57630,Marsal,France,fr,open,48.788486,6.6057743,,,,,2013,payant:3876;gratuit:9979;total:13855;mdf-date:01/02/2003,osm:museum;type:museum;label:musee de france,,,,
5763102,,Moulin de la Blies - Musée des Techniques Faïencières,,,,SARREGUEMINES,France,fr,open,,,,,,,2013,payant:10581;gratuit:13666;total:24247;mdf-date:01/02/2003,osm:museum;type:a classer;label:musee de france,,,,
8838302,2582715284,Musée Charles Friry,12,Rue du Général Humbert,88200,Remiremont,France,fr,open,48.0151071,6.5897788,,,,,2013,payant:515;gratuit:1883;total:2398;mdf-date:11/08/2002,osm:museum;type:museum;label:musee de france,,,,
0920701,3241536133,Château de Foix,,Rue du Rocher,09000,Foix,France,fr,open,42.9657002,1.6047597,https://musees-occitanie.fr/musees/chateau-des-comtes-de-foix,+33 5 61 05 10 10,,,2013,payant:31848;gratuit:0;total:31848;mdf-date:01/02/2003,osm:museum;mhs-date:1840;type:museum;label:musee de france;label:monuments-historiques,,Q1011806,M0543,PA00093793
0926801,2833497965,Musée du Palais des Evêques,,Chemin du Parc,09190,Saint-Lizier,France,fr,open,43.0027248,1.1370459,,,,,2013,payant:9644;gratuit:1637;total:11281;mdf-date:01/02/2003,osm:museum;type:museum;label:musee de france,,,,
3201301,65470495,Musée des Jacobins d'Auch,,Rue Daumesnil,32000,Auch,France,fr,open,43.64730755,0.5875967260305804,https://www.ameriques-auch.fr/,+33 5 62 05 74 79,,,2013,payant:4463;gratuit:11770;total:16233;mdf-date:01/02/2003,osm:museum;mhs-date:1976-07-23;type:museum;label:musee de france;label:monuments-historiques,,Q3330134,M0569,PA00094707
3216001,43270337,Musée Campanaire,,Place de l'Hôtel de Ville,32600,L'Isle-Jourdain,France,fr,open,43.6130002,1.082133198397282,,,,,2013,payant:6420;gratuit:0;total:6420;mdf-date:01/02/2003,osm:museum;type:museum;label:musee de france,,,,
3223301,4777291860,Musée Joseph Abeilhé,,Place du Chevalier d'Antras,32230,Marciac,France,fr,open,43.5252665,0.1617874,,,,,2013,payant:110;gratuit:55;total:165;mdf-date:01/02/2003,osm:museum;type:museum;label:musee de france,,,,
3147201,3509638044,Musée Archéologique Départemental,,Rue du Musée,31510,Saint-Bertrand-de-Comminges,France,fr,open,43.027071,0.569798,,,,,2013,payant:0;gratuit:58393;total:58393;mdf-date:01/02/2003,osm:museum;type:museum;label:musee de france,,,,
3155509,134123637,Muséum d'Histoire Naturelle,,Allée des Justes des Nations,31400,Toulouse,France,fr,open,43.59334975,1.4495300359978467,,,,,2013,payant:124863;gratuit:118569;total:243432;mdf-date:06/01/2002,osm:museum;type:museum;label:musee de france,,,,
3155504,22718219,Musée des Augustins,,Rue Antonin Mercié,31000,Toulouse,France,fr,open,43.6009417,1.4463433320120154,,,,,2013,payant:47259;gratuit:74857;total:122116;mdf-date:06/01/2002,osm:museum;type:museum;label:musee de france,,,,
4610202,68383015,Musée Champollion,,Impasse Champollion,46100,Figeac,France,fr,open,44.60972575,2.0344712177978126,http://www.musee-champollion.fr/,+33 5 65 50 31 08,,,2013,payant:28935;gratuit:11353;total:40288;mdf-date:01/02/2003,osm:museum;mhs-date:1973-07-04;type:museum;label:musee de france;label:monuments-historiques,,Q3329106,M0578,PA00095079
4618201,,"""Musée Archéologique """"Armand-Viré""""""",,,,LUZECH,France,fr,open,,,,,,,2013,payant:386;gratuit:442;total:828;mdf-date:01/02/2003,osm:museum;type:a classer;label:musee de france,,,,
8106901,5168791210,Musée Charles Portal - Histoire et Patrimoine,,Rue Saint-Michel,81170,Cordes-sur-Ciel,France,fr,open,44.0637595,1.9490171,,,,,2013,payant:888;gratuit:367;total:1255;mdf-date:01/02/2003,osm:museum;type:museum;label:musee de france,,,,
8114001,,Musée du Pays Vaurais,,,,LAVAUR,France,fr,open,,,,,,,2013,payant:2502;gratuit:2838;total:5340;mdf-date:01/02/2003,osm:museum;type:a classer;label:musee de france,,,,
8211202,59127408,Accueil Abbaye de Moissac,1,Rue de l'Abbaye,82200,Moissac,France,fr,open,44.10574095,1.0849678812128933,,,,,2013,payant:0;gratuit:112;total:112;mdf-date:01/02/2003,osm:museum;type:museum;label:musee de france,,,,
5901401,626582331,Musée Théophile Jouglet,,Rue des Incas,59300,Valenciennes,France,fr,closed,50.3575723,3.5306353,,,,,2013,payant:0;gratuit:0;total:;mdf-date:01/02/2003,osm:museum;type:museum;label:musee de france,,,,
5904301,81168271,Musée Benoît de Puydt,,Rue des Viviers,59270,Bailleul,France,fr,open,50.7407272,2.7345033127504697,,,,,2013,payant:2375;gratuit:2196;total:4571;mdf-date:01/02/2003,osm:museum;type:museum;label:musee de france,,,,
5918303,76418840,Musée Portuaire,,Rue du Gouvernement,59140,Dunkerque,France,fr,open,51.03788695,2.371791835328942,,,,,2013,payant:28590;gratuit:32399;total:60989;mdf-date:01/02/2003,osm:museum;type:museum;label:musee de france,,,,
5920501,1719221067,Musée Municipal d'Escaudain,,Rue Paul Bert,59124,Escaudain,France,fr,open,50.3330601,3.3443559,,,,,2013,payant:0;gratuit:327;total:327;mdf-date:01/02/2003,osm:museum;type:museum;label:musee de france,,,,
5937501,,Musée d'Histoire Locale de Marchiennes,,,,MARCHIENNES,France,fr,open,,,,,,,2013,payant:212;gratuit:292;total:504;mdf-date:01/02/2003,osm:museum;type:a classer;label:musee de france,,,,
5951201,,Musée des Beaux-Arts,,,,ROUBAIX,France,fr,open,,,,,,,2013,payant:88501;gratuit:104042;total:192543;mdf-date:01/02/2003,osm:museum;type:a classer;label:musee de france,,,,
5952601,2060779461,Musée de la Tour Abbatiale,,Grand'Place,59230,Saint-Amand-les-Eaux,France,fr,open,50.4489646,3.4287208,https://www.saint-amand-les-eaux.fr/musee-de-la-tour-abbatiale,+33 3 27 22 24 55,,,2013,payant:0;gratuit:14550;total:14550;mdf-date:01/02/2003,osm:museum;type:museum;label:musee de france,,,M0635,
6211901,8264025342,Musée de la Mine,457,Cours Promenade Kennedy,62700,Bruay-la-Buissière,France,fr,open,50.4787367,2.5372076,,,,,2013,payant:0;gratuit:1620;total:1620;mdf-date:01/02/2003,osm:museum;type:museum;label:musee de france,,,,
6226801,244679581,Musée de la Céramique de Desvres,,Rue Jean Macé,62240,Desvres,France,fr,open,50.666714,1.842068159820283,https://www.musee-ceramique-desvres.com/,+33 3 21 83 23 23,,,2013,payant:7001;gratuit:710;total:7711;mdf-date:01/02/2003,osm:museum;type:museum;label:musee de france,,,M0645,
6282601,156284015,Musée du Touquet,,Avenue du Château,62520,Le Touquet-Paris-Plage,France,fr,open,50.515136,1.6082098695652083,,,,,2013,payant:3336;gratuit:3490;total:6826;mdf-date:01/02/2003,osm:museum;type:museum;label:musee de france,,,,
1411803,6041330527,Musée d'Initiation à la Nature,,Rue du Carel,14000,Caen,France,fr,open,49.1801396,-0.3735491,,,,,2013,payant:0;gratuit:7297;total:7297;mdf-date:01/02/2003,osm:museum;type:museum;label:musee de france,,,,
1433301,7179675885,Musée d'Ethnographie et d'Arts Populaires et Musée de la Marine,,Rue de la Prison,14600,Honfleur,France,fr,open,49.4196131,0.233695,,,,,2013,payant:16623;gratuit:1029;total:17652;mdf-date:01/02/2003,osm:museum;type:museum;label:musee de france,,,,
1475401,367285600,Paléospace,,Avenue Jean Moulin,14640,Villers-sur-Mer,France,fr,open,49.32785775000001,0.013359593768197942,http://www.paleospace-villers.fr,+33 2 31 81 77 60,,,2013,payant:33764;gratuit:2611;total:36375;mdf-date:01/02/2003,osm:museum;type:museum;label:musee de france,,Q3361743,M7063,
5012901,1932681880,Muséum Emmanuel Liais,,Rue de l'Abbaye,50100,Cherbourg-en-Cotentin,France,fr,open,49.6429877,-1.6294662,,,,,2013,payant:0;gratuit:13443;total:13443;mdf-date:01/02/2003,osm:museum;type:museum;label:musee de france,,,,
5021801,5864155897,Musée Richard Anacréon,,Rue Notre-Dame,50400,Granville,France,fr,open,48.8385103,-1.6006345,,,,,2013,payant:9796;gratuit:6613;total:16409;mdf-date:01/02/2003,osm:museum;type:museum;label:musee de france,,,,
5021802,,Musée du Vieux Granville,,,,GRANVILLE,France,fr,open,,,,,,,2013,payant:5702;gratuit:6929;total:12631;mdf-date:01/02/2003,osm:museum;type:a classer;label:musee de france,,,,
7616402,2382698870,Maison des Templiers,,Rue Thomas Bazin,76490,Rouen,France,fr,closed,49.5253513,0.7258829,,,,,2013,payant:0;gratuit:0;total:;mdf-date:01/02/2003,osm:museum;type:museum;label:musee de france,,,,
7625902,,Musée des Arts & de l'Enfance,,,,FECAMP,France,fr,closed,,,,,,,2013,payant:0;gratuit:0;total:;mdf-date:01/02/2003,osm:museum;type:a classer;label:musee de france,,,,
7649701,69426369,Musée Pierre Corneille,502,Rue Pierre Corneille,76650,Petit-Couronne,France,fr,open,49.38956865,1.0212361735096276,https://museepierrecorneille.fr,+33 2 35 68 13 89,,,2013,payant:725;gratuit:3254;total:3979;mdf-date:01/02/2003,osm:museum;mhs-date:1939-02-13;type:museum;label:musee de france,,Q3329311,,
7654002,64717877,Centre de ressources du Munaé,6,Rue de Bihorel,76000,Rouen,France,fr,open,49.44841715,1.102956596817131,https://www.reseau-canope.fr,+33 2 32 08 71 00,,,2013,payant:3733;gratuit:5562;total:9295;mdf-date:06/01/2002,osm:museum;type:museum;label:musee de france,,,,
7674201,479793340,Musée Victor Hugo,,Véloroute du Val de Seine,76490,Rouen,France,fr,open,49.5243684,0.7222076852299901,,,,,2013,payant:4900;gratuit:7802;total:12702;mdf-date:01/02/2003,osm:museum;type:museum;label:musee de france,,,,
4402101,3339518562,Musée du Pays de Retz,,Rue des Moines,44580,Saint-Nazaire,France,fr,open,47.0422902,-1.9521029,,,,,2013,payant:2709;gratuit:388;total:3097;mdf-date:01/02/2003,osm:museum;type:museum;label:musee de france,,,,
4417601,,Maison de l'Eclusier /Parc Naturel Régional de Brière,,,,SAINT-MALO DE GUERSAC,France,fr,closed,,,,,,,2013,payant:0;gratuit:0;total:;mdf-date:01/02/2003,osm:museum;type:a classer;label:musee de france,,,,
4900702,126922667,Musée Pincé,32,Rue Lenepveu,49100,Angers,France,fr,closed,47.4720515,-0.5520486041666655,,,,,2013,payant:0;gratuit:0;total:;mdf-date:01/02/2003,osm:museum;type:museum;label:musee de france,,,,
4900701,126965407,Musée des Beaux-Arts,14,Rue du Musée,49100,Angers,France,fr,open,47.4689171,-0.5545021308806701,,,,,2013,payant:18977;gratuit:49644;total:68621;mdf-date:06/01/2002,osm:museum;type:museum;label:musee de france,,,,
4909904,1301987143,Musée du Textile,,Avenue Marcel Cauchy,49300,Cholet,France,fr,open,47.0681455,-0.8982604,,,,,2013,payant:5801;gratuit:6563;total:12364;mdf-date:06/04/2002,osm:museum;type:bus_stop;label:musee de france,,,,
4932802,6288432418,Château-Musée,,Passage du Marquis de Geoffre,49730,Montsoreau,France,fr,open,47.2156815,0.0624464,,,,,2013,payant:77110;gratuit:19659;total:96769;mdf-date:01/02/2003,osm:museum;type:museum;label:musee de france,,,,
5300301,277287315,Musée des Tisserands,,Place Billard de Veaux,53300,Ambrières-les-Vallées,France,fr,open,48.403429,-0.6308390478723407,http://www.ambriereslesvallees.mairie53.fr/musee-des-tisserands,,,,2013,payant:369;gratuit:43;total:412;mdf-date:01/02/2003,osm:museum;type:museum;label:musee de france,,,M0761,
5312201,8292313,Musée Archéologique Départemental de Jublains,,Rue de la Libération,53160,Jublains,France,fr,open,48.2545411,-0.4975843742117564,,,,,2013,payant:14788;gratuit:12703;total:27491;mdf-date:18/07/2002,osm:museum;type:museum;label:musee de france,,,,
7218101,31113389,Musée de Tessé,2,Avenue de Paderborn,72000,Le Mans,France,fr,open,48.01029025,0.20354701794554617,,,,,2013,payant:14882;gratuit:10816;total:25698;mdf-date:06/01/2002,osm:museum;type:museum;label:musee de france,,,,
8501201,,Ecomusée du Marais Breton Vendéen,,,,LA BARRE-DE-MONTS,France,fr,open,,,,,,,2013,payant:15733;gratuit:7273;total:23006;mdf-date:01/02/2003,osm:museum;type:a classer;label:musee de france,,,,
8515401,,Musée Clemenceau et de Lattre-de-Tassigny,,,,MOUILLERON-EN-PAREDS,France,fr,open,,,,,,,2013,payant:1517;gratuit:2856;total:4373;mdf-date:06/01/2002,osm:museum;type:a classer;label:musee de france,,,,
0268401,,Musée de la Vie Rurale et Forestière,,,,SAINT-MICHEL-EN-THIERACHE,France,fr,closed,,,,,,,2013,payant:0;gratuit:0;total:;mdf-date:01/02/2003,osm:museum;type:a classer;label:musee de france,,,,
0269102,,Musée des Beaux-Arts Antoine Lecuyer,,,,SAINT-QUENTIN,France,fr,open,,,,,,,2013,payant:2218;gratuit:3464;total:5682;mdf-date:01/02/2003,osm:museum;type:a classer;label:musee de france,,,,
0281001,2306316571,Musée Alexandre Dumas,,Rue Démoustier,02600,Villers-Cotterêts,France,fr,open,49.2530103,3.0896156,,,,,2013,payant:744;gratuit:1199;total:1943;mdf-date:01/02/2003,osm:museum;type:museum;label:musee de france,,,,
6017601,,Musée de l'Archerie et de l'Art Sacré,,,,CREPY-EN-VALOIS,France,fr,open,,,,,,,2013,payant:5149;gratuit:1701;total:6850;mdf-date:01/02/2003,osm:museum;type:a classer;label:musee de france,,,,
6061203,5357724995,Musée de la Vénerie,,Place Saint-Maurice,60300,Senlis,France,fr,open,49.2072693,2.5833865,,,,,2013,payant:1691;gratuit:3001;total:4692;mdf-date:01/02/2003,osm:museum;type:museum;label:musee de france,,,,
8071601,,Musée Départemental de l'Abbaye de Saint-Riquier,,,,ABBEVILLE,France,fr,closed,,,,,,,2013,payant:0;gratuit:0;total:;mdf-date:01/02/2003,osm:museum;type:a classer;label:musee de france,,,,
8025301,53222058,Rue du Musée,,Rue du Musée,80600,Doullens,France,fr,open,50.1546836,2.3437442,,,,,2013,payant:261;gratuit:4958;total:5219;mdf-date:01/02/2003,osm:museum;type:residential;label:musee de france,,,,
1601502,44840732,Atelier - Musée du Papier,,Rue de Bordeaux,16000,Saint-Cybard,France,fr,open,45.65355635,0.1495325417727163,,,,,2013,payant:902;gratuit:19263;total:20165;mdf-date:01/02/2003,osm:museum;type:museum;label:musee de france,,,,
1700401,64991060,Musée Napoléon,,Rue des Remparts,17123,Île-d'Aix,France,fr,open,46.01301115,-1.1746563582783416,https://musees-nationaux-malmaison.fr/musees-napoleonien-africain/musee-et-collections/a-musee-napoleonien,+33546846640,,,2013,payant:11319;gratuit:10556;total:21875;mdf-date:06/01/2002,osm:museum;type:museum;label:musee de france,,,,
1729904,90808269,Musée National de la Marine,,Rue Amiral Meyer,17300,Rochefort,France,fr,open,45.9423,-0.9649527857142841,,,,,2013,payant:18786;gratuit:19094;total:37880;mdf-date:06/01/2002,osm:museum;type:museum;label:musee de france,,,,
1741503,67102698,Musée Archéologique,,Place Bassompierre,17100,Saintes,France,fr,open,45.745257699999996,-0.6286597158380409,,,,,2013,payant:0;gratuit:41081;total:41081;mdf-date:01/02/2003,osm:museum;type:museum;label:musee de france,,,,
7919103,795257552,Musée Bernard d'Agesci,26,Avenue de Limoges,79000,Niort,France,fr,open,46.3210536,-0.454416,https://www.niortagglo.fr/fr/sortir-visiter/patrimoine-et-musees/musee-bernard-dagesci/index.html,+33 5 49 78 72 00,,,2013,payant:9030;gratuit:8140;total:17170;mdf-date:01/02/2003,osm:museum;type:museum;label:musee de france,,Q30218775,M7052,
7919104,795257552,Musée Bernard d’Agesci,26,Avenue de Limoges,79000,Niort,France,fr,open,46.3210536,-0.454416,,,,,2013,payant:3845;gratuit:7535;total:11380;mdf-date:01/02/2003,osm:museum;type:museum;label:musee de france,,,,
7920201,7281748506,Musée d'Art et d'Histoire Georges Turpin,1,Rue de la Vau Saint-Jacques,79200,Parthenay,France,fr,open,46.6519796,-0.2493419,,,,,2013,payant:0;gratuit:8849;total:8849;mdf-date:01/02/2003,osm:museum;type:museum;label:musee de france,,,,
8606602,2541482016,Hôtel Sully,,Rue du Vieux Palais,86100,Châtellerault,France,fr,closed,46.8158293,0.5419934,,,,,2013,payant:0;gratuit:0;total:;mdf-date:01/02/2003,osm:museum;type:museum;label:musee de france,,,,
0401901,5820118153,Musée de la vallée,,D 25,04530,Les Prats,France,fr,open,44.5154275,6.7524549,,,,,2013,payant:8960;gratuit:2424;total:11384;mdf-date:01/02/2003,osm:museum;type:museum;label:musee de france,,,,
0407001,570290612,Musée Gassendi,64,Boulevard Gassendi,04000,Digne-les-Bains,France,fr,open,44.09366125,6.238406603731345,,,,,2013,payant:2776;gratuit:8189;total:10965;mdf-date:01/02/2003,osm:museum;type:museum;label:musee de france,,,,
0408801,5921065703,"Salagon, Musée et Jardins",,D 13,04300,Mane,France,fr,open,43.9352027,5.7592489,www.musee-de-salagon.com,+33 4 92 75 70 50,,info-salagon@le04.fr,2013,payant:0;gratuit:700;total:700;mdf-date:01/02/2003,osm:museum;type:museum;label:musee de france,,Q2400780,,
0416601,,Musée Archéologique,,,,RIEZ-LA-ROMAINE,France,fr,closed,,,,,,,2013,payant:0;gratuit:0;total:;mdf-date:01/02/2003,osm:museum;type:a classer;label:musee de france,,,,
0602701,63863191,Musée-Château de Cagnes,,Chemin des Collettes,06800,Cagnes-sur-Mer,France,fr,open,43.667673699999995,7.156948252321393,,,,,2013,payant:18629;gratuit:13642;total:32271;mdf-date:01/02/2003,osm:museum;type:museum;label:musee de france,,,,
0602902,2824215844,Musée de la Mer,,Allée des Eucalyptus,06407,Cannes,France,fr,open,43.523904,7.0453202,,,,,2013,payant:44519;gratuit:35981;total:80500;mdf-date:01/02/2003,osm:museum;type:museum;label:musee de france,,,,
0606901,67332571,Villa-Musée Jean-Honoré Fragonard,,Impasse Fragonard,06130,Grasse,France,fr,open,43.656642649999995,6.921149488843463,,,,,2013,payant:0;gratuit:5931;total:5931;mdf-date:01/02/2003,osm:museum;type:museum;label:musee de france,,,,
0608305,137784549,Musée des Beaux-Arts,,Avenue de la Madone,06500,Menton,France,fr,open,43.766633999999996,7.487974850304882,,,,,2013,payant:0;gratuit:22025;total:22025;mdf-date:01/02/2003,osm:museum;type:museum;label:musee de france,,,,
0608304,1837011704,Musée Jean Cocteau Collection Séverin Wunderman,,Quai de Monléon,06500,Menton,France,fr,open,43.7747355,7.5057931,,,,,2013,payant:44987;gratuit:18097;total:63084;mdf-date:01/02/2003,osm:museum;type:museum;label:musee de france,,,,
0608303,137783866,Musée de Préhistoire Régionale,,Rue Lieutenant Bosano,06500,Menton,France,fr,open,43.777006,7.503394160358056,,,,,2013,payant:0;gratuit:13378;total:13378;mdf-date:01/02/2003,osm:museum;type:museum;label:musee de france,,,,
0608816,140260291,Musée des Beaux Arts,33,Avenue des Baumettes,06000,Nice,France,fr,open,43.694615,7.248872770499375,http://www.musee-beaux-arts-nice.org,+334 92 15 28 28,,,2013,payant:0;gratuit:72475;total:72475;mdf-date:01/02/2003,osm:museum;mhs-date:1976-12-17;type:museum;label:musee de france;label:monuments-historiques,,Q3330218,,PA00080804
0608805,,Musée Archéologique - Site de  Cimiez,,,,NICE,France,fr,open,,,,,,,2013,payant:15511;gratuit:30870;total:46381;mdf-date:01/02/2003,osm:museum;type:a classer;label:musee de france,,,,
0608804,708311359,Musée d'Art Naïf Anatole Jakovsky,,Avenue du Rond-Point,06206,Nice,France,fr,open,43.685953749999996,7.232618735926904,,,,,2013,payant:0;gratuit:18162;total:18162;mdf-date:01/02/2003,osm:museum;type:museum;label:musee de france,,,,
0608802,2264574278,Musée d'Art et d'Histoire,,Fossés de la Citadelle,06230,Villefranche-sur-Mer,France,fr,open,43.701601,7.3106059,,,,,2013,payant:24055;gratuit:52781;total:76836;mdf-date:01/02/2003,osm:museum;type:museum;label:musee de france,,,,
0608810,,Musée Archéologique - Site de Terra Amata,,,,NICE,France,fr,open,,,,,,,2013,payant:0;gratuit:23129;total:23129;mdf-date:01/02/2003,osm:museum;type:a classer;label:musee de france,,,,
0615501,88040667,Musée national Picasso « La guerre et la paix »,,Place de la Libération,06220,Vallauris,France,fr,open,43.580016,7.0532145,https://musees-nationaux-alpesmaritimes.fr/picasso,+33 4 93 64 71 83,,,2013,payant:0;gratuit:0;total:;mdf-date:01/02/2003,osm:museum;type:museum;label:musee de france,,,M5047,
1300101,34505703,Musée Granet,,Rue Cardinale,13626,Aix-en-Provence,France,fr,open,43.5254678,5.4526102,,,,,2013,payant:5158;gratuit:11392;total:16550;mdf-date:01/02/2003,osm:museum;type:museum;label:musee de france,,Q965780,,
1300107,86887992,Muséum d'Histoire Naturelle,166,Avenue Jean Monnet,13090,Aix-en-Provence,France,fr,open,43.5333952,5.4236948895737775,,,,,2013,payant:9203;gratuit:32138;total:41341;mdf-date:06/01/2002,osm:museum;type:arts_centre;label:musee de france,,,,
1300106,,Musée Paul Arbaud,,,,AIX-EN-PROVENCE,France,fr,closed,,,,,,,2013,payant:0;gratuit:0;total:;mdf-date:01/02/2003,osm:museum;type:a classer;label:musee de france,,,,
1305504,178808268,Musée des Docks Romains,,Place Vivaux,13002,Marseille,France,fr,open,43.29679,5.368048871902269,,,,,2013,payant:0;gratuit:9420;total:9420;mdf-date:01/02/2003,osm:museum;type:museum;label:musee de france,,,,
1305507,4945719803,Musée d'Archéologie Méditerranéenne,,Rue de la Vieille Tour,13000,Marseille,France,fr,open,43.3005836,5.3682814,,,,,2013,payant:55467;gratuit:60114;total:115581;mdf-date:01/02/2003,osm:museum;type:museum;label:musee de france,,,,
1305509,2365711963,"Musée des arts décoratifs, de la faïence et de la mode",,Avenue Clot Bey,13008,Marseille,France,fr,open,43.2572605,5.3820342,,+33 4 91 25 26 34,,,2013,payant:0;gratuit:0;total:;mdf-date:01/02/2003,osm:museum;type:museum;label:musee de france,,Q16928705,M0914,
1305601,99114044,Musée Ziem,,Boulevard du 14 Juillet,13500,Martigues,France,fr,open,43.408675849999995,5.054218764027318,,,,,2013,payant:14083;gratuit:9661;total:23744;mdf-date:01/02/2003,osm:museum;type:museum;label:musee de france,,,,
1309201,,Musée Municipal Paul Lafran,,,,SAINT-CHAMAS,France,fr,open,,,,,,,2013,payant:0;gratuit:4487;total:4487;mdf-date:01/02/2003,osm:museum;type:a classer;label:musee de france,,,,
1310301,,Musée de l'Empéri de Salon et de la Crau,,,,SALON-DE-PROVENCE,France,fr,open,,,,,,,2013,payant:6673;gratuit:33336;total:40009;mdf-date:01/02/2003,osm:museum;type:a classer;label:musee de france,,,,
8305002,,Musée de la Société d’Etudes Scientifiques et Achéologiques,,,,DRAGUIGNAN,France,fr,closed,,,,,,,2013,payant:0;gratuit:0;total:;mdf-date:01/02/2003,osm:museum;type:a classer;label:musee de france,,,,
8306102,171570079,Musée des Troupes de Marine,,Avenue Musée Troupes de la Marine,83600,Fréjus,France,fr,open,43.47196945,6.720701433077389,,,,,2013,payant:0;gratuit:14600;total:14600;mdf-date:05/07/2006,osm:museum;type:museum;label:musee de france,,,,
8311801,130473371,Musée archéologique de Saint-Raphaël,,Rue de la Vieille Église,83700,Saint-Raphaël,France,fr,open,43.42600365,6.769243065966667,http://www.musee-saintraphael.com/,,,,2013,payant:0;gratuit:28237;total:28237;mdf-date:01/02/2003,osm:museum;type:museum;label:musee de france,,Q3329530,,
8400301,1933370178,Musée d'Apt,,Place du Postel,84400,Apt,France,fr,open,43.8757289,5.3979308,,,,,2013,payant:2666;gratuit:5688;total:8354;mdf-date:01/02/2003,osm:museum;type:museum;label:musee de france,,,,
8400701,83784740,Musee Lapidaire,27,Rue de la République,84000,Avignon,France,fr,open,43.9458915,4.806026218689352,https://www.musee-lapidaire.org/,+33 4 90 14 62 45,,musee.calvet@mairie-avignon.com,2013,payant:0;gratuit:13206;total:13206;mdf-date:06/01/2002,osm:museum;type:museum;label:musee de france,,Q15952870,,
8403105,1802571381,Musée Sobirats,,Rue du Collège,84200,Carpentras,France,fr,open,44.054376,5.046289,,,,,2013,payant:333;gratuit:730;total:1063;mdf-date:01/02/2003,osm:museum;type:museum;label:musee de france,,,,
8413901,694831616,Musée de la Liberté,,Chemin de la Fontaine de Vaucluse,84800,Fontaine-de-Vaucluse,France,fr,open,43.9220356,5.1302755,https://www.vaucluse.fr/culture-et-patrimoine/les-musees-departementaux/le-musee-d-histoire-jean-garcin-39-45-a-fontaine-de-vaucluse-865.html,+33 4 90 20 24 00,,,2013,payant:2095;gratuit:1535;total:3630;mdf-date:01/02/2003,osm:museum;type:museum;label:musee de france,,,M1180,
0119201,1357668479,Musée Archéologique,,Place de l'Église,01580,Izernore,France,fr,open,46.220134,5.5548124,,,,,2013,payant:940;gratuit:1590;total:2530;mdf-date:01/02/2003,osm:museum;type:museum;label:musee de france,,,,
0130501,6575792682,Musée Chintreuil,,Rue Borjon,01190,Pont-de-Vaux,France,fr,open,46.4303185,4.9377644,,,,,2013,payant:5076;gratuit:1368;total:6444;mdf-date:01/02/2003,osm:museum;type:museum;label:musee de france,,,,
0140701,3215575817,Musée du Bois,,Allée Serullaz,01420,Seyssel,France,fr,closed,45.9591932,5.8316942,,,,,2013,payant:0;gratuit:0;total:;mdf-date:01/02/2003,osm:museum;type:museum;label:musee de france,,,,
0716801,271465,Orgnac-l'Aven,,,07150,Orgnac-l'Aven,France,fr,closed,44.3055791,4.4333406,,,,,2013,payant:0;gratuit:0;total:;mdf-date:01/02/2003,osm:museum;type:administrative;label:musee de france,,Q326573,,
0731601,68332777,Musée Archéologique,,Rue des Ruines,07130,Soyons,France,fr,open,44.8879269,4.850776295600438,https://www.soyons.fr/le-musee,,,,2013,payant:11822;gratuit:1784;total:13606;mdf-date:01/02/2003,osm:museum;type:museum;label:musee de france,,,,
2636401,,Musée du site Préhistorique,,,,VASSIEUX-EN-VERCORS,France,fr,open,,,,,,,2013,payant:12644;gratuit:0;total:12644;mdf-date:01/02/2003,osm:museum;type:a classer;label:musee de france,,,,
7428102,5537445278,Musée du Chablais,2,Rue Michaud,74200,Thonon-les-Bains,France,fr,open,46.3735929,6.4782107,,,,,2013,payant:1223;gratuit:1913;total:3136;mdf-date:01/02/2003,osm:museum;type:museum;label:musee de france,,,,
3819101,,Musée d'Huez et de l'Oisans,,,,ALPE D'HUEZ,France,fr,open,,,,,,,2013,payant:407;gratuit:1339;total:1746;mdf-date:01/02/2003,osm:museum;type:a classer;label:musee de france,,,,
3818507,2388638743,Musée Stendhal,20,Grande Rue,38000,Grenoble,France,fr,open,45.1915799,5.7281471,,,,,2013,payant:3857;gratuit:1946;total:5803;mdf-date:01/02/2003,osm:museum;type:museum;label:musee de france,,,,
3818505,5107373,Musée de Grenoble,,Voie de Corato,38000,Grenoble,France,fr,open,45.1949735,5.732253035706579,,,,,2013,payant:94540;gratuit:101467;total:196007;mdf-date:06/01/2002,osm:museum;type:museum;label:musee de france,,,,
3818502,1102624,Musée Dauphinois,30,Rue Maurice Gignoux,38031,Grenoble,France,fr,open,45.19514890000001,5.727071788552173,,,,,2013,payant:0;gratuit:67630;total:67630;mdf-date:01/02/2003,osm:museum;type:museum;label:musee de france,,,,
3854403,2675390826,Musée des Beaux-Arts et d'Archéologie,,Place Miremont,38200,Vienne,France,fr,open,45.5239956,4.8748576,,,,,2013,payant:1997;gratuit:2945;total:4942;mdf-date:01/02/2003,osm:museum;type:museum;label:musee de france,,,,
3854401,3034478021,Musée de la minéralogie et pétrographie,,Avenue de la Libération,87240,Ambazac,France,fr,open,45.9575558,1.4001491,,,,,2013,payant:3905;gratuit:4103;total:8008;mdf-date:01/02/2003,osm:museum;type:museum;label:musee de france,,,,
3856201,1249592087,Musée de la Révolution,,Parvis du Château,38220,Vizille,France,fr,open,45.0757435,5.7735647,https://musees.isere.fr/musee/domaine-de-vizille-musee-de-la-revolution-francaise,+33 4 76 00 38 38,,,2013,payant:4364;gratuit:56352;total:60716;mdf-date:01/02/2003,osm:museum;type:museum;label:musee de france,,Q2389498,,
3856301,,Musée Lucien Mainssieux,,,,VOIRON,France,fr,open,,,,,,,2013,payant:0;gratuit:6102;total:6102;mdf-date:28/07/2004,osm:museum;type:a classer;label:musee de france,,,,
4200301,3667424925,Musée Alice Taverne,89,Rue de la Grye,42820,Ambierle,France,fr,open,46.1054907,3.8958563,,,,,2013,payant:3375;gratuit:673;total:4048;mdf-date:01/02/2003,osm:museum;type:museum;label:musee de france,,,,
4209101,,Musée d'Histoire du  20ème Siècle - Résistance et Déportation,,,,ESTIVAREILLES,France,fr,open,,,,,,,2013,payant:3043;gratuit:0;total:3043;mdf-date:01/02/2003,osm:museum;type:a classer;label:musee de france,,,,
4209401,346317680,Musée d'Archéologie,,Rue Victor de Laprade,42110,Feurs,France,fr,open,45.7442509,4.2195524,,,,,2013,payant:1133;gratuit:4041;total:5174;mdf-date:01/02/2003,osm:museum;type:museum;label:musee de france,,,,
4221804,49047701,Musée de la Mine / Site Couriot,3,Boulevard Maréchal Franchet d'Espèrey,69400,Saint-Étienne,France,fr,open,45.4382508,4.376131713032282,,,,,2013,payant:28471;gratuit:27520;total:55991;mdf-date:01/02/2003,osm:museum;type:museum;label:musee de france,,,,
4221901,224220352,Château de la Bastie d'Urfé,,Route de la Batie D'urfe,42130,Saint-Étienne-le-Molard,France,fr,open,45.72759345,4.078354343331679,,,,,2013,payant:15157;gratuit:9999;total:25156;mdf-date:01/02/2003,osm:museum;type:attraction;label:musee de france,,,,
6938201,6575800693,Musée des Hospices Civils de Lyon,,Rue du Port du Temple,69002,Lyon,France,fr,closed,45.7608407,4.8315116,,,,,2013,payant:0;gratuit:0;total:;mdf-date:01/02/2003,osm:museum;type:museum;label:musee de france,,,,
6938501,700244364,Musées Gadagne,,Rue de la Fronde,69005,Lyon,France,fr,open,45.76405015,4.827286083631041,,,,,2013,payant:46636;gratuit:58497;total:105133;mdf-date:01/02/2003,osm:museum;type:museum;label:musee de france,,,,
7300801,79376440,Musée du docteur Faure,,Boulevard des Côtes,73100,Aix-les-Bains,France,fr,open,45.6925521,5.915906815022636,,,,,2013,payant:5894;gratuit:5453;total:11347;mdf-date:01/02/2003,osm:museum;type:museum;label:musee de france,,,,
7300802,79376440,Musée Faure,,Boulevard des Côtes,73100,Aix-les-Bains,France,fr,closed,45.6925521,5.915906815022636,http://www.aixlesbains.fr/fre/culture/museefaure,+33 4 79 61 06 57,,,2013,payant:0;gratuit:0;total:;mdf-date:01/02/2003,osm:museum;type:museum;label:musee de france,,Q3329161,M1045,
7306504,51263801,Muséum d'histoire naturelle,,Avenue de Lyon,73000,Chambéry,France,fr,closed,45.564102399999996,5.916291852044658,,,,,2013,payant:0;gratuit:0;total:;mdf-date:01/02/2003,osm:museum;type:museum;label:musee de france,,,,
6748205,222359,Cabinet des Estampes et des Dessins,,Passage Hans Haug,67065,Strasbourg,France,fr,open,48.58102195,7.750841658661065,,,,,2013,payant:2666;gratuit:4112;total:6778;mdf-date:01/02/2003,osm:museum;type:museum;label:musee de france,,,,
6748213,486650189,Musée Tomi Ungerer,,Rue Joseph Massol,67073,Strasbourg,France,fr,open,48.58570885,7.755036989998281,,,,,2013,payant:19511;gratuit:29410;total:48921;mdf-date:18/04/2008,osm:museum;type:museum;label:musee de france,,,,
6800401,5144762817,Musee de Sapeur-Pompier d'Alsace,38,Rue de Luppach,68480,Vieux-Ferrette,France,fr,open,47.5040397,7.3041592,http://www.musee-sapeur-pompier.fr,+33 6 11 68 75 13,,info@sundgau-sudalsace.fr,2013,payant:1030;gratuit:2168;total:3198;mdf-date:01/02/2003,osm:museum;type:museum;label:musee de france,,,M0038,
6806601,1265125753,Musée d'Unterlinden,,Place Unterlinden,68000,Colmar,France,fr,open,48.0798635,7.3555565,,,,,2013,payant:127745;gratuit:23133;total:150878;mdf-date:01/02/2003,osm:museum;type:museum;label:musee de france,,,,
6816401,55263399,Musée du Vignoble et des Vins d'Alsace,1b,Grand'Rue,68240,Colmar-Ribeauvillé,France,fr,open,48.13509195,7.2883942443186704,,,,,2013,payant:3241;gratuit:0;total:3241;mdf-date:01/02/2003,osm:museum;type:museum;label:musee de france,,,,
6822405,4551159534,Cité du Train,,Rue Alfred de Glehn,68200,Mulhouse,France,fr,open,47.7500026,7.2938678,,,,,2013,payant:78346;gratuit:9125;total:87471;mdf-date:18/11/2002,osm:museum;type:museum;label:musee de france,,,,
6822403,449007880,Musée National de l'Automobile - Collection Schlumpf,,Autodrome du Musée de l'Automobile,68100,Mulhouse,France,fr,open,47.7612848,7.327971551196445,,,,,2013,payant:163224;gratuit:27996;total:191220;mdf-date:01/02/2003,osm:museum;type:museum;label:musee de france,,,,
2403701,369318223,Musée du Tabac,,Place du Feu,24100,Bergerac,France,fr,open,44.84971,0.4837602,,,,,2013,payant:4270;gratuit:1542;total:5812;mdf-date:01/02/2003,osm:museum;type:museum;label:musee de france,,,,
2429901,3136128949,Musée des Arts et Traditions Populaires du Périgord,1,Rue Raoul Grassin,24400,Mussidan,France,fr,open,45.0375278,0.362942,,,,,2013,payant:1001;gratuit:1389;total:2390;mdf-date:01/02/2003,osm:museum;type:museum;label:musee de france,,,,
3306305,154772662,Muséum d'Histoire Naturelle de Bordeaux,,Place Bardineau,33000,Bordeaux,France,fr,open,44.848504500000004,-0.5799899525187916,,,,,2013,payant:0;gratuit:24774;total:24774;mdf-date:01/02/2003,osm:museum;type:museum;label:musee de france,,,,
3306306,79979299,Musée des Beaux-Arts (aile sud),,Rue Dufau,33000,Bordeaux,France,fr,open,44.837340600000005,-0.5806817120198913,,,,,2013,payant:8373;gratuit:34716;total:43089;mdf-date:01/02/2003,osm:museum;type:museum;label:musee de france,,Q954222,,
3306309,79979931,Centre National Jean Moulin,,Place Jean Moulin,33000,Bordeaux,France,fr,open,44.83869155,-0.5776727923278906,,,,,2013,payant:0;gratuit:28971;total:28971;mdf-date:01/02/2003,osm:museum;type:museum;label:musee de france,,,,
3324302,265021487,Musée Ferroviaire,,Avenue de la Gare,,Guîtres,France,fr,closed,45.038131199999995,-0.19740907772227706,,,,,2013,payant:0;gratuit:0;total:;mdf-date:01/02/2003,osm:museum;type:museum;label:musee de france,,,,
4012001,250016053,Abbaye d'Arthous,,Route de l'Abbaye,40300,Hastingues,France,fr,open,43.527247,-1.122068373792949,http://arthous.landes.fr/,+33 5 58 73 03 89,,,2013,payant:4802;gratuit:5537;total:10339;mdf-date:01/02/2003,osm:museum;mhs-date:1955-09-24;type:museum;label:musee de france;label:monuments-historiques,,Q2820503,M0078,PA00083954
4019201,580649793,Musée Despiau-Wlérick,6,Place Marguerite de Navarre,40000,Mont-de-Marsan,France,fr,open,43.8925268,-0.4993529,,,,,2013,payant:0;gratuit:27557;total:27557;mdf-date:01/02/2003,osm:museum;type:museum;label:musee de france,,,,
4028201,5825880178,Musée d'Art et d'Histoire du Cap de Gascogne,,Rue du Général Lamarque,40500,Saint-Sever,France,fr,open,43.7585204,-0.5718845,,,,,2013,payant:0;gratuit:837;total:837;mdf-date:01/02/2003,osm:museum;type:museum;label:musee de france,,,,
4700101,,Musée des Beaux-Arts,,,,AGEN,France,fr,open,,,,,,,2013,payant:8465;gratuit:15599;total:24064;mdf-date:01/02/2003,osm:museum;type:a classer;label:musee de france,,,,
6406201,4335473543,Musée des Volcans,,Rue du Tennis,64260,Arudy,France,fr,open,43.1016426,-0.4297682,,,,,2013,payant:1075;gratuit:1071;total:2146;mdf-date:01/02/2003,osm:museum;type:museum;label:musee de france,,,,
6410203,72680932,Muséum d'Histoire Naturelle,,Chemin d'Ansot,64100,Bayonne,France,fr,open,43.474312999999995,-1.4780509999999973,,,,,2013,payant:0;gratuit:21372;total:21372;mdf-date:01/02/2003,osm:museum;type:museum;label:musee de france,,,,
6410201,631661850,Musée Basque et de l'Histoire de Bayonne,37,Quai des Corsaires,64100,Bayonne,France,fr,open,43.4910854,-1.473799,,,,,2013,payant:16196;gratuit:21884;total:38080;mdf-date:01/02/2003,osm:museum;type:museum;label:musee de france,,,,
0319501,,Musée Rieckotter,,,,NERIS-LES-BAINS,France,fr,open,,,,,,,2013,payant:702;gratuit:343;total:1045;mdf-date:01/02/2003,osm:museum;type:a classer;label:musee de france,,,,
0327501,38196164,Maison du braconnage,,Rue de Vouzon,41600,Chaon,France,fr,open,47.609893150000005,2.165856899999999,,,,,2013,payant:6269;gratuit:1755;total:8024;mdf-date:01/02/2003,osm:museum;type:museum;label:musee de france,,,,
1501402,6580283562,Musée d'Art et d'Archéologie,,Rue des Carmes,15000,Aurillac,France,fr,open,44.9253069,2.4420708,,,,,2013,payant:1333;gratuit:14747;total:16080;mdf-date:01/02/2003,osm:museum;type:museum;label:musee de france,,,,
1518701,982070993,Musée de la Haute Auvergne,,Place d'Armes,15100,Saint-Flour,France,fr,open,45.0330738,3.0948739,,,,,2013,payant:2104;gratuit:3264;total:5368;mdf-date:01/02/2003,osm:museum;type:museum;label:musee de france,,,,
4307001,4398955697,Musée Christian Guth,,Rue du Château,43380,Chilhac,France,fr,closed,45.1559183,3.4375593,https://www.museechilhac.com,+33471774726,,musee.chilhac@gmail.com,2013,payant:0;gratuit:0;total:;mdf-date:01/02/2003,osm:museum;type:museum;label:musee de france,,Q31203264,,
4315701,86361080,Musée Crozatier,2,Rue Antoine Martin,43000,Le Puy-en-Velay,France,fr,open,45.038547949999995,3.8831423625708483,,,,,2013,payant:3003;gratuit:0;total:3003;mdf-date:01/02/2003,osm:museum;type:museum;label:musee de france,,,,
6301001,4008056943,Musée de la Dentelle,,Ancienne Route Nationale,63220,Arlanc,France,fr,open,45.4143324,3.7244768,,,,,2013,payant:838;gratuit:11;total:849;mdf-date:01/02/2003,osm:museum;type:museum;label:musee de france,,,,
6324501,6579420423,Musée Lapidaire,,Rue de l'Abbaye,63200,Mozac,France,fr,closed,45.8903834,3.0944753,,,,,2013,payant:0;gratuit:0;total:;mdf-date:01/02/2003,osm:museum;type:museum;label:musee de france,,,,
6343001,161471210,Musée Municipal de la Coutellerie,,Rue de la Coutellerie,63300,Thiers,France,fr,open,45.852432,3.54815385,,,,,2013,payant:19964;gratuit:4243;total:24207;mdf-date:01/02/2003,osm:museum;type:museum;label:musee de france,,,,
2105401,365168495,Musée du Vin de Bourgogne,,Rue Paradis,21200,Beaune,France,fr,open,47.0235691,4.837196,,,,,2013,payant:17469;gratuit:4126;total:21595;mdf-date:01/02/2003,osm:museum;type:museum;label:musee de france,,,,
2105402,371712800,Musée des Beaux-Arts,,Rempart Madeleine,21200,Beaune,France,fr,open,47.0214963,4.8398035,,,,,2013,payant:5834;gratuit:2306;total:8140;mdf-date:01/02/2003,osm:museum;type:museum;label:musee de france,,,,
2123105,255935624,Muséum - Jardin des Sciences,,Avenue Albert 1er,21000,Dijon,France,fr,open,47.3218523,5.0289424,,,,,2013,payant:6574;gratuit:104315;total:110889;mdf-date:06/01/2002,osm:museum;type:museum;label:musee de france,,,,
2146401,4737197736,Musée Municipal,,Rue Camille Rodier,21700,Nuits-Saint-Georges,France,fr,open,47.1386701,4.9505695,,,,,2013,payant:406;gratuit:2421;total:2827;mdf-date:01/02/2003,osm:museum;type:museum;label:musee de france,,,,
5807901,2627307760,Musée d'Art et d'Histoire Romain Rolland,,Avenue de la République,58500,Clamecy,France,fr,open,47.4603634,3.5204872,,,,,2013,payant:2218;gratuit:2048;total:4266;mdf-date:01/02/2003,osm:museum;type:museum;label:musee de france,,,,
5819402,,Musée de la Faïence et des Beaux-Arts,,,,NEVERS,France,fr,open,,,,,,,2013,payant:3151;gratuit:7900;total:11051;mdf-date:01/02/2003,osm:museum;type:a classer;label:musee de france,,,,
7104701,,Musée Saint-Nazaire,,,,BOURBON-LANCY,France,fr,open,,,,,,,2013,payant:0;gratuit:892;total:892;mdf-date:01/02/2003,osm:museum;type:a classer;label:musee de france,,,,
7107602,121572642,Musée Nicéphore Niepce,,Quai des Messageries,71100,Chalon-sur-Saône,France,fr,open,46.7802664,4.8554572593273075,,,,,2013,payant:0;gratuit:26183;total:26183;mdf-date:01/02/2003,osm:museum;type:museum;label:musee de france,,,,
7115301,2018713809,Ecomusée de la Communauté Le Creusot-Monceau-Les-Mines,,Rue Jules Guesde,71200,Le Creusot,France,fr,open,46.8055361,4.424299,,,,,2013,payant:4662;gratuit:6517;total:11179;mdf-date:01/02/2003,osm:museum;type:museum;label:musee de france,,,,
7154302,7419064526,Musée Bourguignon -  Perrin de Puycousin,,Rue de l'Hôpital,71700,Tournus,France,fr,closed,46.562054,4.9109128,,,,,2013,payant:0;gratuit:0;total:;mdf-date:01/02/2003,osm:museum;type:museum;label:musee de france,,,,
8902401,62627118,La Maison,,Rue Jeanne d'Arc,89000,Auxerre,France,fr,open,47.7970869,3.5618150624042473,,+33386729060,+33386513780,,2013,payant:0;gratuit:17259;total:17259;mdf-date:01/02/2003,osm:museum;type:social_facility;label:musee de france,,,,
8902402,62636018,Musée d'Art et d'Histoire,,Rue Cochois,89000,Auxerre,France,fr,open,47.8005184,3.5725156901166075,,,,,2013,payant:7576;gratuit:25528;total:33104;mdf-date:01/02/2003,osm:museum;type:museum;label:musee de france,,,,
8902501,3050054378,Musée de l'Avallonnais Jean Després,5,Rue du Collège,89200,Avallon,France,fr,open,47.4869881,3.9065509,,,,,2013,payant:1144;gratuit:3045;total:4189;mdf-date:01/02/2003,osm:museum;type:museum;label:musee de france,,,,
8934401,2909216095,Musée de l'Aventure du Son,,Place de l'Hôtel de Ville,89170,Saint-Fargeau,France,fr,open,47.6414558,3.0709553,,,,,2013,payant:3980;gratuit:789;total:4769;mdf-date:18/04/2008,osm:museum;type:museum;label:musee de france,,,,
2903901,3986935,Musée de la Pêche,,Rue Militaire,29900,Concarneau,France,fr,open,47.87218475,-3.916013041508858,,,,,2013,payant:20283;gratuit:14570;total:34853;mdf-date:01/02/2003,osm:museum;type:museum;label:musee de france,,,,
2904601,40686013,Le Port-Musée,,Place de l'Enfer,29100,Ploaré,France,fr,open,48.092424,-4.332596723404256,,,,,2013,payant:30090;gratuit:11509;total:41599;mdf-date:01/02/2003,osm:museum;type:museum;label:musee de france,,,,
3518801,187066533,Groupe Scolaire Publique du Pays Pourpré,,,35160,Montfort-sur-Meu,France,fr,closed,48.138191250000006,-1.9603132440564033,,,,,2013,payant:0;gratuit:0;total:;mdf-date:01/02/2003,osm:museum;type:school;label:musee de france,,,,
3523802,30437810,Musée des Beaux-Arts,20,Quai Émile Zola,35000,Rennes,France,fr,open,48.1096227,-1.6749412386363636,,,,,2013,payant:15070;gratuit:60843;total:75913;mdf-date:06/01/2002,osm:museum;type:museum;label:musee de france,,,,
3528802,,Musée d'Histoire de la Ville de Saint-Malo,,,,SAINT-MALO,France,fr,open,,,,,,,2013,payant:16296;gratuit:10213;total:26509;mdf-date:01/02/2003,osm:museum;type:a classer;label:musee de france,,,,
5603401,93998149,Musée de la Préhistoire,10,Place de la Chapelle,56340,Carnac,France,fr,open,47.584818999999996,-3.0782984382775096,https://www.museedecarnac.com,+33 2 97 52 22 04,,,2013,payant:26107;gratuit:5730;total:31837;mdf-date:01/02/2003,osm:museum;type:museum;label:musee de france,,Q3330102,M0221,
5609001,2210062014,Ecomusée des Forges,,Mail François Giovannelli,56650,Inzinzac-Lochrist,France,fr,open,47.8238742,-3.2535283,http://www.inzinzac-lochrist.fr/Ecomusee-des-Forges.6681.0.html,+33 2 97 36 98 21,,,2013,payant:1605;gratuit:1593;total:3198;mdf-date:01/02/2003,osm:museum;type:museum;label:musee de france,,,M0223,
5605701,70306579,Musée du Faouët,,Rue de Quimper,56320,Le Faouët,France,fr,open,48.031697050000005,-3.4906217109201094,,,,,2013,payant:14393;gratuit:4166;total:18559;mdf-date:14/11/2011,osm:museum;type:museum;label:musee de france,,,,
2805101,290571187,Musée de l'Homme de Néandertal,,D 144,19120,La Chapelle-aux-Saints,France,fr,closed,44.98183915,1.7134623841845142,,,,,2013,payant:0;gratuit:0;total:;mdf-date:01/02/2003,osm:museum;type:museum;label:musee de france,,,,
2808503,,Musée des Beaux-Arts,,,,CHARTRES,France,fr,open,,,,,,,2013,payant:2085;gratuit:1564;total:3649;mdf-date:01/02/2003,osm:museum;type:a classer;label:musee de france,,,,
2819601,2288529939,Musée Marcel Proust,,Rue des Trois Maries,28120,Illiers-Combray,France,fr,open,48.2996594,1.2430508,,,,,2013,payant:4958;gratuit:574;total:5532;mdf-date:01/02/2003,osm:museum;type:museum;label:musee de france,,,,
2836301,7659392646,Musée Farcot,,Rue de la Porte d'Étampes,28700,Sainville,France,fr,closed,48.4154704,1.8793028,,,,,2013,payant:0;gratuit:0;total:;mdf-date:01/02/2003,osm:museum;type:museum;label:musee de france,,,,
3608801,238746663,Musée de l'Hospice Saint-Roch,,Rue de l'Hospice Saint-Roch,36100,Issoudun,France,fr,open,46.944976,1.9942319952380998,,,,,2013,payant:133;gratuit:14278;total:14411;mdf-date:02/05/2002,osm:museum;type:museum;label:musee de france,,,,
3609201,149263965,Musée L,3,Place des Sciences,1348,Ottignies-Louvain-la-Neuve,België / Belgique / Belgien,be,closed,50.6682538,4.620109526811595,http://www.museel.be,+32 10 47 48 41,,info@museel.be,2013,payant:0;gratuit:0;total:;mdf-date:01/02/2003,osm:museum;type:museum;label:musee de france,,Q48773771,,
3711501,65229447,"""""""Maison Musée"""" René Descartes""",29,Rue Descartes,37160,Descartes,France,fr,open,46.972620899999995,0.6999355493597434,,,,,2013,payant:1524;gratuit:526;total:2050;mdf-date:01/02/2003,osm:museum;type:museum;label:musee de france,,,,
3711301,2188754054,Musée de Préhistoire du Grand Pressigny,,Rue des Remparts,37350,Le Grand-Pressigny,France,fr,open,46.9218966,0.8034128,,,,,2013,payant:8992;gratuit:9131;total:18123;mdf-date:30/04/2002,osm:museum;type:museum;label:musee de france,,,,
3713201,51827376,Musée Lansyer,1,Rue Lansyer,37600,Loches,France,fr,open,47.1270673,0.9977325383086448,,,,,2013,payant:0;gratuit:24076;total:24076;mdf-date:01/02/2003,osm:museum;type:museum;label:musee de france,,,,
3719601,,Musée de l'Hôtel de Ville,,,,RICHELIEU,France,fr,open,,,,,,,2013,payant:1645;gratuit:589;total:2234;mdf-date:01/02/2003,osm:museum;type:a classer;label:musee de france,,,,
3724101,,Musée du Savignéen,,,,SAVIGNE-SUR-LATHAN,France,fr,open,,,,,,,2013,payant:1915;gratuit:352;total:2267;mdf-date:01/02/2003,osm:museum;type:a classer;label:musee de france,,,,
4101805,273622,Blois,,,41000,Blois,France,fr,open,47.5876861,1.3337639,https://www.blois.fr/,,,,2013,payant:5998;gratuit:7684;total:13682;mdf-date:01/02/2003,osm:museum;type:administrative;label:musee de france,,Q160927,,
4101804,118645362,Maison de la Magie,,Grands Degrés du Château,41000,Blois,France,fr,open,47.5864248,1.333133645374559,,,,,2013,payant:69711;gratuit:22246;total:91957;mdf-date:01/02/2003,osm:museum;type:museum;label:musee de france,,,,
4119401,106812759,Musée de Sologne,,Avenue François Mitterrand,41200,Romorantin-Lanthenay,France,fr,open,47.3558188,1.750180813971796,,,,,2013,payant:4746;gratuit:10198;total:14944;mdf-date:01/02/2003,osm:museum;type:museum;label:musee de france,,,,
4520802,95074878,Musée Girodet,2,Rue du Faubourg de la Chaussée,45200,Montargis,France,fr,closed,47.997254999999996,2.7365194242424016,,,,,2013,payant:0;gratuit:0;total:;mdf-date:27/12/2002,osm:museum;type:museum;label:musee de france,,,,
1038701,73123253,Musée Saint-Loup (ancienne Abbaye Saint-Loup),61,Rue de la Cité,10000,Troyes,France,fr,open,48.3007334,4.080420707848399,http://www.musees-troyes.com/539-presentation-du-musee-saint-loup.htm,+333 25 42 20 09,,musart@ville-troyes.fr,2013,payant:0;gratuit:0;total:;mdf-date:01/02/2003,osm:museum;mhs-date:1963;type:museum;label:musee de france;label:monuments-historiques,,Q2820396,,PA00078248
1038706,73124719,Musée d'Art Moderne,,Rue de la Crosse,10000,Troyes,France,fr,open,48.29995,4.082291342005172,,,,,2013,payant:6317;gratuit:21377;total:27694;mdf-date:01/02/2003,osm:museum;type:museum;label:musee de france,,,,
5226902,489598272,Musée d'Art et d'Histoire Guy Baillet,,Rue de la Coutellerie,52200,Langres,France,fr,open,47.8646223,5.333331557244431,http://www.musees-langres.fr,+33 3 25 86 86 86,,,2013,payant:4373;gratuit:807;total:5180;mdf-date:01/02/2003,osm:museum;mhs-date:1840;type:place_of_worship;label:musee de france;label:monuments-historiques,,Q22985193,M0321,PA00079095
5123001,183978059,Musée de l'Ours des Cavernes,,D 45,73670,Entremont-le-Vieux,France,fr,closed,45.451615000000004,5.882174889178614,,,,,2013,payant:0;gratuit:0;total:;mdf-date:01/02/2003,osm:museum;type:museum;label:musee de france,,,,
5145407,90739087,Musé Automobile Reims Champagne,,Rue Pepersack,51100,Reims,France,fr,open,49.2501522,4.0502149537009995,,,,,2013,payant:6842;gratuit:12670;total:19512;mdf-date:01/02/2003,osm:museum;type:museum;label:musee de france,,Q15971985,,
2A27201,130679624,Musée de Préhistoire Corse,,D 57,20140,Sollacaro,France,fr,closed,41.74514845,8.870637949999999,,,,,2013,payant:0;gratuit:0;total:;mdf-date:01/02/2003,osm:museum;type:museum;label:musee de france,,,,
2B14801,,Musée Archéologique de Mariana - Prince Rainier III de Monaco,,,,LUCCIANA,France,fr,closed,,,,,,,2013,payant:0;gratuit:0;total:;mdf-date:23/02/2012,osm:museum;type:a classer;label:musee de france,,,,
3909701,847296482,Museo Regionale di Scienze Naturali,,Frazione Luboz,11018,Saint-Pierre,Italia,it,open,45.7102452,7.2269227,http://www.museoscienze.it/,,,,2013,payant:658;gratuit:0;total:658;mdf-date:01/02/2003,osm:museum;type:museum;label:musee de france,,Q3868455,,
3950002,151950172,La Grande Saline - Musée du Sel,,Place des Salines,39110,Salins-les-Bains,France,fr,closed,46.9376405,5.8761571935790275,http://www.salinesdesalins.com,+33 3 84 73 10 92,,,2013,payant:0;gratuit:0;total:;mdf-date:01/02/2003,osm:museum;type:museum;label:musee de france,,,M0353,
9000901,203596883,Musée Frédéric Japy,,Rue des Aiges,25230,Vandoncourt,France,fr,open,47.469297499999996,6.90605967289238,,,,,2013,payant:1053;gratuit:788;total:1841;mdf-date:01/02/2003,osm:museum;type:museum;label:musee de france,,,,
9001001,34588114,Musée d'Art et d'Histoire,,Allée de l'Option Française,90000,Belfort,France,fr,open,47.63662965,6.864735068130328,,,,,2013,payant:19605;gratuit:0;total:19605;mdf-date:01/02/2003,osm:museum;type:museum;label:musee de france,,,,
9001002,79763460,Donation Maurice Jardot,8,Rue de Mulhouse,90000,Belfort,France,fr,open,47.6427099,6.8557239777834384,,,,,2013,payant:6491;gratuit:0;total:6491;mdf-date:01/02/2003,osm:museum;type:museum;label:musee de france,,,,
9730201,1024331366,Musée départemental Alexandre Franconie,1,Avenue du Général de Gaulle,97300,Cayenne,France,fr,open,4.9382912,-52.3344262,,+594 594 29 59 13,,,2013,payant:2963;gratuit:4813;total:7776;mdf-date:01/02/2003,osm:museum;type:museum;label:musee de france,,Q15260096,M1063,
9201202,,Musée-Jardin Paul Landowski,,,,BOULOGNE-BILLANCOURT,France,fr,closed,,,,,,,2013,payant:0;gratuit:0;total:;mdf-date:01/02/2003,osm:museum;type:a classer;label:musee de france,,,,
9201201,,Musée des Années Trente,,,,BOULOGNE-BILLANCOURT,France,fr,open,,,,,,,2013,payant:9866;gratuit:13479;total:23345;mdf-date:01/02/2003,osm:museum;type:a classer;label:musee de france,,,,
9202301,71858423,Fondation Arp,21,Rue des Châtaigniers,92140,Clamart,France,fr,open,48.80356925,2.244439479972457,,,,,2013,payant:1579;gratuit:423;total:2002;mdf-date:16/12/2003,osm:museum;type:yes;label:musee de france,,,,
9202501,79575406,Musée d'Art et d'Histoire,,Place du Général Leclerc,92700,Colombes,France,fr,open,48.9234139,2.2520804122623574,https://www.colombes.fr/patrimoine-historique/decouvrez-le-musee-dart-et-dhistoire-745.html,+33147863885,,,2013,payant:0;gratuit:7164;total:7164;mdf-date:01/02/2003,osm:museum;type:museum;label:musee de france,,,,
9202601,82241201,Musée Roybet Fould,178,Boulevard Saint-Denis,92400,Courbevoie,France,fr,open,48.90043675,2.2718533501517357,,,,,2013,payant:0;gratuit:11654;total:11654;mdf-date:01/02/2003,osm:museum;type:museum;label:musee de france,,,,
9206301,2703428029,Atelier Grognard,,Avenue du Château de la Malmaison,92500,Rueil-Malmaison,France,fr,open,48.8737321,2.1687097,http://www.mairie-rueilmalmaison.fr/rueil-pratique/culture-tourisme/atelier-grognard,+33147141163;+33147323575,,expositions.ateliergrognard@mairie-rueilmalmaison.fr,2013,payant:38842;gratuit:32180;total:71022;mdf-date:06/01/2002,osm:museum;type:museum;label:musee de france,,,,
7511605,247618453,Musée des Arts et Métiers,,Rue Réaumur,75003,Paris,France,fr,closed,48.8660977,2.3554138,http://www.arts-et-metiers.net,+33 1 53 01 82 20,+33 1 53 01 82 01,,2013,payant:0;gratuit:0;total:;mdf-date:06/01/2002,osm:museum;type:museum;label:musee de france,,Q1538826,M5065,
7511601,80848762,Musée d'Ennery,,Avenue Foch,75116,Paris,France,fr,open,48.8714924,2.2814348372921613,,,,,2013,payant:0;gratuit:2040;total:2040;mdf-date:06/01/2002,osm:museum;type:museum;label:musee de france,,,,
7511701,84326105,Musée National Jean-Jacques Henner,,Rue Fortuny,75017,Paris,France,fr,open,48.88297625,2.3076796906695947,,,,,2013,payant:5375;gratuit:4521;total:9896;mdf-date:06/01/2002,osm:museum;type:museum;label:musee de france,,,,
7510307,2405955,Musée Carnavalet-Histoire de Paris,,Rue Payenne,75003,Paris,France,fr,open,48.85732324999999,2.3624733783107805,,,,,2013,payant:33724;gratuit:395028;total:428752;mdf-date:08/07/2004,osm:museum;type:museum;label:musee de france,,,,
7511616,84511129,Maison de Balzac,47,Rue Raynouard,75016,Paris,France,fr,open,48.85520045,2.2808817591013373,,,,,2013,payant:616;gratuit:43422;total:44038;mdf-date:08/07/2004,osm:museum;type:museum;label:musee de france,,,,
7510802,5304864568,Musée de la Musique,221,Avenue Jean Jaurès,75019,Paris,France,fr,open,48.8901928,2.393712,,,,,2013,payant:148660;gratuit:50561;total:199221;mdf-date:06/01/2002,osm:museum;type:museum;label:musee de france,,,,
7510705,,Etablissement public du musée d'Orsay et de l'Orangerie - Musée d'Orsay,,,,PARIS,France,fr,open,,,,,,,2013,payant:2017847;gratuit:1449474;total:3467321;mdf-date:06/01/2002,osm:museum;type:a classer;label:musee de france,,,,
7510306,,"Musée Cognacq-Jay, Musée du XVIIIe siècle de la ville de Paris",,,,PARIS,France,fr,open,,,,,,,2013,payant:4835;gratuit:46549;total:51384;mdf-date:08/07/2004,osm:museum;type:a classer;label:musee de france,,,,
7510303,56687783,Musée d'Art et d'Histoire du Judaïsme,,Passage Sainte-Avoie,75003,Paris,France,fr,open,48.861266400000005,2.3554416476457307,,,,,2013,payant:79340;gratuit:38304;total:117644;mdf-date:01/02/2003,osm:museum;type:museum;label:musee de france,,,,
7510402,5918699678,Le Musée,,Rue Joliot-Curie,91190,Le Moulon,France,fr,open,48.7094092,2.1666145,,,,,2013,payant:2745810;gratuit:1086601;total:3832411;mdf-date:06/01/2002,osm:museum;type:cafe;label:musee de france,,,,
7510519,22870791,Institut du Monde Arabe,1,Rue des Fossés Saint-Bernard,75005,Paris,France,fr,open,48.848916349999996,2.3574932625000007,,,,,2013,payant:182806;gratuit:99694;total:282500;mdf-date:14/01/2011,osm:museum;type:museum;label:musee de france,,,,
7710802,,"Musée des Transports Urbains, Interurbains et Ruraux",,,,CHELLES,France,fr,closed,,,,,,,2013,payant:0;gratuit:0;total:;mdf-date:01/02/2003,osm:museum;type:a classer;label:musee de france,,,,
7728802,112363959,Musée de la Gendarmerie nationale,1-3,Rue Émile Leclerc,77000,Melun,France,fr,open,48.54554555,2.6529119346368715,http://www.gendarmerie.interieur.gouv.fr/musee/,+33 1 64 14 54 64,,,2013,payant:791;gratuit:5880;total:6671;mdf-date:01/02/2003,osm:museum;type:museum;label:musee de france,,Q23057803,,
7737901,2281215620,Musée de Provins et du Provinois,,Rue du Palais,77160,Provins,France,fr,open,48.5615816,3.2907221,,,,,2013,payant:15640;gratuit:5578;total:21218;mdf-date:01/02/2003,osm:museum;type:museum;label:musee de france,,,,
7753301,249312019,Musée Stéphane-Mallarmé,,Quai Stéphane Mallarmé,77870,Vulaines-sur-Seine,France,fr,open,48.43122295,2.747069924160446,http://www.seine-et-marne.fr/front/go.do?sid=mus_es_d_partementaux_112599978102422014,+33 1 64 23 73 27,,,2013,payant:3978;gratuit:2131;total:6109;mdf-date:01/02/2003,osm:museum;type:museum;label:musee de france,,,M0386,
9301301,81191118,Musée de l'Air et de l'Espace,,Avenue Alain Bozel,93350,Dugny,France,fr,open,48.94707965,2.435070797065963,,,,,2013,payant:136241;gratuit:161544;total:297785;mdf-date:06/01/2002,osm:museum;type:museum;label:musee de france,,,,
9304601,145134117,Musée technique des Poudres de l'Armement René Amiable,,Rue du Docteur Roux,93190,Livry-Gargan,France,fr,closed,48.934633649999995,2.5517116365355736,,,,,2013,payant:0;gratuit:0;total:;mdf-date:01/02/2003,osm:museum;type:yes;label:musee de france,,,,
9307001,12625911,Channel Islands Military Museum,,Route des Laveurs,JE3 7FQ,St. Ouen,Jersey,je,closed,49.2291856,-2.2343313,,,,,2013,payant:0;gratuit:0;total:;mdf-date:01/02/2003,osm:museum;type:museum;label:musee de france,,,,
9501801,80773777,Château de Rubelles,,Rue de Rubelles,95390,Saint-Prix,France,fr,closed,49.01175795,2.264040737016648,,,,,2013,payant:0;gratuit:0;total:;mdf-date:01/02/2003,osm:museum;type:museum;label:musee de france,,,,
9520501,355298205,Musée de la Renaissance - Château d'Ecouen,,Rue Paul Lorillon,95440,Écouen,France,fr,open,49.01583335,2.3756373812644034,,,,,2013,payant:15727;gratuit:41274;total:57001;mdf-date:06/01/2002,osm:museum;type:castle;label:musee de france,,,,
9531301,2584777625,Musée d'Art et d'Histoire Louis Senlecq,,Grande Rue,95290,L'Isle-Adam,France,fr,open,49.1125448,2.2159284,,,,,2013,payant:2540;gratuit:7177;total:9717;mdf-date:01/02/2003,osm:museum;type:museum;label:musee de france,,,,
7835001,111722627,Musée du Domaine royal de Marly,1,Route de la Grille Royale,78160,Marly-le-Roi,France,fr,open,48.85892685,2.1055024916555407,https://musee-domaine-marly.fr/,+33139690626,+33130820995,,2013,payant:7430;gratuit:2881;total:10311;mdf-date:01/02/2003,osm:museum;type:museum;label:musee de france,,,,
7849801,,Musée du Jouet Pierre Pinel,,,,POISSY,France,fr,open,,,,,,,2013,payant:11658;gratuit:5967;total:17625;mdf-date:01/02/2003,osm:museum;type:a classer;label:musee de france,,,,
1119401,186119163,Musée Municipal,,Route des Châteaux,11600,Lastours,France,fr,closed,43.3345386,2.378578108690959,,,,,2013,payant:0;gratuit:0;total:;mdf-date:01/02/2003,osm:museum;type:museum;label:musee de france,,,,
1120601,799714487,Musée Petiet,,Avenue Fabre d'Églantine,11300,Limoux,France,fr,open,43.0534043,2.2144622,,,,,2013,payant:590;gratuit:2206;total:2796;mdf-date:01/02/2003,osm:museum;type:museum;label:musee de france,,,,
1136901,758324962,Amphoralis,,Chemin de Halage,11590,Sallèles-d'Aude,France,fr,open,43.273517,2.9369963132911447,,,,,2013,payant:6494;gratuit:1482;total:7976;mdf-date:01/02/2003,osm:museum;type:museum;label:musee de france,,Q23640596,,
3002801,3778245095,Musée Albert André,,Place Auguste Mallet,30200,Bagnols-sur-Cèze,France,fr,open,44.1619056,4.6203171,,,,,2013,payant:29;gratuit:4805;total:4834;mdf-date:01/02/2003,osm:museum;type:library;label:musee de france,,,,
3018906,249023783,Carré d'Art,16,Place de la Maison Carrée,30000,Nîmes,France,fr,open,43.8379778,4.3550651390627815,,+33466763530,,bibliotheque@ville-nimes.fr,2013,payant:17840;gratuit:23383;total:41223;mdf-date:01/02/2003,osm:museum;type:library;label:musee de france,,Q1045385,,
3403201,,Musée des Beaux-Arts de Béziers,,,,BEZIERS,France,fr,open,,,,,,,2013,payant:3068;gratuit:16642;total:19710;mdf-date:01/02/2003,osm:museum;type:a classer;label:musee de france,,,,
3403203,70070,Béziers,,,34500,Béziers,France,fr,closed,43.3426562,3.2131307,http://www.ville-beziers.fr/,,,,2013,payant:0;gratuit:0;total:;mdf-date:01/02/2003,osm:museum;type:administrative;label:musee de france,,Q174019,,
3414201,5835417743,Musée Fleury,,Rue du Cardinal Fleury,34700,Lodève,France,fr,open,43.7318449,3.31993,,,,,2013,payant:21997;gratuit:7664;total:29661;mdf-date:01/02/2003,osm:museum;type:museum;label:musee de france,,,,
3417210,1226892,Musée Fabre,,Cour de la Mosaïque,34062,Montpellier,France,fr,open,43.6117542,3.8801274326001858,http://museefabre.montpellier3m.fr/,+33 4 67 14 83 00,,,2013,payant:0;gratuit:0;total:;mdf-date:01/02/2003,osm:museum;type:museum;label:musee de france,,Q1519002,M0476,
4809501,,Musée Ignon Fabre,,,,MENDE,France,fr,closed,,,,,,,2013,payant:0;gratuit:0;total:;mdf-date:01/02/2003,osm:museum;type:a classer;label:musee de france,,,,
1927201,,Musée du Cloître de Tulle André Mazeyrie,,,,TULLE,France,fr,open,,,,,,,2013,payant:0;gratuit:18705;total:18705;mdf-date:01/02/2003,osm:museum;type:a classer;label:musee de france,,,,
1927501,1243279,Musée du Pays d'Ussel,,Rue Michelet,19200,Ussel,France,fr,open,45.546807799999996,2.3074353973684123,,,,,2013,payant:0;gratuit:2636;total:2636;mdf-date:08/08/2002,osm:museum;type:museum;label:musee de france,,,,
5430001,99542401,Musée de l'Histoire du Fer,,Avenue Général de Gaulle,54140,Jarville-la-Malgrange,France,fr,open,48.666507499999994,6.208713471590913,http://www.museehistoiredufer.fr/,+33 3 83152770,,,2013,payant:0;gratuit:0;total:;mdf-date:01/02/2003,osm:museum;type:museum;label:musee de france,,Q3329826,M0509,
5443101,,"""Musée """"au Fil du Papier""""""",,,,PONT-A-MOUSSON,France,fr,open,,,,,,,2013,payant:2772;gratuit:2301;total:5073;mdf-date:01/02/2003,osm:museum;type:a classer;label:musee de france,,,,
5452801,1198779245,Musée d’Art et d’Histoire Michel Hachet,25,Rue Gouvion Saint-Cyr,54200,Toul,France,fr,open,48.6784079,5.8911945,http://www.toul.fr,+33 3 83 64 13 38,,,2013,payant:0;gratuit:5239;total:5239;mdf-date:01/02/2003,osm:museum;type:museum;label:musee de france,,Q3329626,M0515,
5550202,134231670,Musée de la Bière et du Pays de Stenay,17,Rue du Moulin,55700,Stenay,France,fr,open,49.488918999999996,5.186675922267025,,,,,2013,payant:7931;gratuit:11854;total:19785;mdf-date:24/02/2003,osm:museum;type:museum;label:musee de france,,,,
5753701,823312790,Musée de la Mine - Carreau Wendel,,Rue Saint-Charles,57540,Petite-Rosselle,France,fr,open,49.2039277,6.8630557,,,,,2013,payant:32522;gratuit:11178;total:43700;mdf-date:01/02/2003,osm:museum;type:museum;label:musee de france,,,,
5763101,,"Jardin d'Hiver, Musée de La Faïence",,,,SARREGUEMINES,France,fr,open,,,,,,,2013,payant:5338;gratuit:6162;total:11500;mdf-date:01/02/2003,osm:museum;type:a classer;label:musee de france,,,,
8816002,7012693985,Musée de l'Image,42,Quai de Dogneville,88000,Épinal,France,fr,open,48.1838682,6.446526,,,,,2013,payant:21067;gratuit:6940;total:28007;mdf-date:01/02/2003,osm:museum;type:museum;label:musee de france,,,,
8835101,,Musée Louis Français,,,,PLOMBIERES-LES-BAINS,France,fr,open,,,,,,,2013,payant:159;gratuit:200;total:359;mdf-date:01/02/2003,osm:museum;type:a classer;label:musee de france,,,,
8838301,5390940587,Musée Charles de Bruyères,,Rue Charles de Gaulle,88200,Remiremont,France,fr,open,48.0161212,6.593241,,,,,2013,payant:429;gratuit:2947;total:3376;mdf-date:11/08/2002,osm:museum;type:museum;label:musee de france,,,,
9720902,4807601528,Musée Régional d'Histoire et d'Éthnographie,10,Boulevard Général de Gaulle,97200,Fort-de-France,France,fr,open,14.6063988,-61.0657667,,,,,2013,payant:2233;gratuit:3674;total:5907;mdf-date:01/02/2003,osm:museum;type:museum;label:musee de france,,Q15818376,M1066,
9722001,1149383903,Ecomusée de la Martinique,,N 5,97211,Rivière-Pilote,France,fr,open,14.460341,-60.9094743,,,,,2013,payant:6467;gratuit:4541;total:11008;mdf-date:01/02/2003,osm:museum;type:museum;label:musee de france,,,,
9722501,,Musée Volcanologique Franck Arnold Perret,,,,SAINT-PIERRE,France,fr,open,,,,,,,2013,payant:22491;gratuit:957;total:23448;mdf-date:01/02/2003,osm:museum;type:a classer;label:musee de france,,,,
1209602,152865476,Musée Joseph Vaylet,,Rue Droite,12500,Espalion,France,fr,open,44.521226,2.7623283513681596,,,,,2013,payant:2462;gratuit:1560;total:4022;mdf-date:01/02/2003,osm:museum;type:museum;label:musee de france,,,,
1220202,124625419,Musée des Beaux-Arts Denys Puech,,Place Clemenceau,12000,Rodez,France,fr,open,44.348890499999996,2.5783265775714277,,,,,2013,payant:2273;gratuit:8154;total:10427;mdf-date:01/02/2003,osm:museum;type:museum;label:musee de france,,,,
3220801,5101531521,Musée archéologique Eugène Camoreyt,,Place du Général de Gaulle,32700,Lectoure,France,fr,open,43.9336845,0.6235845,http://www.lectoure.fr/fr-musee+archeologique.html,,,,2013,payant:1752;gratuit:938;total:2690;mdf-date:01/02/2003,osm:museum;type:museum;label:musee de france,,Q3329153,,
3225601,2923353853,Musée des Beaux-Arts et des Arts Décoratifs,,Rue de l'Évêché,32300,Mirande,France,fr,open,43.5153164,0.40345,,,,,2013,payant:519;gratuit:340;total:859;mdf-date:01/02/2003,osm:museum;type:museum;label:musee de france,,,,
3104201,,Musée du Pays de Luchon,,,,BAGNERES-DE-LUCHON,France,fr,open,,,,,,,2013,payant:1477;gratuit:711;total:2188;mdf-date:01/02/2003,osm:museum;type:a classer;label:musee de france,,,,
3155507,22718219,Musée des Augustins,,Rue Antonin Mercié,31000,Toulouse,France,fr,open,43.6009417,1.4463433320120154,https://www.augustins.org/,+33 5 61 22 21 82,,,2013,payant:0;gratuit:752;total:752;mdf-date:01/02/2003,osm:museum;mhs-date:1840;type:museum;label:musee de france;label:monuments-historiques,,Q3001664,M0562,PA00094510
3155506,247081244,Musée du Vieux Toulouse,,Rue du May,31000,Toulouse,France,fr,open,43.6023148,1.4431296,,,,,2013,payant:6346;gratuit:935;total:7281;mdf-date:01/02/2003,osm:museum;type:museum;label:musee de france,,,,
3155501,22718219,Musée des Augustins,,Rue Antonin Mercié,31000,Toulouse,France,fr,open,43.6009417,1.4463433320120154,https://www.augustins.org/,+33 5 61 22 21 82,,,2013,payant:42703;gratuit:77033;total:119736;mdf-date:01/02/2003,osm:museum;mhs-date:1840;type:museum;label:musee de france;label:monuments-historiques,,Q3001664,M0562,PA00094510
6505901,,Musée Bigourdan du Vieux Moulin,,,,BAGNERES-DE-BIGORRE,France,fr,closed,,,,,,,2013,payant:0;gratuit:0;total:;mdf-date:01/02/2003,osm:museum;type:a classer;label:musee de france,,,,
4610201,6407717146,Musée du Vieux Figeac,,Route de Cahors,46330,Orniac,France,fr,open,44.5194917,1.6810841,,,,,2013,payant:347;gratuit:615;total:962;mdf-date:01/02/2003,osm:museum;type:museum;label:musee de france,,,,
4618501,,Musée Gallo-Romain d'Uxellodunum,,,,MARTEL,France,fr,open,,,,,,,2013,payant:450;gratuit:59;total:509;mdf-date:01/02/2003,osm:museum;type:a classer;label:musee de france,,,,
4629901,,Musée Départemental de Cuzals,,,,SAULIAC-SUR-CELE,France,fr,open,,,,,,,2013,payant:6937;gratuit:2755;total:9692;mdf-date:01/02/2003,osm:museum;type:a classer;label:musee de france,,,,
8106501,1436215239,Musée Goya,1,Rue de l'Hôtel de Ville,81100,Castres,France,fr,open,43.6035253,2.2417743,,,,,2013,payant:10651;gratuit:15248;total:25899;mdf-date:06/01/2002,osm:museum;type:museum;label:musee de france,,,,
8114501,,Musée Raymond Lafage,,,,LISLE-SUR-TARN,France,fr,open,,,,,,,2013,payant:2324;gratuit:4924;total:7248;mdf-date:01/02/2003,osm:museum;type:a classer;label:musee de france,,,,
8122001,,Musée du Pays Rabastinois,,,,RABASTENS,France,fr,open,,,,,,,2013,payant:743;gratuit:3272;total:4015;mdf-date:01/02/2003,osm:museum;type:a classer;label:musee de france,,,,
8200801,,Musée du Vieil Auvillar,,,,AUVILLAR,France,fr,open,,,,,,,2013,payant:2101;gratuit:645;total:2746;mdf-date:01/02/2003,osm:museum;type:a classer;label:musee de france,,,,
8212101,127805191,Musée Ingres,,Rue Marie Lafon,82000,Montauban,France,fr,open,44.01688865,1.3514607739557976,https://museeingresbourdelle.com/,+33 5 63 22 12 92,,,2013,payant:1461;gratuit:7312;total:8773;mdf-date:01/02/2003,osm:museum;mhs-date:1910-03-11;type:museum;label:musee de france;label:monuments-historiques,,Q2843748,M0607,PA00095805
8212102,127805191,Musée Ingres,,Rue Marie Lafon,82000,Montauban,France,fr,open,44.01688865,1.3514607739557976,,,,,2013,payant:14651;gratuit:23111;total:37762;mdf-date:06/01/2002,osm:museum;type:museum;label:musee de france,,,,
5903601,107548567,Musée archéologique,,Allée Chanoine Biévelet,59570,Bavay,France,fr,closed,50.298608,3.79103261466165,https://forumantique.fr/,,,,2013,payant:0;gratuit:0;total:;mdf-date:01/02/2003,osm:museum;type:museum;label:musee de france,,,,
5909201,115800970,Musée d'histoire et de folklore,16,Rue de Bouchain,7800,Ath,België / Belgique / Belgien,be,open,50.630392799999996,3.779913004544891,,,,,2013,payant:42;gratuit:396;total:438;mdf-date:01/02/2003,osm:museum;type:museum;label:musee de france,,,,
5912201,6098585497,Musée de Cambrai,15,Rue de l'Épée,59400,Cambrai,France,fr,open,50.1734096,3.2299021,http://www.villedecambrai.com/culture/le-musee-des-beaux-arts/,,,,2013,payant:1883;gratuit:13749;total:15632;mdf-date:01/02/2003,osm:museum;type:museum;label:musee de france,,Q3228695,M0615,
5934501,,"Musée de la Mine, Centre Historique Minier",,,,LEWARDE,France,fr,open,,,,,,,2013,payant:144177;gratuit:15296;total:159473;mdf-date:01/02/2003,osm:museum;type:a classer;label:musee de france,,,,
5935004,7818582178,Musée de l'Hospice Comtesse,,Rue de la Monnaie,59021,Lille,France,fr,open,50.6411688,3.0632054,,,,,2013,payant:89900;gratuit:0;total:89900;mdf-date:01/02/2003,osm:museum;type:museum;label:musee de france,,,,
5939201,,Musée Henri Boez,,,,MAUBEUGE,France,fr,closed,,,,,,,2013,payant:0;gratuit:0;total:;mdf-date:01/02/2003,osm:museum;type:a classer;label:musee de france,,,,
5960601,626582331,Musée des Beaux-Arts,,Rue des Incas,59300,Valenciennes,France,fr,open,50.3575723,3.5306353,,,,,2013,payant:38880;gratuit:0;total:38880;mdf-date:06/01/2002,osm:museum;type:museum;label:musee de france,,,,
6216001,5904746931,Maison de la Beurière,,Rue du Machicoulis,62200,Boulogne-sur-Mer,France,fr,open,50.7299242,1.5979171,,,,,2013,payant:14933;gratuit:11582;total:26515;mdf-date:01/02/2003,osm:museum;type:museum;label:musee de france,,,,
6276502,7944467329,Musée Henri Dupuis,,Rue Henri Dupuis,62500,Saint-Omer,France,fr,closed,50.7484196,2.2511244,,,,,2013,payant:0;gratuit:0;total:;mdf-date:01/02/2003,osm:museum;type:museum;label:musee de france,,,,
1437002,2405267465,Musée de la Meunerie - Moulin de Marcy,,Rue de Marcy,14330,Littry,France,fr,open,49.2277192,-0.9045211,,,,,2013,payant:3170;gratuit:2707;total:5877;mdf-date:01/02/2003,osm:museum;type:museum;label:musee de france,,,,
1436601,130317028,Musée d'Art et d'Histoire de Lisieux,,Rue du Bon Ange,14100,Lisieux,France,fr,open,49.144569000000004,0.21921411544037808,,,,,2013,payant:23;gratuit:3042;total:3065;mdf-date:01/02/2003,osm:museum;type:museum;label:musee de france,,,,
1451201,7579732101,Musée de l'imprimerie,,Rue des Léopards,14110,Vire,France,fr,open,48.8589438,-0.5682422,,,,,2013,payant:3061;gratuit:1337;total:4398;mdf-date:01/02/2003,osm:museum;type:museum;label:musee de france,,,,
1458201,329998597,Château de Saint-Germain de Livet,,D 268,14100,Saint-Germain-de-Livet,France,fr,open,49.0890928,0.2143756760222387,,,,,2013,payant:9535;gratuit:8421;total:17956;mdf-date:01/02/2003,osm:museum;type:castle;label:musee de france,,,,
1476201,273869916,Musée Municipal,,Place Sainte-Anne,14500,Vire,France,fr,open,48.83614215,-0.8884562231308408,,,,,2013,payant:1165;gratuit:5756;total:6921;mdf-date:01/02/2003,osm:museum;type:museum;label:musee de france,,,,
5002501,135528003,Musée Christian Dior,,Rue du Docteur Ollivier,50400,Granville,France,fr,open,48.8429745,-1.592543481481478,,,,,2013,payant:894;gratuit:828;total:1722;mdf-date:01/02/2003,osm:museum;type:museum;label:musee de france,,Q3329113,,
